대피소명,주소,위도,경도,유형
"SK북한산시티아파트(P207, 135동)(지하3층)","서울특별시 강북구 솔샘로 174, 135동 (미아동, SK북한산시티아파트)",37.61797602144523,127.01263072481504,민방위대피시설
와이스퀘어(지하3~4층),"서울특별시 강북구 도봉로 52, 연이빌딩 (미아동)",37.61370134770077,127.03051401320702,민방위대피시설
서울숲 코오롱디지털타워1차(지하1~3층),"서울특별시 성동구 성수일로4길 25, 서울숲코오롱디지털타워 (성수동2가)",37.54257537836733,127.05195698429787,민방위대피시설
"가리봉동주민센터 지하1층 주차장, 지하2층 주차장","서울특별시 구로구 우마2길 35, 가리봉주민센터 (가리봉동)",37.48255814209385,126.8896849297087,민방위대피시설
광운대학교 지하2~3층 주차장,"서울특별시 노원구 광운로 20 (월계동, 광운대학교)",37.619703317828815,127.05967063453927,민방위대피시설
시립뇌성마비복지관 지하1층 식당,"서울특별시 노원구 덕릉로70가길 96, 서울시립뇌성마비복지관 (상계동)",37.64233827270768,127.05676038927936,민방위대피시설
강동경희대학교 병원 본관동 지하1층,"서울특별시 강동구 동남로 892, 강동경희대학교병원 본관동 지하 1층 (상일동)",37.55323063432135,127.1574066974424,민방위대피시설
관악동부센트레빌 지하주차장 (지하1~3층),서울특별시 관악구 은천로33길 5 (봉천동),37.48720487725819,126.95099111426332,민방위대피시설
성현동아아파트109동 지하주차장 (지하1층),서울특별시 관악구 관악로 285 (봉천동),37.48959213306273,126.95555462675844,민방위대피시설
봉천동아아파트 201-4동 지하주차장 (지하1층),서울특별시 관악구 관악로37길 20 (봉천동),37.48789857612395,126.95618032702733,민방위대피시설
관악드림타운(아) 지하주차장15 (지하1~2층),서울특별시 관악구 성현로 80 (봉천동),37.48976793691567,126.95061985206716,민방위대피시설
신사두산위브1차 아파트 지하주차장 1층,"서울특별시 은평구 갈현로1길 36 (신사동, 은평신사두산위브아파트)",37.599940859477805,126.90570170674728,민방위대피시설
"성원아파트 지하주차장 1, 2층","서울특별시 은평구 갈현로4길 26-5 (신사동, 신사성원아파트)",37.600444606609045,126.91330126188755,민방위대피시설
혜심원(지하1층),서울특별시 용산구 소월로2나길 18 (후암동),37.553398276776456,126.9774808141863,민방위대피시설
"GS건설, 그랑서울 지하2~7층",서울특별시 종로구 종로 33 (청진동),37.571109979834496,126.98138955665664,민방위대피시설
"한신휴플러스아파트 지하주차장 1, 2층","서울특별시 은평구 갈현로1길 31 (신사동, 신사동한신휴플러스)",37.59896419845787,126.90616982364314,민방위대피시설
신사씨티아파트 지하주차장 2층,"서울특별시 은평구 가좌로 391 (신사동, 씨티아파트)",37.60035506895496,126.9041067003936,민방위대피시설
임탑아파트 지하주차장 1층,"서울특별시 은평구 갈현로5길 25-11 (신사동, 임탑아파트)",37.60173602767087,126.90844155920556,민방위대피시설
"청운제일아파트 지하주차장 1, 2층","서울특별시 은평구 증산로 417 (신사동, 청운제일아파트)",37.59362521292106,126.91390549004872,민방위대피시설
라이프씨티아파트 지하주차장 1층,"서울특별시 은평구 갈현로3다길 15 (신사동, 라이프씨티아파트)",37.60237691177615,126.9053360555638,민방위대피시설
"삼부아파트 지하주차장 2, 3층","서울특별시 은평구 증산로21길 11 (신사동, 신흥상가삼부아파트)",37.59568532796696,126.91344945073612,민방위대피시설
래미안 트리베라1차 아파트 주차장(삼각산동)(지하3층),"서울특별시 강북구 삼양로19길 25 (미아동, 삼성래미안트리베라1차아파트)",37.613942302493854,127.02072627643976,민방위대피시설
한겨레신문사(지하1~지하3층 주차장),"서울특별시 마포구 효창목길 6 (공덕동, 한겨레신문사)",37.54699141363339,126.95884241205742,민방위대피시설
상일동역 지하1층 역사,서울특별시 강동구 고덕로 지하 359 (상일동),37.55467383087276,127.15697167802944,민방위대피시설
남경도빌딩 지하2층,"서울특별시 관악구 남부순환로 1836 (봉천동, 호산빌딩)",37.48048300822663,126.95373848720916,민방위대피시설
정성요양병원 본관(지하1층주차장),서울특별시 구로구 남부순환로107길 24 (가리봉동),37.47952988573609,126.89460291651662,민방위대피시설
성북역신도브래뉴아파트 지하1층 주차장,"서울특별시 노원구 광운로19길 38 (월계동, 성북역신도브래뉴)",37.62314965522131,127.05891944417311,민방위대피시설
하나플러스2차아파트 지하주차장 1층,"서울특별시 강동구 양재대로85길 60, 지하1층 (성내동, 하나플러스ll)",37.52534252420941,127.13154599815816,민방위대피시설
"용두동롯데캐슬리치지하주차장 지하1,2층","서울특별시 동대문구 한빛로 73(용두동, 용두롯데캐슬리치)",37.57912617279638,127.03097660032655,민방위대피시설
하버라인3단지  지하1~2층 주차장,"서울특별시 구로구 항동로 43 (항동, 하버라인 3단지)",37.47900336330722,126.82427407641929,민방위대피시설
경남아파트 (지하1층~지하3층),"서울특별시 강남구 논현로 209 (도곡동, 경남아파트)",37.488873108364544,127.0408036698954,민방위대피시설
관악 위버폴리스 (지하2~6층),"서울특별시 관악구 관악로 195 (봉천동, 관악위버폴리스)",37.48271640634993,126.95322951218368,민방위대피시설
포스코트아파트 (지하1층~지하2층),"서울특별시 강남구 남부순환로381길 15 (도곡동, 포스코트아파트)",37.48790885835242,127.0476121896068,민방위대피시설
동진빌딩 지하2~3층,"서울특별시 관악구 관악로 217 (봉천동, 동진빌딩)",37.48437723897458,126.95460459787978,민방위대피시설
사가정역(지하 1~3층),"서울특별시 중랑구 사가정로 지하 393 (면목동, 사가정역)",37.58256772289246,127.0881293670504,민방위대피시설
신봉아파트101동 지하1층,"서울특별시 관악구 양녕로6나길 18 (봉천동, 신봉아파트)",37.48493463093414,126.9496613642968,민방위대피시설
서울숲 한라시그마밸리(지하1~5층),"서울특별시 성동구 성수이로 51, 서울숲한라시그마벨리 (성수동2가)",37.54026405150838,127.0550811893522,민방위대피시설
사당롯데캐슬골든포레 108동 지하3층주차장,"서울특별시 동작구 사당로 90, 108동 (사당동, 사당 롯데캐슬 골든포레)",37.49172204106269,126.9622750716142,민방위대피시설
금광아크존 지하 1~2층,"서울특별시 강남구 압구정로42길 36 (신사동, 금광아크존1)",37.52655404076346,127.03462363257331,민방위대피시설
서초호반써밋아파트 지하1~2층,"서울특별시 서초구 양재대로2길 109 (우면동, 서초호반써밋)",37.4564360344674,127.01325194655482,민방위대피시설
하얏트호텔(지하1~2층),"서울특별시 용산구 소월로 322, 하얏트호텔 지하 1~2층 (한남동)",37.53954372308087,126.9978134511501,민방위대피시설
제일기획빌딩(지하3~4층),"서울특별시 용산구 이태원로 222, 제일기획 (한남동)",37.53495593900886,126.99883413352175,민방위대피시설
지하철 한강진역(지하1~4층),"서울특별시 용산구 이태원로 지하287, 6호선 한강진역 지하 4층 (한남동)",37.54080648175042,127.00184062643066,민방위대피시설
신길동 힐스테이트클래시안 아파트 지하주차장 B2~B4층,"서울특별시 영등포구 신길로28길 9(신길동, 힐스테이트 클래시안)",37.5041299181483,126.91193343560352,민방위대피시설
보광동신동아아파트 지하1층,"서울특별시 용산구 장문로 104 (보광동, 신동아아파트)",37.52586033223807,127.0018510941646,민방위대피시설
벽산상가 지하1층,"서울특별시 노원구 섬밭로 209 (하계동, 신한은행)",37.635445305241525,127.0642437302828,민방위대피시설
방송회관 지하1~6층 주차장,"서울특별시 양천구 목동동로 233 (목동, 한국방송회관)",37.526958858816215,126.87150527268813,민방위대피시설
지웰홈스 왕십리 지하1층~지하2층,"서울특별시 성동구 고산자로14길 26 (행당동, 지웰홈스 왕십리)",37.56345582125735,127.03759360435652,민방위대피시설
고척동아한신아파트(지하1층 주차장),"서울특별시 구로구 중앙로6길 17(고척동, 고척동 동아한신아파트)",37.50091386390269,126.86513100363774,민방위대피시설
고척아이파크아파트RD(모든 동 지하1~2층 주차장),"서울특별시 구로구 중앙로5길 59 (고척동, 고척아이파크)",37.50061918634152,126.85938876985972,민방위대피시설
남해오네뜨아파트 지하주차장 1층,"서울특별시 동작구 사당로2가길 173 (사당동, 남해오네뜨아파트)",37.48707840297657,126.96553292972546,민방위대피시설
사당자이아파트 2주차장 지하2층,"서울특별시 동작구 사당로2가길 102 (사당동, 사당자이아파트)",37.488696924152485,126.9624445955538,민방위대피시설
삼호그린아파트 상가주차장 지하1층,"서울특별시 동작구 사당로2가길 188 (사당동, 삼호그린아파트)",37.486046971997744,126.96531918618294,민방위대피시설
꿈의숲 아이파크 지하주차장(지하2층),서울특별시 성북구 돌곶이로40길 46(장위동),37.619153850088274,127.04865292569504,민방위대피시설
고덕전철역 지하1층역사,서울특별시 강동구 고덕로 지하 253 (고덕동),37.55562577626306,127.15385487581705,민방위대피시설
백련산 해모로APT(101동~109동 지하3층),"서울특별시 은평구 응암로30길 15(응암동, 백련산해모로)",37.59625099931415,126.92204722603448,민방위대피시설
잠실우성4차아파트 101동~108동 지하 1층,"서울특별시 송파구 백제고분로18길 30 (잠실동, 우성아파트)",37.50281855020779,127.08293328274236,민방위대피시설
사당해그린 아파트 지하주차장 1층,"서울특별시 동작구 사당로2길 40 (사당동, 사당해그린 아파트)",37.4918745948388,126.96334613191712,민방위대피시설
삼창프라자,서울특별시 마포구 마포대로 63 (도화동),,,민방위대피시설
마스터즈 빌딩,"서울특별시 마포구 독막로 331, 마스터즈타워빌딩 (도화동)",37.542978291810456,126.94935840949854,민방위대피시설
한전강동지점,"서울특별시 강동구 양재대로 1318, 한국전력 강동송파지사 (둔촌동)",37.52382259911762,127.13557028704068,민방위대피시설
창1동 주민센터 지하주차장 1층,"서울특별시 도봉구 해등로 46, 창1동 주민센터 (창동)",37.64836973486782,127.04381944126904,민방위대피시설
잠실본동 복합청사 지하2층,"서울특별시 송파구 백제고분로 145, 잠실본동 복합청사 지하 2층 (잠실동)",37.506064661744176,127.08319556689956,민방위대피시설
잠실종합시장 지하주차장 1층,서울특별시 송파구 백제고분로 157(잠실동),37.505807443126265,127.08431837138164,민방위대피시설
홍익대학교 제3기숙사(지하1~2층주차장),"서울특별시 마포구 성미산로 55 (성산동, 홍익대학교제3기숙사)",37.5599961180448,126.91428373478524,민방위대피시설
선사현대아파트(지하 2-3층 주차장),서울특별시 강동구 상암로 11 (암사동),37.55239634640669,127.12581444035132,민방위대피시설
금란교회(지하주차장 3~6층),서울특별시 중랑구 망우로 455 (망우동),37.60071657015975,127.10278088928884,민방위대피시설
갑을빌딩(지하1층),"서울특별시 용산구 한강대로 350, 지하1층 (갈월동)",37.549665395361146,126.97232123765065,민방위대피시설
"서울시립대운동장 지하주차장 1,2,3구역","서울특별시 동대문구 서울시립대로 163, 서울시립대학교 (전농동)",37.58342368719349,127.0600269715469,민방위대피시설
DMC진흥아파트 101~106동 지하1~2층,"서울특별시 은평구 은평터널로 60 (수색동, DMC진흥)",37.58536960438504,126.90029487844092,민방위대피시설
노원평생학습관 지하1층,"서울특별시 노원구 동일로204길 13 (중계동, 노원평생학습관)",37.64011576191354,127.06711186365692,민방위대피시설
씨티21 지하1~2층 주차장,"서울특별시 서초구 반포대로 316 (잠원동, 씨티21)",37.50722763753468,127.00065658586584,민방위대피시설
안국약품빌딩 지하1층 주차장,서울특별시 영등포구 시흥대로 613(대림동),37.48746653210499,126.90453026760636,민방위대피시설
그린임광아파트 지하주차장 1~2층,"서울특별시 강서구 등촌로 113 (등촌동, 그린임광아파트)",37.54048032300166,126.8633680332808,민방위대피시설
탑스빌 아파트 지하1층,"서울특별시 금천구 금하로30길 34 (시흥동, 탑스빌아파트)",37.44885107000739,126.91580842924208,민방위대피시설
조달청 지하 1층,"서울특별시 서초구 반포대로 217 (반포동, 조달청빌딩)",37.499368838604624,127.00298726891592,민방위대피시설
대명아파트(지하1~2층주차장),"서울특별시 마포구 동교로39길 11 (연남동, 대명APT)",37.56168971436898,126.92371498745248,민방위대피시설
용산2가동 주민센터(지하1~3층),"서울특별시 용산구 신흥로 90, 용산2가동 주민센터, 용산치안센터 지하1~3층 (용산동2가)",37.54594448604836,126.98548153212536,민방위대피시설
브라운스톤 용산(지하1~2층),"서울특별시 용산구 효창원로 88 (용문동, 브라운스톤용산)",37.53626564305216,126.95919878916536,민방위대피시설
용산파크자이(지하1~5층),"서울특별시 용산구 한강대로 205,  지하1~5층 (한강로1가, 용산파크자이)",37.53662616570631,126.97266223474612,민방위대피시설
센트레빌아스테리움서울(지하2~9층),"서울특별시 용산구 한강대로 372, 지하2~9층 (동자동, 센트레빌아스테리움서울)",37.55167138124641,126.97321009279872,민방위대피시설
현대아이파크몰(용산역) ( 지하1~3층),"서울특별시 용산구 한강대로23길 55, 용산역 지하1~3층 (한강로3가)",37.529557443850194,126.96415655958724,민방위대피시설
서울역(4호선)(지하1~2층),"서울특별시 용산구 한강대로 지하392, 4호선 서울역 지하1~2층 (동자동)",37.55311357612027,126.97280135340576,민방위대피시설
YTN서울타워(지하1층),"서울특별시 용산구 남산공원길 105 (용산동2가, YTN서울타워)",37.546593020828055,126.98661869044476,민방위대피시설
지하철5호선 광화문역 지하1~3층 대합실 승강장,"서울특별시 종로구 세종대로 지하172, 5호선 광화문역 지하1~3층 (세종로)",37.5724324947868,126.97690187071568,민방위대피시설
용산구청(지하2~5층),"서울특별시 용산구 녹사평대로 150, 용산구종합행정타운 지하 2~5층 (이태원동)",37.53256194930026,126.99017877365188,민방위대피시설
용강동복합청사(지하1층 주차장),"서울특별시 마포구 토정로31길 31, 용강동주민센터 (용강동)",37.542316259342414,126.94279173343952,민방위대피시설
에이치제이중공업건설부문 남영동사옥(지하1~5층),"서울특별시 용산구 한강대로71길 4, 갈월동 오피스 지하1~5층 (갈월동)",37.54047824135908,126.97263812071012,민방위대피시설
시티파크2단지(지하1~3층),"서울특별시 용산구 서빙고로 31, 지하1~3층 (한강로3가, 용산 시티파크2단지)",37.52615855276717,126.96988316245596,민방위대피시설
시티파크1단지(지하1~3층),"서울특별시 용산구 서빙고로 35, 지하1~3층 (한강로3가, 용산시티파크1단지)",37.525111355114,126.9691450447234,민방위대피시설
파크타워(지하1~4층),"서울특별시 용산구 서빙고로 67, 지하1~4층 (용산동5가, 파크타워)",37.52427449835985,126.97068468903264,민방위대피시설
세종문화회관 지하2층 세종?충무공이야기 전시관,서울특별시 종로구 세종대로 175(세종로),37.57223601362092,126.97593363889352,민방위대피시설
이촌2동주민센터(지하1~2층),"서울특별시 용산구 이촌로18길 20, 이촌2동 주민센터 지하1~2층 (이촌동)",37.52623661492083,126.9546934214794,민방위대피시설
청파동주민센터(지하1~2층),"서울특별시 용산구 청파로49길 6, 청파동 주민센터 지하 1~2층 (청파동2가)",37.545469754518514,126.96987404675107,민방위대피시설
마곡13단지힐스테이트마스터 지하주차장 1~2층,"서울특별시 강서구 마곡중앙1로 71 (마곡동, 마곡13단지힐스테이트마스터)",37.557768707819314,126.81837588693094,민방위대피시설
효창동 청마루아파트(지하1~2층),"서울특별시 용산구 백범로 250 (효창동, 세양청마루아파트)",37.54074794912593,126.95696342948187,민방위대피시설
씨제이나인파크(지하1~3층),"서울특별시 용산구 백범로90다길 12, 지하1~3층 (문배동, 용산씨제이나인파크)",37.53608445810895,126.96917070728496,민방위대피시설
브라운스톤남산아파트(지하2층),"서울특별시 용산구 후암로 65 (후암동, 브라운스톤 남산아파트)",37.55132610759036,126.97625432641678,민방위대피시설
우이신설경전철 북한산보국문역(지하1층~지하2층),"서울특별시 성북구 보국문로 지하 88, 북한산보국문역 (정릉동)",37.61209203241808,127.00832285304011,민방위대피시설
이촌동 LG한강자이아파트(지하1~2층),"서울특별시 용산구 이촌로64길 15, 지하 1~!층 (이촌동, 엘지한강자이아파트)",37.5199475382537,126.9711072847556,민방위대피시설
한남동 현대홈타운(지하1~2층),"서울특별시 용산구 장문로 141, 지하 1~2층 (한남동, 한남힐스테이트)",37.52844128198096,127.00384726750148,민방위대피시설
서빙고 금호베스트빌(지하1~2층),"서울특별시 용산구 서빙고로51길 68-14 (서빙고동, 금호베스트빌)",37.52285806325372,126.99197372899718,민방위대피시설
국립중앙박물관(지하1~2층),"서울특별시 용산구 서빙고로 137 (용산동6가, 국립중앙박물관)",37.52303715167531,126.98223486572284,민방위대피시설
서빙고동주민센터(지하1~2층),"서울특별시 용산구 서빙고로 279 (서빙고동, 서빙고동주민센터)",37.52048894182185,126.9946164003098,민방위대피시설
용문동주민센터(지하1층~지하3층),"서울특별시 용산구 새창로12길 13 (도원동, 용문동 주민센터)",37.53895832413716,126.95756199339615,민방위대피시설
숙대입구역(지하1~2층),"서울특별시 용산구 한강대로 지하306, 숙대입구역 지하1~2층 (갈월동)",37.545565068334,126.97193987943236,민방위대피시설
언주역 지하1층,"서울특별시 강남구 봉은사로 지하 201 (논현동, 언주역)",37.50750324659042,127.03425391739646,민방위대피시설
용산도서관 민방위대피시설(지하1층),"서울특별시 용산구 두텁바위로 160 (후암동, 용산도서관)",37.55202273542142,126.98006726058718,민방위대피시설
녹사평역(지하1~5층),"서울특별시 용산구 녹사평대로 지하195, 6호선 녹사평역 지하1~5층 (용산동4가)",37.53444464762562,126.9855242970835,민방위대피시설
구의3동주민센터 지하주차장 1~2층,"서울특별시 광진구 강변역로 17 (구의동, 구의제3동 복합청사)",37.538004690828174,127.0919646866479,민방위대피시설
남영동주민센터(지하1층),"서울특별시 용산구 두텁바위로 25, 남영동 주민센터 지하1층층 (갈월동)",37.54578415337008,126.97482366336672,민방위대피시설
강동리엔파크 14단지 지하주차장 1~2층,"서울특별시 강동구 고덕로98길 160 (상일동, 강동리엔파크14단지)",37.551530528795496,127.1807013657164,민방위대피시설
개포동역(지하1층),"서울특별시 강남구 개포로 지하 420 (개포동, 개포동역)",37.489978528132255,127.0696789292436,민방위대피시설
효창공원앞역(지하1~3층),"서울특별시 용산구 백범로 지하 287 (효창동, 6호선효창공원앞역)",37.53962236776786,126.96098355034869,민방위대피시설
도원삼성래미안아파트(지하1층~지하4층),"서울특별시 용산구 새창로 70 (도원동, 삼성래미안아파트)",37.53829636680741,126.9553168842188,민방위대피시설
삼각지역(지하1~4층),"서울특별시 용산구 한강대로 지하180, 4호선 삼각지역 지하1~4층 (한강로1가)",37.53465300226385,126.97322168468602,민방위대피시설
LS용산타워(국제빌딩)(지하1~4층),"서울특별시 용산구 한강대로 92, LS용산타워 지하1~4층 (한강로2가)",37.52819366655062,126.9679732028217,민방위대피시설
지하철 이촌역(지하1~2층),"서울특별시 용산구 서빙고로 지하83, 4호선 이촌역 지하1~2층 (용산동5가)",37.52195015747084,126.97537839438108,민방위대피시설
월계역신도브래뉴아파트 지하1층 주차장,"서울특별시 노원구 광운로 132 (월계동, 월계역신도브래뉴)",37.62903648131783,127.05867554456697,민방위대피시설
이촌동 대림아파트(지하1~2층),"서울특별시 용산구 이촌로2가길 122, 지하1~2층 (이촌동, 대림아파트)",37.52521835040234,126.9549284703143,민방위대피시설
이촌동 현대한강아파트(지하1~2층),"서울특별시 용산구 이촌로34길 29, 지하1~2층 (이촌동, 현대한강아파트)",37.52332403139964,126.95757617157214,민방위대피시설
이촌동 북한강아파트( 지하1~2층),"서울특별시 용산구 이촌로2가길 66, 지하1~2층 (이촌동, 북한강아파트)",37.52730793985256,126.95379469935322,민방위대피시설
성산e편한세상2차(지하1층주차장),"서울특별시 마포구 월드컵북로 216 (성산동, 성산2차 e편한세상)",37.56976275318395,126.90535702166876,민방위대피시설
경희궁롯데캐슬아파트 지하2층,"서울특별시 종로구 통일로 230 (무악동, 경희궁롯데캐슬)",37.57381673907312,126.95932847985182,민방위대피시설
성신여자대학교교직원주차장(수정관) 지하 2층,"서울특별시 성북구 보문로34다길 2 (돈암동, 성신여자대학교)",37.59193936248421,127.02201993536724,민방위대피시설
인왕산2차 아이파크아파트 지하1층,"서울특별시 종로구 통일로18길 34, 201동 지하1층 (무악동, 인왕산2차아이파크아파트)",37.57573710370871,126.95960884169725,민방위대피시설
청화아파트(지하1층),"서울특별시 용산구 장문로 27, 청화아파트 지하층 (이태원동, 청화아파트)",37.52994795400553,126.99480696618645,민방위대피시설
해밀턴호텔(지하3~4층),"서울특별시 용산구 이태원로 179, 해밀톤호텔 (본관) 지하 3~4층 (이태원동)",37.53474390307045,126.99386278796077,민방위대피시설
삼환로즈빌아파트(지하1~2층주차장),"서울특별시 구로구 경인로 343 (고척동, 삼환로즈빌)",37.497864896839246,126.85804198914806,민방위대피시설
월드타운대림아파트(지하1층주차장),"서울특별시 마포구 월드컵북로30길 9-22 (성산동, 성산월드타운대림아파트)",37.56934395637128,126.90824343631196,민방위대피시설
아미여성병원,"서울특별시 노원구 노원로 416 (상계동, 모네여성병원)",37.653714942084775,127.06789767518408,민방위대피시설
삼창아파트 지하1층,"서울특별시 노원구 광운로2가길 22 (월계동, 삼창아파트)",37.61768355416171,127.05981470662032,민방위대피시설
새솔금호아파트 지하1~3주차장,"서울특별시 구로구 공원로 35 (구로동, 새솔금호아파트)",37.49999444008502,126.89031469878933,민방위대피시설
신안타워 지하2~4주차장,"서울특별시 구로구 구로중앙로 68 (구로동, 신안타워)",37.495840654798165,126.88882813949002,민방위대피시설
르메이에르아파트 지하주차장 1층,"서울특별시 동작구 사당로20길 119 (사당동, 르메이에르)",37.47841875752983,126.97370084040791,민방위대피시설
푸른마을동아아파트(101~107동)지하1~3층주차장,"서울특별시 성북구 서경로 31 (정릉동, 푸른마을 동아아파트)",37.60749452362579,127.01427680703186,민방위대피시설
정릉중앙하이츠빌1단지(101~105동) 지하주차장3층,"서울특별시 성북구 아리랑로19길 60 (정릉동, 중앙하이츠빌1단지아파트)",37.60278352003346,127.0094614937886,민방위대피시설
"일신건영아파트 지하1,2주차장","서울특별시 구로구 새말로9길 22 (구로동, 일신건영아파트)",37.50366324440318,126.88574838789314,민방위대피시설
SH스카이아파트 주차장-수유1동(지하1층),"서울특별시 강북구 인수봉로23가길 3 (수유동, SH스카이)",37.62761265631251,127.01185989783389,민방위대피시설
성산현대2차아파트(지하1층주차장),"서울특별시 마포구 성암로 79 (중동, 성산2차현대아파트)",37.57043965595032,126.90859688274546,민방위대피시설
구로리어린이공원 지하주차장(지하1~3층),"서울특별시 구로구 구로중앙로 13 (구로동, 구로리공원)",37.490883670043615,126.89160998916292,민방위대피시설
원효로2동 주민센터 지하주차장 1층,"서울특별시 용산구 효창원로8길 3, 원효로제2동 주민센터 지하1층 (산천동)",37.53434401445049,126.9515462915215,민방위대피시설
삼성아파트 지하주차장 1층,"서울특별시 동작구 사당로26길 130-6 (사당동, 삼성아파트)",37.47803518925711,126.97764213878736,민방위대피시설
범천타워 지하 1~4층,서울특별시 광진구 천호대로 572 (능동),37.55599275086556,127.08122432099827,민방위대피시설
한국성서대학교 밀알관 지하2층 주차장,"서울특별시 노원구 동일로214길 32, 한국성서대학교 (상계동)",37.64859988881251,127.06423657689204,민방위대피시설
"용신e편한세상센트럴포레 지하주차장 지하 1,2,3층","서울특별시 동대문구 무학로 91(용두동, e편한세상 청계센트럴포레 아파트)",37.57214289957388,127.0297411591114,민방위대피시설
우이제일교회 사회복지관(지하1층) - 우이동,"서울특별시 강북구 삼양로163길 63 (우이동, 우이제일교회 사회복지관)",37.65931229884211,127.01075751647085,민방위대피시설
정우빌딩(지하2층 주차장),"서울특별시 마포구 토정로37길 46(도화동, 정우빌딩)",37.54252169838882,126.94735603102892,민방위대피시설
래미안베라힐즈 지하1층~3층,"서울특별시 은평구 통일로 630 (녹번동, 래미안베라힐즈)",37.604144401594624,126.93614161876884,민방위대피시설
하계역(지하철 7호선) 지하2층,"서울특별시 노원구 동일로 지하 1196 (하계동, 하계역)",37.63525287330547,127.06852762090207,민방위대피시설
씨티극동아파트 전체 동의 지하주차장 지하1층,"서울특별시 송파구 한가람로 478 (풍납동, 씨티극동아파트)",37.539608408403055,127.1182075473822,민방위대피시설
능동 주민센터 지하 1층,"서울특별시 광진구 천호대로112길 55, 능동주민센터 (능동)",37.55376622260133,127.08054947278342,민방위대피시설
"제기 이수브라운아파트 지하주차장 지하1,2층","서울특별시 동대문구 왕산로23길 89 (제기동, 이수브라운스톤)",37.582200141810766,127.03408394671578,민방위대피시설
마장에스에이치빌 지하주차장(지하1층),"서울특별시 성동구 마조로15가길 23, 지하1층 (마장동, 마장 에스에이치빌)",37.564414602173926,127.0399902188298,민방위대피시설
은천1단지아파트 지하3층주차장,"서울특별시 관악구 인헌12길 46-2 (봉천동, 은천아파트)",37.47139036873712,126.96485394066026,민방위대피시설
"삼각산아이원아파트 주차장(104,105,106-지하3)","서울특별시 강북구 삼양로19길 113 (미아동, 삼각산아이원아파트)",37.61522628484686,127.01812713963942,민방위대피시설
신도림3차동아아파트(301~309동 지하1~3층주차장),"서울특별시 구로구 신도림로 78 (신도림동, 신도림3차동아아파트)",37.50954941515816,126.88419973681044,민방위대피시설
회현지하쇼핑센터,"서울특별시 중구 소공로 지하 58 (충무로1가, 회현지하쇼핑센터)",37.5608472843173,126.98148589184284,민방위대피시설
상계2동 공공복합청사 지하1층,"서울특별시 노원구 상계로 118 (상계동, 상계2동복합청사)",37.65747448537561,127.06784247065868,민방위대피시설
강원학사 지하1층,"서울특별시 관악구 난곡로30길 61 (신림동, 강원학사)",37.470754448890034,126.92364930930896,민방위대피시설
동부센트레빌아파트 지하주차장 1~2층,"서울특별시 강서구 방화대로45길 32 (방화동, 동부센트레빌아파트)",37.57470237390241,126.81497578410315,민방위대피시설
염리세양청마루아파트(지하1층 주차장),"서울특별시 마포구 독막로42길 5(염리동, 세양청마루아파트)",37.54306234347686,126.946466381791,민방위대피시설
국립재활원-인수동(지하2층),"서울특별시 강북구 삼각산로 58 (수유동, 국립재활원)",37.63889144831768,127.01062688574662,민방위대피시설
"1호선 제기동역 지하 1층, 2층","서울특별시 동대문구 왕산로 지하 93 (제기동, 제기동역)",37.57856431058167,127.03886843208517,민방위대피시설
구룡역(지하1층),"서울특별시 강남구 개포로 지하 403 (개포동, 구룡역)",37.48702338694193,127.05900160442442,민방위대피시설
강남더샵포레스트아파트 지하주차장 2층~3층,"서울특별시 강남구 광평로34길 35 (수서동, 강남더샵포레스트아파트)",37.481289600162064,127.0950725876434,민방위대피시설
유타쇼핑몰  지하주차장1~6층,서울특별시 성북구 동소문로 106 (동선동1가),37.59260511526554,127.01717656382604,민방위대피시설
길음뉴타운래미안8단지아파트 4차지하주차장(지하1~3층),서울특별시 성북구 길음로 33 (길음동),37.607561323203015,127.01794473678456,민방위대피시설
엘루체컨벤션 지하2~4층,"서울특별시 서초구 신반포로 23 (반포동, 엘루체)",37.50174541196515,126.98712468854389,민방위대피시설
북아현두산아파트 지하1층,"서울특별시 서대문구 이화여대8길 62 (북아현동, 두산아파트)",37.55917908228264,126.95010892086492,민방위대피시설
포엠빌아파트(지하1층)-수유3동,"서울특별시 강북구 한천로139가길 26 (수유동, 포엠빌아파트)",37.64051712004845,127.02511552074768,민방위대피시설
공릉역(지하1~4층),서울특별시 노원구 동일로 지하 1074 (공릉동),37.62576239456071,127.0727483453002,민방위대피시설
세양빌딩  지하 1층 주차장,"서울특별시 노원구 덕릉로 669 (중계동, 세양빌딩)",37.657379105372456,127.07458181751215,민방위대피시설
상계불암대림아파트 전체동 지하주차장 B1층~B2층,"서울특별시 노원구 덕릉로94길 21 (상계동, 상계불암대림아파트)",37.66321196763796,127.07715571586394,민방위대피시설
휘경미소지움아파트 지하주차장 지하 1층,"서울특별시 동대문구 망우로 105 (휘경동, 휘경미소지움아파트)",37.591590865480526,127.06483722221388,민방위대피시설
남서울힐스테이트아파트 1단지 지하1~2층,서울특별시 금천구 시흥대로 165 (시흥동),37.44780441587102,126.90123410624054,민방위대피시설
서울특별시북부여성발전센터 지하1층,서울특별시 노원구 동일로207길 50(중계동),37.64300129278082,127.06167720695429,민방위대피시설
홍제청구3차아파트 지하주차장 지하1~5층,"서울특별시 서대문구 통일로 332 (홍제동, 홍제청구3차아파트)",37.58045426314967,126.95293763916534,민방위대피시설
기산그린아파트-번3동(지하1층),"서울특별시 강북구 월계로37길 137-0 (번동, 기산그린아파트)",37.627473384435625,127.04365708509964,민방위대피시설
중동계룡아파트(지하1층주차장),"서울특별시 마포구 월드컵북로38가길 20 (중동, 중동계룡아파트)",37.57048470044674,126.90593742899183,민방위대피시설
은평평화공원 지하1층,서울특별시 은평구 서오릉로 지하 47 (녹번동),37.60532835081295,126.92311556192948,민방위대피시설
6호선 상수역 지하 1~3층,서울특별시 마포구 독막로 지하85 (상수동),37.547996433424096,126.92283234412749,민방위대피시설
우이동 주민센터(지하1층),"서울특별시 강북구 삼양로139길 49 (수유동, 우이동주민센터,환경미화원후생관)",37.647925274331065,127.01191203095348,민방위대피시설
"길음뉴타운푸르지오2,3단지아파트지하주차장(지하1~6층)",서울특별시 성북구 길음로 119 (길음동),37.6117874492768,127.01614559729978,민방위대피시설
사당우성아파트2단지 지하주차장 1층,"서울특별시 동작구 동작대로29길 91 (사당동, 사당우성아파트)",37.48963896697908,126.97594011021104,민방위대피시설
길음래미안1차아파트 지하주차장(지하1~3층),서울특별시 성북구 길음로9길 40 (길음동),37.60583916731419,127.02025010196652,민방위대피시설
중계그린아파트 상가 지하1층,"서울특별시 노원구 동일로207길 23, 동은유치원 (중계동)",37.642026332428266,127.06410842627332,민방위대피시설
서울대벤처타운역 (지하1~2층),서울특별시 관악구 신림로 144 (신림동),37.47209057118348,126.93396957351904,민방위대피시설
경남아너스빌 지하주차장 1~2층,"서울특별시 동작구 사당로9가길 82 (사당동, 경남아너스빌 아파트)",37.48824726766525,126.96780612664004,민방위대피시설
"예성그린캐슬2차아파트 주차장 지하1,2층","서울특별시 관악구 남현7길 3, 지하1~2층 (남현동, 예성그린캐슬2차아파트)",37.47354503751891,126.97628083179556,민방위대피시설
대덕트윈빌 101동 지하주차장 1~2층,"서울특별시 금천구 시흥대로112길 6 (독산동, 대덕트윈빌)",37.467314197722494,126.89910648375468,민방위대피시설
송정동 공공복합청사(지하1층~ 3층 주차장),"서울특별시 성동구 송정18가길 9, 송정동 공공복합청사 (송정동)",37.55333328017574,127.06848102594697,민방위대피시설
힐스테이트 녹번 지하1층~3층,"서울특별시 은평구 통일로 610 (녹번동, 힐스테이트 녹번)",37.60174330781073,126.93682202824394,민방위대피시설
상계3.4동주민센터 B1층,"서울특별시 노원구 덕릉로 859 (상계동, 상계3.4동주민센터)",37.67294500376048,127.08320544873553,민방위대피시설
명일주공9단지아파트(전체동의 지하1층),서울특별시 강동구 구천면로 476 (명일동),37.54791585374124,127.15086288768454,민방위대피시설
상도건영아파트 101동 지하주차장 1층,"서울특별시 동작구 만양로 26 (상도동, 건영아파트)",37.50716800267916,126.94977406634636,민방위대피시설
아르테스 웨딩홀(구 교보생명빌딩) 지하주차장 3~5층,서울특별시 동작구 동작대로 59 (사당동),37.48209233118191,126.98144429803703,민방위대피시설
도화동주민센터(지하1층주차장),"서울특별시 마포구 도화길 37 (도화동, 도화공영주차장및주민센터)",37.54157654765911,126.94993310304102,민방위대피시설
월드컵아파트 9단지(지하1~2층주차장),"서울특별시 마포구 월드컵북로 501 (상암동, 상암월드컵파크9단지)",37.58345337332603,126.8786596331698,민방위대피시설
"나산스위트 지하주차장 4,5층","서울특별시 동작구 보라매로5가길 24 (신대방동, 보라매나산스위트)",37.49069116432885,126.92395193307166,민방위대피시설
가야위드안 지하1층,"서울특별시 관악구 봉천로12길 39 (신림동, 가야위드안)",37.486953255914806,126.93012985996812,민방위대피시설
오원빌딩(지하1층주차장),"서울특별시 마포구 백범로 123 (염리동, 신양빌딩)",37.54681278020398,126.94495735241416,민방위대피시설
총신대입구(이수)역(4호선) 지하1~2층,"서울특별시 동작구 동작대로 지하 117 (사당동, 총신대입구(이수)역4호선)",37.488071587059565,126.98227893270209,민방위대피시설
대신증권 지하1층주차장,서울특별시 강동구 양재대로 1596 (명일동),37.54804221897606,127.14375810801484,민방위대피시설
한국전력 노원도봉지사 지하1층 주차장,"서울특별시 노원구 노해로 429 (상계동, 한국전력공사 북부지점)",37.65391792833973,127.05566663576454,민방위대피시설
서광아파트지하1층 주차장,"서울특별시 노원구 마들로1길 44 (월계동, 서광아파트)",37.62314113671764,127.06491188862157,민방위대피시설
관악문화재단 지하 2층,"서울특별시 관악구 신림로3길 35, 관악문화관도서관 (신림동)",37.46751429916085,126.94480515460344,민방위대피시설
다솜금호아파트 주차장(지하1~3층),"서울특별시 구로구 새말로16길 70 (구로동, 다솜금호아파트)",37.502559993708914,126.89195240589726,민방위대피시설
구로동금호아파트 지하1~4주차장,"서울특별시 구로구 공원로 26 (구로동, 금호아파트)",37.49988731906043,126.89216016871008,민방위대피시설
역촌역 6호선 지하1층,"서울특별시 은평구 서오릉로 지하 63 (녹번동, 6호선 역촌역사무소)",37.6062247361224,126.92330154606393,민방위대피시설
"이문 래미안2차아파트 지하주차장 지하1,2층","서울특별시 동대문구 이문로12길 3-10 (이문동, 래미안이문2차아파트)",37.59351906418918,127.06011590674386,민방위대피시설
"휘경 동일스위트리버 지하주차장 지하 1,2층","서울특별시 동대문구 한천로 300 (휘경동, 동일스위트리버)",37.58741023710392,127.0686930439911,민방위대피시설
도화동현대아파트(지하1층주차장),"서울특별시 마포구 새창로 52 (도화동, 도화동현대아파트)",37.53942628153086,126.95386020555252,민방위대피시설
금룡빌딩(지하1층주차장),서울특별시 마포구 성미산로 193 (연남동),37.56291433630814,126.92671396709244,민방위대피시설
래미안솔베뉴아파트 지하주차장(지하1층~지하3층),"서울특별시 강동구 양재대로 1650 (명일동, 래미안 솔베뉴)",37.552771223589055,127.14535166781889,민방위대피시설
테크노마트 지하주차장 1~5층,"서울특별시 광진구 광나루로56길 85 (구의동, 테크노마트)",37.53569972088515,127.09576477877152,민방위대피시설
"휘경 주공아파트 지하주차장 지하 1,2층",서울특별시 동대문구 한천로 248 (휘경동),37.58298711421988,127.07074707666276,민방위대피시설
브라운스톤아파트(지하주차장 1~2층),"서울특별시 중랑구 공릉로18길 59 (묵동, 브라운스톤태릉아파트)",37.61874142463019,127.08242725033328,민방위대피시설
사슴3단지아파트 303동 지하1층 주차장,"서울특별시 노원구 월계로55길 15 (월계동, 월계사슴3단지아파트)",37.631729599919225,127.05968623881957,민방위대피시설
강동경찰서 지하1층 ~지하2층주차장,"서울특별시 강동구 성내로 57 (성내동, 강동경찰서)",37.52868259155004,127.12673552461382,민방위대피시설
한국외국어대 교수학습개발원 지하1층,서울특별시 동대문구 이문로 107 (이문동),37.59742645291261,127.0587058733995,민방위대피시설
영등포구청별관 지하1층,"서울특별시 영등포구 선유동1로 80, 영등포구 별관청사 (당산동3가)",37.528448964271,126.89434439198553,민방위대피시설
청광플러스원아파트 지하주차장 지하1층,"서울특별시 금천구 두산로11길 22 (독산동, 청광플러스원아파트)",37.47124615241928,126.89413244882954,민방위대피시설
장위우방아파트(1개동구성)지하주차장(지하1~2층),서울특별시 성북구 화랑로 235 (장위동),37.61022844034457,127.0550291285426,민방위대피시설
구현대아파트 지하1층,서울특별시 금천구 탑골로3길 50 (시흥동),37.453602332134246,126.91391722546368,민방위대피시설
공장(남부순환로 1521) 지하1층,"서울특별시 관악구 남부순환로 1521, 지하 1층 (신림동)",37.48307495707857,126.91962770498785,민방위대피시설
신사베드로성당 지하1층,"서울특별시 관악구 관천로11길 124, 지하 1층 (신림동)",37.48343382566132,126.91810075129514,민방위대피시설
월계1동 주민센터 지하1층,"서울특별시 노원구 석계로 59 (월계동, 석산빌딩)",37.61992190932348,127.06298305485026,민방위대피시설
무악청구1차아파트 제2주차장 지하1~2층,"서울특별시 서대문구 통일로 348 (홍제동, 무악청구아파트)",37.5819153334082,126.95204953178524,민방위대피시설
현대아파트 지하주차장 1층,"서울특별시 동작구 사당로13길 86 (사당동, 현대아파트)",37.48812576140915,126.97039707006329,민방위대피시설
송중동주민센터(지하1층),"서울특별시 강북구 오패산로 162 (미아동, 송중동 주민센터)",37.61611445363884,127.03375385573524,민방위대피시설
두산위브트레지움아파트(삼각산동)(지하2~3층),"서울특별시 강북구 삼양로27길 95 (미아동, 두산위브트레지움아파트)",37.61776433754557,127.01693072059923,민방위대피시설
웰피아아파트 지하1층,"서울특별시 관악구 관천로18길 27 (신림동, 웰피아)",37.48796639063707,126.9244756447691,민방위대피시설
아셈그린힐 지하주차장 지하1층,"서울특별시 금천구 독산로78다길 22 (독산동, 아셈그린힐)",37.46931772673846,126.90519982426234,민방위대피시설
홍제원현대아파트 제5주차장 지하1~2층,"서울특별시 서대문구 통일로34길 43 (홍제동, 홍제원현대아파트)",37.58765933081626,126.94958807962809,민방위대피시설
래미안 트리베라2차 아파트(삼각산동)(지하3층),서울특별시 강북구 삼양로27길 19 (미아동),37.61731167923513,127.02040151041328,민방위대피시설
건양노블레스지하1층 주차장,"서울특별시 노원구 화랑로45길 42-18 (월계동, 건양노블레스아파트)",37.617205319284814,127.0664443541036,민방위대피시설
길음래미안 3차아파트 지하주차장(지하1~3층),서울특별시 성북구 길음로 16 (길음동),37.60626948383373,127.02289369207156,민방위대피시설
시냇가푸른나무교회 지하1층,"서울특별시 관악구 인헌1길 29, 시냇가푸른나무교회 지하1층 (봉천동)",37.47480559122484,126.96868581302824,민방위대피시설
농협 지하1층,"서울특별시 관악구 인헌6길 16, 지하1층 (봉천동)",37.47416643509279,126.96605235108508,민방위대피시설
동아불암아파트 전체동 지하주차장 B1층~B3층,"서울특별시 노원구 덕릉로 780 (상계동, 동아불암아파트)",37.66695678831071,127.07968835624622,민방위대피시설
불암현대아파트 전체동 지하주차장 B1층~B4층,"서울특별시 노원구 덕릉로118길 29 (상계동, 상계불암현대아파트)",37.66782940971524,127.08161820882638,민방위대피시설
답십리 청계벽산메가트리움 지하주차장 지하1층,서울특별시 동대문구 천호대로 241 (답십리동),37.56986032490374,127.04969798212107,민방위대피시설
"용두두산위브아파트 지하주차장 지하1,2층","서울특별시 동대문구 정릉천동로 16 (용두동, 용두두산위브)",37.57342902103933,127.03621694683486,민방위대피시설
예성그린캐슬1차아파트 주차장 지하1층,"서울특별시 관악구 남현7길 20, 지하1층 (남현동, 예성그린캐슬아파트)",37.47324755865305,126.9767519754843,민방위대피시설
부영그린타운3차(지하2~6층) 주차장,"서울특별시 양천구 목동동로 411 (목동, 부영그린타운3차)",37.536731011495085,126.88221158292454,민방위대피시설
효성인텔리언빌딩(지하2층)-수유3동,"서울특별시 강북구 도봉로 313 (수유동, 효성인텔리안오피스텔)",37.6364306303272,127.02340966768524,민방위대피시설
성실교회(지하2~3층 주차장)-수유3동,"서울특별시 강북구 노해로 50 (수유동, 성실교회)",37.64013669227832,127.02290452665912,민방위대피시설
성내동삼성아파트(전체동 지하1층),"서울특별시 강동구 풍성로 128 (성내동, 성내동삼성아파트)",37.530760498040046,127.1259878940945,민방위대피시설
강변한솔솔파크 지하주차장 1~2 층,"서울특별시 강서구 양천로63길 38 (염창동, 강변한솔솔파크)",37.55668420410572,126.86655237297016,민방위대피시설
상계1동 주민센터 지하1층,"서울특별시 노원구 동일로 1697 (상계동, 상계1동주민센터)",37.67985017368796,127.0548841876049,민방위대피시설
경동제약 지하1~3층,"서울특별시 관악구 남부순환로 1926, 경동제약빌딩 지하3층 (봉천동)",37.47694496913146,126.9631217389923,민방위대피시설
개포2동주민센터(지하1층),"서울특별시 강남구 개포로 511 (개포동, 개포2동주민센터)",37.48978297690934,127.06907988228528,민방위대피시설
이튼타워리버5차아파트 지하주차장 1~2층,"서울특별시 광진구 능동로4길 40, 지하주차장 1층 (자양동, 이튼타워리버5차)",37.532185557623656,127.06903104406511,민방위대피시설
은천성결교회 지하1층,"서울특별시 관악구 관천로 119, 은천성결교회 지하 1층 (신림동)",37.48841408717485,126.92103090584558,민방위대피시설
진흥아파트 지하주차장 1~2층,"서울특별시 동작구 사당로16아길 43 (사당동, 진흥아파트)",37.480264292093885,126.96912825159286,민방위대피시설
성원그린아파트(지하1층) - 우이동,"서울특별시 강북구 삼양로139가길 63 (우이동, 성원그린아파트)",37.65186366633278,127.01088636688792,민방위대피시설
홈플러스 지하3층~지하6층 주차장,서울특별시 강동구 양재대로 1571 (천호동),37.54571782822171,127.14225070782317,민방위대피시설
목동한신청구아파트(지하1~2층) 주차장,"서울특별시 양천구 목동서로2길 22 (목동, 한신청구아파트)",37.541458070736525,126.88165463122988,민방위대피시설
바라본아파트 지하1층 주차장,"서울특별시 관악구 복은길 129-13 (신림동, 바라본아파트)",37.475549371553846,126.94234568444864,민방위대피시설
구립 파란들어린이집 지하1층,서울특별시 양천구 가로공원로 85 (신월동),37.535680613125685,126.82536267528118,민방위대피시설
신월청소년문화센터 지하1층,"서울특별시 양천구 가로공원로 86 (신월동, 신월청소년문화쎈타)",37.53523493729853,126.82548946030016,민방위대피시설
"동대문구청 지하주차장 1층,2층",서울특별시 동대문구 천호대로 145 (용두동),37.57441848812857,127.03974904788502,민방위대피시설
금성초등학교(지하주차장 1층),"서울특별시 중랑구 신내로21길 55 (신내동, 금성초등학교)",37.61507662939338,127.0896425852742,민방위대피시설
남구로역 지하(지하1~3층),"서울특별시 구로구 도림로 지하 7 (구로동, 남구로역)",37.484919713811415,126.88671209357356,민방위대피시설
정호진아트빌 지하1층주차장,"서울특별시 관악구 남부순환로 1962, 정호진 아트힐 지하2층 (봉천동)",37.47562040566157,126.96644989737196,민방위대피시설
6호선 광흥창역 지하 1~3층,서울특별시 마포구 독막로 지하165 (창전동),37.54746522028034,126.9324570625692,민방위대피시설
남태령역 4호선  지하1~지하3층,"서울특별시 서초구 과천대로 지하 816 (방배동, 남태령역)",37.46437744951279,126.98927768517242,민방위대피시설
가양역 지하 1층,"서울특별시 강서구 양천로 지하 485 (가양동, 가양역)",37.561757994245454,126.85399706982732,민방위대피시설
롯데우성아파트107동 지하1층 주차장,"서울특별시 노원구 노원로22길 34 (중계동, 롯데아파트,우성아파트)",37.64682907709543,127.0728287653992,민방위대피시설
천호1동 공영주차장  지하1층~지하3층 주차장,"서울특별시 강동구 구천면로42길 60 (천호동, 천호동 노외주차장)",37.54459926008553,127.1366199338442,민방위대피시설
전농 우성아파트 지하주차장 지하 1층,"서울특별시 동대문구 사가정로 190 (전농동, 전농우성아파트)",37.5772719306283,127.06495801188562,민방위대피시설
현대7단지아파트 지하주차장 1~2층,"서울특별시 광진구 구의강변로3가길 39 (구의동, 구의7단지조합현대아파트)",37.53683755323799,127.09093034285304,민방위대피시설
금호어울림아파트(지하주차장 1층),"서울특별시 중랑구 공릉로2길 39 (묵동, 금호어울림아파트)",37.6127259439539,127.08004188342572,민방위대피시설
중계4동주민센터 지하1층,"서울특별시 노원구 덕릉로82길 50 (중계동, 중계4동주민센터)",37.658778047819865,127.07796012132071,민방위대피시설
염광아파트 지하1층 주차장,"서울특별시 노원구 덕릉로79길 23-0 (중계동, 염광아파트)",37.65618128504417,127.07294537113287,민방위대피시설
순영웰라이빌 지하주차장(지하1~5층),"서울특별시 구로구 가마산로 280 (구로동, 구로2차순영웰라이빌)",37.49623792192717,126.89146318998482,민방위대피시설
"전농동 동아아파트 지하주차장 지하 1,2층",서울특별시 동대문구 서울시립대로 31 (전농동),37.574882213903855,127.04570384520233,민방위대피시설
"답십리 청계한신휴플러스 아파트 지하주차장 지하1,2층",서울특별시 동대문구 서울시립대로 14 (답십리동),37.57237121092051,127.04598625143092,민방위대피시설
"롯데백화점 청량리역사점 지하1층, 2층","서울특별시 동대문구 왕산로 214 (전농동, 청량리역,롯데백화점)",37.580977312963,127.04699237620608,민방위대피시설
"답십리 한화아파트 지하주차장 지하 1,2층",서울특별시 동대문구 고미술로 57 (답십리동),37.56693294165135,127.05397386317246,민방위대피시설
대림오페라타워 지하주차장(지하2~5층),"서울특별시 구로구 구로중앙로 60 (구로동, 대림오페라타워)",37.4951463876814,126.88941573986834,민방위대피시설
신한은행 독산동지점 지하1층,서울특별시 금천구 시흥대로 446 (독산동),37.47318747582317,126.89880945021878,민방위대피시설
"장안 동대문퍼스트데시앙지하주차장 지하1,2층","서울특별시 동대문구 장한로27가길 37(장안동, 동대문더퍼스트데시앙)",37.574887740762215,127.07059329867108,민방위대피시설
대우빌라(지하1층주차장),"서울특별시 마포구 월드컵북로18길 26 (성산동, 대우빌라)",37.56377219498744,126.91482833588576,민방위대피시설
"휘경 동부센트레빌 아파트 지하주차장 지하 1,2층",서울특별시 동대문구 외대역동로 14 (휘경동),37.59102575673148,127.06839474636708,민방위대피시설
중앙하이츠아파트 지하 1층 주차장,"서울특별시 노원구 한글비석로14길 37 (중계동, 중앙하이츠아파트)",37.65912870205657,127.07639573000124,민방위대피시설
동아아파트 지하1~3층 주차장,"서울특별시 서초구 신반포로33길 15 (잠원동, 동아아파트)",37.50872973763609,127.01015467558985,민방위대피시설
세이브존 노원점 지하주차장 2층,"서울특별시 노원구 한글비석로 57, 세이브존 (하계동)",37.63786620538064,127.06870679906628,민방위대피시설
시흥중앙교회 지하1층,"서울특별시 금천구 시흥대로72길 13 (시흥동, 시흥중앙교회(세나유치원))",37.45722197849621,126.9002482955474,민방위대피시설
"제기벽산아파트 지하주차장 지하1,2층 정문,102동앞",서울특별시 동대문구 약령시로 25 (제기동),37.58345285152612,127.03191004004456,민방위대피시설
청원빌딩(지하1~2층주차장),서울특별시 마포구 월드컵북로 122 (성산동),37.56411435579693,126.91322394855143,민방위대피시설
"전농 래미안 아름숲아파트 지하주차장 지하 1,2층","서울특별시 동대문구 전농로16길 51 (전농동, 래미안아름숲)",37.58094413719115,127.06107601943296,민방위대피시설
"전농래미안 크레시티 아파트 지하주차장 지하1,2층","서울특별시 동대문구 사가정로 65 (전농동, 래미안크레시티아파트)",37.576284383258944,127.05065614488088,민방위대피시설
"답십리 래미안위브 아파트 지하주차장 지하1,2층","서울특별시 동대문구 답십리로 130 (답십리동, 래미안위브아파트)",37.57203778681118,127.05395187714583,민방위대피시설
에벤에셀프라자(지하1~2층),서울특별시 금천구 금하로 720 (시흥동),37.45041727990018,126.90944487931284,민방위대피시설
현대프라임아파트 지하주차장 1층,"서울특별시 광진구 광나루로56길 29 (구의동, 현대프라임아파트)",37.53739772412874,127.097621027477,민방위대피시설
DMC덕원아파트 지하주차장 1~2층,"서울특별시 은평구 증산로 221 (증산동, 덕원아파트)",37.57878656547505,126.9035863471682,민방위대피시설
기산프라자 지하주차장(지하2~3층),"서울특별시 구로구 구로동로26길 8, 지하주차장동 (구로동, 기산빅프라자)",37.49031316879327,126.88473752476352,민방위대피시설
"동영문화센터(지하2,3,4)","서울특별시 강남구 언주로 337 (역삼동, 동영문화센터)",37.497790847017086,127.04409384133514,민방위대피시설
세방아파트(지하주차장 1층),"서울특별시 중랑구 숙선옹주로9길 25 (묵동, 세방아파트)",37.61542530841718,127.08358213965748,민방위대피시설
구민체육센터(지하주차장 1층),"서울특별시 중랑구 신내로15길 189 (묵동, 중랑구민체육센터)",37.615166771216266,127.0874712648776,민방위대피시설
두산아파트 지하주차장(지하1층),"서울특별시 구로구 도림로 59, 지하주차장동 (구로동, 구로두산아파트)",37.489340904056775,126.88925928354828,민방위대피시설
금호타운아파트101동 지하1층,"서울특별시 노원구 한글비석로46나길 10 (상계동, 금호아파트)",37.66728683270576,127.0688193971716,민방위대피시설
길음래미안2차아파트 지하주차장(지하2층),서울특별시 성북구 길음로 74 (길음동),37.60968551263086,127.020710280802,민방위대피시설
명일1동 공영주차장(지하1층),서울특별시 강동구 구천면로 395 (명일동),37.55095109896909,127.14287083361693,민방위대피시설
묵동자이아파트 2단지(지하주차장 2~4층),"서울특별시 중랑구 동일로 932 (묵동, 묵동자이아파트)",37.613845905603895,127.07755259762108,민방위대피시설
남산타운문화체육센터 지하1층,"서울특별시 중구 다산로 32 (신당동, 남산타운)",37.54901359113068,127.00928041286774,민방위대피시설
동산빌딩(지하1층 주차장),서울특별시 강동구 양재대로 1584 (명일동),37.54700513520598,127.1436285908954,민방위대피시설
시흥유통상가 A지원~B지원 지하1층,"서울특별시 금천구 시흥대로 97 (시흥동, 시흥유통상가)",37.4433316321699,126.90164319310026,민방위대피시설
유당빌딩(지하1층),서울특별시 금천구 시흥대로 350 (독산동),37.46454563083991,126.898049240959,민방위대피시설
유창빌딩 지하주차장 지하1층,"서울특별시 금천구 범안로 1209 (독산동, 협진식품빌딩)",37.46676775688879,126.89647225589376,민방위대피시설
한신아파트 1~13동 지하1층,"서울특별시 금천구 한내로 62 (독산동, 한신아파트)",37.456520975084175,126.88803054994769,민방위대피시설
현대아파트 101동 ~ 102동 지하1층,"서울특별시 금천구 범안로17길 12 (독산동, 독산현대아파트)",37.46745693497424,126.8950057945322,민방위대피시설
경남아너스빌아파트  주차장 지하1층,"서울특별시 노원구 덕릉로94길 10 (중계동, 경남아너스빌)",37.66207132949046,127.07707937317372,민방위대피시설
자양우성7차아파트 지하주차장 1~2층,"서울특별시 광진구 아차산로36길 39, 지하주차장 1층 (자양동, 자양7차우성아파트)",37.53635174917983,127.0745964874396,민방위대피시설
효성네오인텔리안(지하2~6층 주차장)(번1동),"서울특별시 강북구 도봉로 352(번동, 효성네오인텔리안)",37.63867478757095,127.0270391875378,민방위대피시설
일주빌딩 지하1층~지하2층,서울특별시 강동구 구천면로 304 (천호동),37.54668278469788,127.13492309408008,민방위대피시설
수송초등학교(지하2층 주차장) (번1동),"서울특별시 강북구 한천로124길 14 (번동, 수송초등학교)",37.63709457807505,127.03299891638515,민방위대피시설
KT노원지사 지하2층 주차장,서울특별시 노원구 노해로 502 (상계동),37.65445067259594,127.0636913135842,민방위대피시설
"금천현대아파트101~103,104~107,108~110","서울특별시 금천구 벚꽃로 73 (독산동, 금천현대아파트)",37.46226240590694,126.89038474091102,민방위대피시설
덕왕빌딩(지하1층),"서울특별시 금천구 독산로64길 15, 나무빌딩 (독산동)",37.46526366734699,126.9034887564344,민방위대피시설
"장미아파트 에이동, 비동 지하1층","서울특별시 금천구 문성로 27 (독산동, 장미아파트)",37.476805198190974,126.90662114500486,민방위대피시설
성지아파트 지하1층,"서울특별시 금천구 시흥대로51길 55 (시흥동, 성지아파트)",37.45421634344104,126.90892662240792,민방위대피시설
현대6단지아파트 지하주차장 1층,"서울특별시 광진구 구의강변로 94 (구의동, 현대아파트)",37.53849852607079,127.09466418566184,민방위대피시설
태림빌딩 지하2층 주차장,"서울특별시 관악구 남부순환로 2056, 태림빌딩 지하2층 (남현동)",37.47631263731596,126.9772235209268,민방위대피시설
목련아파트 지하1층,"서울특별시 금천구 금하로3길 26 (시흥동, 시흥목련아파트)",37.45458887494427,126.89766607157532,민방위대피시설
독산고등학교 지하1층,"서울특별시 금천구 문성로 64 (독산동, 독산고등학교)",37.47617911701316,126.91092558507997,민방위대피시설
동문아파트 지하1층 주차장,"서울특별시 관악구 신림로31가길 19 (신림동, 동문아파트)",37.47633020836412,126.9358032210048,민방위대피시설
태영빌딩 지하1층,"서울특별시 관악구 신림로 206 (신림동, 태영빌딩)",37.47568571156751,126.93742955287011,민방위대피시설
어린이대공원역 지하 1~3층,"서울특별시 광진구 능동로 지하 210 (능동, 어린이대공원)",37.55320372541498,127.08122278206253,민방위대피시설
진도2차아파트 1개동 주차장 지하1층,"서울특별시 금천구 두산로 36 (독산동, 진도아파트)",37.470009720475744,126.89221775050946,민방위대피시설
경남아파트 101동 지하1층,"서울특별시 금천구 독산로 78-1 (시흥동, 경남아파트)",37.4545992654676,126.9066471621398,민방위대피시설
삼익아파트 시흥동 101동 ~ 113동 지하1층,"서울특별시 금천구 독산로50길 89 (시흥동, 삼익아파트)",37.46327823884211,126.909446775225,민방위대피시설
상계10동 주민센터 지하1층,"서울특별시 노원구 노원로 530 (상계동, 상계10동주민센터)",37.66126562749456,127.06025322519328,민방위대피시설
강변우성아파트 지하주차장 1층,"서울특별시 광진구 구의강변로 42 (구의동, 구의동강변우성아파트)",37.53534002317213,127.09293074511248,민방위대피시설
탐라영재관 지하주차장 2~3층,"서울특별시 강서구 양천로57길 10-10 (가양동, 탐라영재관)",37.56276179792391,126.85275510285894,민방위대피시설
킴스클럽 지하3층 주차장,"서울특별시 서초구 잠원로 69 (잠원동, 킴스클럽)",37.51024252854619,127.00688279956876,민방위대피시설
"제네스타워빌딩 지하2,3층 주차장-수유1동","서울특별시 강북구 덕릉로 82 (수유동, 제네스타워)",37.634403662295,127.02284994823977,민방위대피시설
장성그랜드사우나 지하1~2층,"서울특별시 동작구 장승배기로 113 (노량진동, 장성빌딩)",37.50783194517255,126.93957448644952,민방위대피시설
해오름아파트(지하주차장 1층),"서울특별시 중랑구 공릉로4길 4 (묵동, 묵동해오름아파트)",37.61310163943571,127.0781013347908,민방위대피시설
대우그린빌라(지하1층),"서울특별시 금천구 시흥대로90길 10 (독산동, 대우그린빌라)",37.460897450228,126.8989597317088,민방위대피시설
혜전빌딩 지하2층,"서울특별시 금천구 시흥대로 488 (독산동, 혜전빌딩)",37.47706292078235,126.8992860990531,민방위대피시설
"사당역(2,4호선) 지하 1~3층","서울특별시 동작구 동작대로 지하 3 (사당동, 사당역(4호선))",37.47690967322132,126.98163312743544,민방위대피시설
상도더샵아파트 109동 지하주차장1층,"서울특별시 동작구 장승배기로4길 9 (상도동, 상도더샵아파트)",37.50207718468792,126.94297359038526,민방위대피시설
동작역(4호선) 지하1층,"서울특별시 동작구 현충로 257 (동작동, 4호선동작역Dongjaks.t)",37.50286024396091,126.97998530664265,민방위대피시설
한국아파트(지하주차장 1층~3층),"서울특별시 중랑구 중랑천로 332 (묵동, 묵동한국아파트)",37.6143379254108,127.0734918378704,민방위대피시설
풍산빌딩 지하2층~지하7층,"서울특별시 서대문구 충정로 23 (충정로3가, 풍산빌딩)",37.56127072742717,126.96301183542802,민방위대피시설
"동아하이빌아파트(지하1층, 지하3층, 지하5층 주차장)",서울특별시 강동구 구천면로 278 (천호동),37.54471334781982,127.13441986268914,민방위대피시설
삼양동 삼성레미안아파트 주차장 지하2층,"서울특별시 강북구 삼양로 256 (미아동, 래미안미아1차아파트)",37.62597669538034,127.01940511335977,민방위대피시설
포르텔오피스텔(지하2층 주차장)(번1동),서울특별시 강북구 한천로 1003 (번동),37.63784691077813,127.02951342983384,민방위대피시설
수유1동 주민센터 지하2층 주차장,"서울특별시 강북구 삼양로 299 (수유동, 수유1동 주민센터,수유문화정보도서관)",37.63007778720395,127.01760915452624,민방위대피시설
인왕산아이파크아파트 주차장 지하2층,"서울특별시 종로구 통일로16길 8-3, 109동 지하1층 (무악동, 인왕산아이파크)",37.57700123024356,126.95744526905813,민방위대피시설
월계3동주민센터 지하1층 창고,"서울특별시 노원구 마들로 57-0 (월계동, 월계3동주민센터)",37.62096281454064,127.06926512395376,민방위대피시설
명일지에스아파트(전동지하1층),서울특별시 강동구 상암로51길 61 (명일동),37.549017283514125,127.14566649621288,민방위대피시설
KCC아파트 지하주차장 1~2층,서울특별시 동작구 사당로20나길 57 (사당동),37.48129601939231,126.97369573792976,민방위대피시설
동아아파트 지하주차장 1층,서울특별시 동작구 양녕로23길 43 (상도동),37.49624843324127,126.94004479179496,민방위대피시설
경향렉스빌아파트 지하주차장 1~3층,서울특별시 동작구 양녕로23길 9 (상도동),37.49529700772627,126.94193534300678,민방위대피시설
도화공영주차장 지하1층,"서울특별시 동작구 성대로17길 지하 52 (상도동, 도화공영주차장)",37.499659282295845,126.9352027701382,민방위대피시설
삼익아파트 지하1층,"서울특별시 동작구 양녕로26나길 8 (상도동, 삼익아파트)",37.49714165904325,126.94461729410295,민방위대피시설
상도2차갑을명가아파트 지하주차장 1층,"서울특별시 동작구 국사봉길 175 (상도동, 상도2차갑을명가아파트)",37.493568489292535,126.93524593274536,민방위대피시설
삼원타워 지하 2~4층,"서울특별시 강남구 테헤란로 124, 삼원타워 (역삼동)",37.49870067584982,127.03157677479244,민방위대피시설
지하철 이태원역(지하1~5층),"서울특별시 용산구 이태원로 지하177, 6호선 이태원역 지하층 (이태원동)",37.53454727156,126.99464951926316,민방위대피시설
신안1차아파트(지하주차장 1층),"서울특별시 중랑구 공릉로2라길 15 (묵동, 신안1차아파트)",37.61285521929079,127.08099255526494,민방위대피시설
노량진우성아파트 지하주차장 1~2층,"서울특별시 동작구 만양로8길 50 (노량진동, 우성아파트)",37.50962908852063,126.94780420038602,민방위대피시설
금호베스트빌 지하1~2층,"서울특별시 서초구 나루터로 46 (잠원동, 금호베스트빌아파트)",37.51461594497282,127.01414622802798,민방위대피시설
그랑빌아파트 지하주차장1층,"서울특별시 노원구 마들로 31 (월계동, 그랑빌아파트)",37.61780287044791,127.0685680037159,민방위대피시설
삼성래미안아파트 지하주차장 1~3층,"서울특별시 동작구 사당로23바길 9 (사당동, 동작삼성래미안아파트)",37.48917726792013,126.97045344904993,민방위대피시설
롯데캐슬아파트 지하주차장 1~3층,"서울특별시 동작구 사당로27길 190 (사당동, 롯데캐슬)",37.49077729714402,126.97251206162768,민방위대피시설
노원역 7호선 지하1층,"서울특별시 노원구 동일로 지하1409, 노원역 7호선 (상계동)",37.653508144542656,127.06080666295358,민방위대피시설
롯데캐슬비엔아파트 지하주차장 1~2층,"서울특별시 동작구 양녕로 170 (상도동, 상도동 롯데캐슬비엔)",37.49682530070738,126.9435797628426,민방위대피시설
리젠트오피스텔 지하주차장 1~4층,"서울특별시 광진구 강변역로4길 68 (구의동, 리젠트오피스텔)",37.53252742476833,127.0927075697707,민방위대피시설
동서울터미널 지하주차장 2~3층,"서울특별시 광진구 강변역로 50 (구의동, 동서울터미널빌딩)",37.53391764958448,127.09358546447396,민방위대피시설
신대방경남아파트 지하주차장 1~2층,"서울특별시 동작구 신대방길 85 (신대방동, 경남아파트)",37.48940885519744,126.90842610087142,민방위대피시설
"힐스테이트 상도 센트럴파크 지하주차장 P1, P2","서울특별시 동작구 상도로 346-1 (상도동, 힐스테이트 상도 센트럴파크)",37.49540972674473,126.95087331200118,민방위대피시설
힐스테이트 상도 프레스티지 지하주차장 1~3층,"서울특별시 동작구 상도로 346-2 (상도동, 힐스테이트 상도 프레스티지)",37.49653540705801,126.94894630428212,민방위대피시설
(주)한섬 성내사옥 본관 지하1층,"서울특별시 강동구 강동대로 195 (성내동, 뉴타임빌딩)",37.52446366857036,127.12834026680392,민방위대피시설
사당동삼성아파트 지하주차장 1층,"서울특별시 동작구 동작대로35아길 14 (사당동, 사당동삼성아파트)",37.49335350193813,126.97932711900636,민방위대피시설
남성역(7호선) 지하1~3층,"서울특별시 동작구 사당로 지하 218 (사당동, 남성역 7호선)",37.48473664808861,126.97111636643028,민방위대피시설
이수역(7호선) 지하1~3층,"서울특별시 동작구 사당로 지하 310 (사당동, 이수역(7호선))",37.48517064211764,126.98116168827808,민방위대피시설
굽은다리역 지하1층,"서울특별시 강동구 양재대로 지하 1572 (명일동, 굽은다리역)",37.5460519460186,127.14316805263988,민방위대피시설
이태원 지하보도(지하1층),서울특별시 용산구 녹사평대로 228 (이태원동),37.53794711294597,126.98700113650644,민방위대피시설
"경희의료원 지하 1,2층","서울특별시 동대문구 경희대로 23 (회기동, 경희의료원)",37.59671261002666,127.0513946359583,민방위대피시설
은혜교회 지하1층,"서울특별시 동작구 여의대방로22길 120 (신대방동, 은혜교회)",37.497981797636285,126.92662364175024,민방위대피시설
성원상떼빌 지하주차장 1~4층,"서울특별시 동작구 신대방1가길 38 (신대방동, 동작상떼빌아파트)",37.4875215934751,126.90684656705254,민방위대피시설
국민은행 명일동지점(지하1층 주차장),서울특별시 강동구 양재대로 1661 (명일동),37.55385084583609,127.14390295815862,민방위대피시설
사당휴먼시아아파트 지하주차장 1~3층,"서울특별시 동작구 사당로16길 96 (사당동, 사당휴먼시아아파트)",37.47896243600525,126.97014811075717,민방위대피시설
"경희의료원 주차빌딩 지하주차장 지하1,2층",서울특별시 동대문구 경희대로1나길 56-3 (회기동),37.59360322222376,127.05035623014008,민방위대피시설
래미안수유아파트107동(지하2층 주차장) (수유2동),"서울특별시 강북구 한천로159길 8 (수유동, 래미안수유아파트)",37.64470903945725,127.01806335411143,민방위대피시설
노원프라자 주차장 지하2층,"서울특별시 노원구 상계로 51 (상계동, 노원프라자빌딩)",37.65604415388695,127.06082269746253,민방위대피시설
당산근린공원 지하1~2층 주차장,서울특별시 영등포구 당산로27길 12 (당산동3가),37.52551138277155,126.89576914183196,민방위대피시설
순천향대학병원(지하1~2층),"서울특별시 용산구 대사관로 59, 순천향대학병원 신관 지하 1~2층 (한남동)",37.5337074901913,127.00430662225342,민방위대피시설
지하철 2호선 영등포구청역 지하1~2층 역사,"서울특별시 영등포구 당산로 지하121, 영등포구청역 (당산동3가)",37.52536696737479,126.89686298854654,민방위대피시설
강동수도사업소 지하1층,"서울특별시 강동구 성내로 51 (성내동, 강동수도사업소)",37.529016206709365,127.1260315311342,민방위대피시설
한신무학아파트 지하1층,"서울특별시 성동구 왕십리로31나길 18 (하왕십리동, 한신무학아파트)",37.56235261091724,127.02837869193152,민방위대피시설
독바위역( 6호선) 대합실 지하1층~6층,"서울특별시 은평구 불광로 지하 129-1 (불광동, 6호선 독바위역사무소)",37.61837656452654,126.9328573084402,민방위대피시설
로얄동아아파트 지하주차장 지하1~2층,"서울특별시 광진구 뚝섬로52마길 56 (자양동, 로얄동아아파트)",37.52820164600519,127.08140310867432,민방위대피시설
월곡3에스에이치빌지하주차장 1층~2층,서울특별시 성북구 오패산로 90 (하월곡동),37.61044039046266,127.0368732278623,민방위대피시설
상계주공아파트 12단지 관리동 지하1층,"서울특별시 노원구 한글비석로 530 (상계동, 상계주공12단지아파트)",37.66616612144814,127.05931911505414,민방위대피시설
주공15단지 지하1층 헬스장,"서울특별시 노원구 동일로227길 26 (상계동, 상계주공15단지아파트)",37.66878327698297,127.05372517515433,민방위대피시설
마곡엠밸리12단지 지하주차장 1~2층,"서울특별시 강서구 공항대로 140-0 (마곡동, 마곡엠밸리12단지)",37.55919064492144,126.82293093006798,민방위대피시설
마곡엠밸리15단지 지하주차장 1~2층,"서울특별시 강서구 마곡중앙로 36 (마곡동, 마곡엠밸리15단지)",37.55674734251114,126.82812227677,민방위대피시설
파스칼진 빌딩(지하2층 주차장)(번1동),"서울특별시 강북구 덕릉로 113 (번동, 파스칼진빌딩)",37.63518869183842,127.02636112835216,민방위대피시설
영신여자고등학교 독서실,"서울특별시 노원구 중계로16나길 13 (중계동, 영신여고/영신간호비즈니스고등학교)",37.65219849603894,127.08300010677551,민방위대피시설
"월드메르디앙아파트 지하주차장 101동, 102동지하1층","서울특별시 금천구 독산로36길 36 (시흥동, 월드메르디앙아파트)",37.45972033435808,126.90712887897396,민방위대피시설
홈플러스 테스코 금천점 지하주차장 지하1층,"서울특별시 금천구 시흥대로 391 (독산동, 삼성홈플러스)",37.468684687964455,126.89689813950676,민방위대피시설
렉스빌 연립주택 지하1층,"서울특별시 금천구 시흥대로28길 42 (시흥동, 렉스빌)",37.44227115409431,126.90614259538056,민방위대피시설
삼일아파트 지하1층,"서울특별시 금천구 시흥대로24길 32 (시흥동, 삼일아파트)",37.44122758857923,126.90632601114912,민방위대피시설
양재4지하보도 지하1층,"서울특별시 강남구 삼성로 14 (개포동, 개포자이 프레지던스)",37.48556028564031,127.0713381893408,민방위대피시설
마곡엠밸리11단지 지하주차장 1~2층,서울특별시 강서구 공항대로 124-0 (마곡동),37.559348492801234,126.82110231091328,민방위대피시설
수유역두산위브아파트1 지하1층 주차장(번1동),"서울특별시 강북구 덕릉로41길 12 (번동, 수유역 두산위브 아파트 1)",37.635837736674645,127.0320159164894,민방위대피시설
형인휴아름아파트(지하1층)-수유3동,"서울특별시 강북구 수유로23길 48 (수유동, 형인휴아름)",37.6383942507884,127.0221927781693,민방위대피시설
상계6.7동주민센터 지하1층,"서울특별시 노원구 노원로 429, 상계6.7동주민센터 (상계동)",37.65488538193983,127.06696207679764,민방위대피시설
시흥빌딩 지하1층,서울특별시 금천구 시흥대로 155 (시흥동),37.44803598776024,126.90245422741911,민방위대피시설
스카이 아파트 지하1층,"서울특별시 금천구 시흥대로47길 35 (시흥동, 스카이아파트)",37.449536613939365,126.90027573714366,민방위대피시설
산호시티빌아파트 지하1~3층,"서울특별시 금천구 시흥대로 251 (시흥동, 도일산호시티빌)",37.45611833653373,126.89953472063942,민방위대피시설
새한벤쳐월드 지하1~3층,"서울특별시 금천구 시흥대로 281 (시흥동, 새한벤처월드)",37.45854711469303,126.89812121361254,민방위대피시설
자양현대2차아파트 지하주차장 1~2층,"서울특별시 광진구 뚝섬로34길 9, 지하주차장 1층 (자양동, 자양2차현대아파트)",37.53419508621611,127.07062365507204,민방위대피시설
남부여성발전센타 내 강당 지하1층,"서울특별시 금천구 독산로50길 23 (시흥동, 남부여성발전센터)",37.4631536524707,126.90609147052746,민방위대피시설
명성교회 지하주차장(지하1층),서울특별시 강동구 구천면로 452 (명일동),37.54855987458421,127.14752496451706,민방위대피시설
크로바볼링장 지하1층,서울특별시 금천구 시흥대로 440 (독산동),37.47292387244424,126.89907424191888,민방위대피시설
삼익아파트 독산동(지하1층),"서울특별시 금천구 남부순환로120길 22 (독산동, 삼익아파트)",37.47810636169658,126.9007602988934,민방위대피시설
현대3차아파트 지하주차장 지하1층,서울특별시 강동구 진황도로 211 (둔촌동),37.527363847818194,127.14487293862372,민방위대피시설
신성통상 지하주차장 지하1층,서울특별시 강동구 풍성로63길 84 (둔촌동),37.53172367146101,127.14033876259968,민방위대피시설
신내4단지아파트(각 동 지하주차장 1층),"서울특별시 중랑구 숙선옹주로 91 (묵동, 신내4단지신내아파트)",37.61641308909325,127.08487401177398,민방위대피시설
하이츠아파트 지하주차장 지하1층,서울특별시 강동구 명일로 113 (둔촌동),37.52952677261914,127.14239985879868,민방위대피시설
노원구청 지하1층 주차장,"서울특별시 노원구 노해로 437, 노원구청 (상계동)",37.65416423259106,127.05666020070731,민방위대피시설
금천아파트 지하1층,"서울특별시 금천구 금하로14길 53-1 (시흥동, 금천아파트)",37.451019785684565,126.9046387248252,민방위대피시설
한라아파트 지하주차장 1~2층,"서울특별시 광진구 뚝섬로33길 20, 지하주차장 1층 (자양동, 한라아파트)",37.53565763612326,127.07003847006578,민방위대피시설
위너스골프연습장(지하1층),"서울특별시 금천구 시흥대로 296 (독산동, 위너스스포츠클럽)",37.46007003143927,126.899096150848,민방위대피시설
동양드림아파트(지하1층),"서울특별시 금천구 독산로58나길 56 (독산동, 동양드림아파트)",37.46557731361708,126.90668292958888,민방위대피시설
현대오피스텔 지하주차장(지하1~2층),"서울특별시 구로구 구로중앙로18길 5, 지하주차장동 (구로동, 현대오피스텔)",37.494933578421794,126.88966898860362,민방위대피시설
로얄프라자 지하주차장(지하1층),"서울특별시 구로구 가마산로 278 (구로동, 로얄프라자)",37.496138752509,126.89125030099834,민방위대피시설
창영빌딩(지하1층),"서울특별시 금천구 독산로 218 (독산동, 창영빌딩)",37.466411232802805,126.90200978103502,민방위대피시설
호정타워아파트(지하3층),"서울특별시 금천구 시흥대로88길 21 (독산동, 호정타워아파트)",37.461167662878296,126.90027919922424,민방위대피시설
금천구청 지하1~2층,"서울특별시 금천구 시흥대로73길 70, 금천구청종합청사 (시흥동)",37.45681676779496,126.89540835357248,민방위대피시설
라이프아파트 주차장 지하1층,"서울특별시 금천구 벚꽃로 60 (독산동, 독산라이프아파트)",37.46108035348261,126.89226991700146,민방위대피시설
이랜드 해가든 아파트 101동 ~ 105동 지하1층,"서울특별시 금천구 벚꽃로6길 3 (독산동, 이랜드해가든아파트)",37.46101202065368,126.89306942792768,민방위대피시설
금빛휘트니스센터 지하1층,"서울특별시 금천구 금하로 668 (시흥동, 금빛공원)",37.453132923478464,126.90413082570332,민방위대피시설
강북문화정보도서관(지하1층)-번2동,서울특별시 강북구 오현로 145 (번동),37.62521876859832,127.03629934349009,민방위대피시설
"현대아파트(지하2, 3층 주차장) (수유2동)",서울특별시 강북구 한천로 1131 (수유동),37.64541908829889,127.01855027381336,민방위대피시설
우성2차아파트 지하1층,"서울특별시 영등포구 도림로47길 1(대림동, 우성아파트)",37.49562803402165,126.90001094445276,민방위대피시설
월곡두산위브아파트(임대) 지하주차장 1층~3층,"서울특별시 성북구 오패산로 46 (하월곡동, 월곡두산위브아파트)",37.60703306444001,127.0383654628116,민방위대피시설
미성상가 지하1층 상가,"서울특별시 노원구 마들로 59 (월계동, 월계미성아파트)",37.621280001702985,127.0676555073632,민방위대피시설
신반포역 9호선 지하1~2층,"서울특별시 서초구 신반포로 지하105, 신반포역 (반포동)",37.503729343254136,126.9968524075806,민방위대피시설
신내5단지두산대림아파트(지하주차장 1층),"서울특별시 중랑구 신내로21길 16 (묵동, 신내두산대림아파트)",37.61688152050054,127.0882081987514,민방위대피시설
DMC SK뷰@ 101~106동 B3~B4,"서울특별시 은평구 수색로 216, DMC SK뷰 (수색동)",37.58058451734366,126.89962311201413,민방위대피시설
논현2문화센터 지하주차장 1층~2층,"서울특별시 강남구 학동로43길 17 (논현동, 논현2동주민센터)",37.517292253118896,127.03723492231772,민방위대피시설
한양대학교 대운동장 주차장 지하1층,"서울특별시 성동구 왕십리로 222, 한양대학교 (사근동)",37.55774179526384,127.04739342371714,민방위대피시설
반포힐스테이트아파트 지하1~2층 주차장,"서울특별시 서초구 신반포로16길 15-20 (반포동, 반포힐스테이트)",37.50119135199884,126.99682387474304,민방위대피시설
중앙보훈병원역 지하1층 역사,"서울특별시 강동구 동남로 지하 625 (둔촌동, 중앙보훈병원역)",37.52835385418408,127.14834553861247,민방위대피시설
삼성전자서울알엔디캠퍼스1단지 지하1~3층 주차장,"서울특별시 서초구 성촌길 33 (우면동, (주)삼성전자서울R&D캠퍼스)",37.46513680321981,127.02326125449572,민방위대피시설
망원1차대림아파트(지하1층주차장),"서울특별시 마포구 망원로2길 103(망원동, 망원1차대림아파트)",37.5534335514694,126.90485495044187,민방위대피시설
압구정로데오역 지하2층~5층,"서울특별시 강남구 압구정로 지하402, 압구정로데오역 지2층 (압구정동)",37.52943955867861,127.04126003965436,민방위대피시설
마곡엠밸리14단지 지하주차장 1~2층,"서울특별시 강서구 마곡중앙로 33 (마곡동, 마곡엠밸리14단지)",37.55704211805516,126.82476800370686,민방위대피시설
마곡엠밸리10단지 지하주차장 1~2층,"서울특별시 강서구 마곡중앙1로 72 (마곡동, 마곡엠밸리10단지)",37.55954110768239,126.8193503305534,민방위대피시설
마곡엠밸리4단지 지하주차장 1~3층,"서울특별시 강서구 마곡서로 175 (마곡동, 마곡엠밸리4단지)",37.56950753891236,126.82446807793325,민방위대피시설
둔촌오륜역 지하1층 역사,"서울특별시 강동구 강동대로 지하 303 (둔촌동, 둔촌오륜역)",37.51851886612029,127.14090652482422,민방위대피시설
시민의숲역 신분당선 지하 1~2층,"서울특별시 서초구 매헌로 지하 116 (양재동, 양재시민의숲역(매헌역))",37.46997279992804,127.03832747485876,민방위대피시설
송암빌딩 지하주차장 1층~3층,"서울특별시 강남구 언주로 709 (논현동, 송암빌딩)",37.51671381783086,127.03481469813762,민방위대피시설
건설회관 지하주차장 1층,"서울특별시 강남구 언주로 711 (논현동, 건설회관)",37.51735158334379,127.03412115575264,민방위대피시설
자양3동주민센터 지하1층,"서울특별시 광진구 뚝섬로 568, 자양제3동주민센터  지하1층 (자양동)",37.5338052409125,127.07285617380974,민방위대피시설
태승훼미리아파트 지하주차장 1층,"서울특별시 강서구 국회대로7길 175 (화곡동, 태승훼미리아파트)",37.528780893379626,126.85107017172342,민방위대피시설
9호선 한성백제역 승강장 지하1~2층,"서울특별시 송파구 위례성대로 지하 29 (방이동, 한성백제역)",37.51622460782651,127.11764338950807,민방위대피시설
송파나루역 지하 대합실 1~2층,"서울특별시 송파구 백제고분로 지하 446 (방이동, 송파나루역)",37.51096361543016,127.11273579562204,민방위대피시설
신목동파라곤아파트 지하2층 주차장,서울특별시 양천구 오목로 55 (신월동),37.52319084993157,126.84399086030184,민방위대피시설
삼성화원아파트(지하1층주차장),"서울특별시 마포구 망원로10길 6(망원동, 삼성화원아파트)",37.557440370334106,126.90665843554072,민방위대피시설
후암동 주민센터(지하1층),"서울특별시 용산구 후암로 32-6 (후암동, 후암동 주민센터)",37.54868619029949,126.97814871818002,민방위대피시설
곰달래문화복지센터 지하주차장 1~3층,"서울특별시 강서구 강서로5길 50 (화곡동, 복지문화센터및공영주차장)",37.52904565243309,126.8489080568109,민방위대피시설
석촌고분역 지하1~2층,"서울특별시 송파구 백제고분로 지하 274 (삼전동, 석촌고분역)",37.502085045905886,127.09666523828552,민방위대피시설
목동금호베스트빌 101동 지하1층 주차장,"서울특별시 양천구 목동중앙북로8길 111, 101동 (목동, 금호베스트빌아파트)",37.544995527573306,126.86837303645262,민방위대피시설
영등포구청 지하2~3층,"서울특별시 영등포구 당산로 123, 영등포구청 (당산동3가)",37.52626295476995,126.89595261955922,민방위대피시설
창동 데시앙 아파트 지하주차장 1~2층,"서울특별시 도봉구 도봉로110다길 51 (창동, 태영창동데시앙)",37.64292641075537,127.03338984126282,민방위대피시설
남부지방법원 별관 지하1층 주차장,"서울특별시 양천구 신월로 386, 서울남부지방법원 (신정동)",37.52161354964547,126.86417603680216,민방위대피시설
"서울숲역 수인분당선 지하1층,4층","서울특별시 성동구 왕십리로 지하77, 서울숲역 (성수동1가)",37.54402678989859,127.04487691652518,민방위대피시설
양동초등학교 지하1층,"서울특별시 양천구 오목로23길 24 (신정동, 서울양동초등학교)",37.52608188693274,126.8512103303292,민방위대피시설
서울중앙기계부품 지하1층주차장,서울특별시 구로구 경인로53길 15-0 (구로동),37.50090412995104,126.87458587539376,민방위대피시설
인왕산현대아파트 제2주차장 지하1~2층,"서울특별시 서대문구 통일로34길 46 (홍제동, 인왕산현대아파트)",37.58552976874642,126.95082036092025,민방위대피시설
동하빌딩(지하2~3층),"서울특별시 강남구 남부순환로 2913 (대치동, 동하빌딩)",37.49286255534015,127.05861100594134,민방위대피시설
동익아파트 지하주차장 1층,"서울특별시 강남구 광평로39길 3 (수서동, 동익아파트)",37.48532204784192,127.09651277957572,민방위대피시설
화영빌딩(우리홈마트) 지하주차장 2층,서울특별시 강동구 강동대로53길 80 (성내동),37.5262952081216,127.1329318639366,민방위대피시설
한스빌딩 지하주차장 1층,서울특별시 강동구 암사길 51 (암사동),37.5520605170481,127.13501710720296,민방위대피시설
예성그린캐슬3차아파트 주차장 지하1층,"서울특별시 관악구 남현길 141, 지하1층 (남현동, 예성그린캐슬3차아파트)",37.47121002901387,126.97386409258124,민방위대피시설
천록빌딩 지하1층,"서울특별시 영등포구 여의대방로61길 2, 천록빌딩 (신길동)",37.51431296071814,126.92601641692792,민방위대피시설
기쁜우리복지관 지하 1층,"서울특별시 강서구 허준로 65 (가양동, 기쁜우리복지관,체육센터)",37.569225003181145,126.84890285811927,민방위대피시설
송파시그니처롯데캐슬 지하주차장 지하1층,"서울특별시 송파구 거마로 56 (거여동, 송파시그니처롯데캐슬)",37.495461967277286,127.14948579129896,민방위대피시설
e편한세상 송파파크센트럴 지하주차장 지하1층,"서울특별시 송파구 오금로 551 (거여동, e편한세상 송파 파크센트럴)",37.49383174348799,127.15024001430449,민방위대피시설
에셀비전21 지하1~2층,"서울특별시 관악구 남부순환로166길 90 (신림동, 에셀비전21아파트)",37.479606207549445,126.92364690550464,민방위대피시설
신동아아파트 지하주차장 1층,"서울특별시 강남구 광평로47길 17 (수서동, 신동아아파트)",37.48707261475469,127.09844291196134,민방위대피시설
가락삼익아파트 전체 동의 지하1층,"서울특별시 송파구 오금로32길 5(송파동, 가락삼익맨숀)",37.50416502643742,127.12131407924936,민방위대피시설
정릉 힐스테이트 1차 지하주차장 1층~4층,"서울특별시 성북구 북악산로 831 (정릉동, 정릉 힐스테이트1차)",37.6002009392521,127.01752373599828,민방위대피시설
정릉 e편한세상 2차 지하주차장 1층~2층,"서울특별시 성북구 북악산로 851 (정릉동, 정릉2차 e-편한세상)",37.59999531164709,127.01943409523489,민방위대피시설
한신휴아파트(122동~124동) 지하2층주차장,서울특별시 성북구 동소문로15길 99 (동소문동7가),37.59517484885598,127.01414804111644,민방위대피시설
태웅빌딩 지하2층 주차장,"서울특별시 노원구 노해로 447, 태웅빌딩 (상계동)",37.65398733233147,127.05775479423522,민방위대피시설
한양2차아파트 지하1층,"서울특별시 송파구 가락로 192 (송파동, 2차한양아파트)",37.50508785918045,127.11617805583668,민방위대피시설
정오빌딩 지하1층,서울특별시 영등포구 영등포로 422(신길동),37.51233640702349,126.92480151851552,민방위대피시설
두산위브파빌리온 지하2~3층,"서울특별시 종로구 삼봉로 81 (수송동, 두산위브파빌리온)",37.5725639593102,126.98182318865972,민방위대피시설
성현동자치회관 지하주차장 (지하1층),서울특별시 관악구 관악로 255-7 (봉천동),37.48721748211451,126.95660648078136,민방위대피시설
두산빌딩 지하주차장 2층~4층,"서울특별시 강남구 언주로 726 (논현동, 두산빌딩)",37.51907521525465,127.03529805026312,민방위대피시설
안암래미안아파트 101동 지하주차장 1층,"서울특별시 성북구 고려대로17가길 64 (안암동1가, 래미안안암)",37.58930642299608,127.02374899769424,민방위대피시설
이화여자대학교 지하주차장(이화캠퍼스복합단지 지하5~6층,"서울특별시 서대문구 이화여대길 52 (대현동, 이화여자대학교)",37.56256105500577,126.94745336477936,민방위대피시설
우성상가 지하주차장(지하1층),"서울특별시 구로구 도림천로 344 (구로동, 대림2차우성아파트)",37.49408511718769,126.89383275557935,민방위대피시설
동국대사대부여고 지하1층,서울특별시 광진구 광나루로36길 47 (구의동),37.542630935989486,127.0868250584861,민방위대피시설
현대종합상가 지하1층,서울특별시 강동구 상암로 210 (명일동),37.54630442237135,127.14578669438932,민방위대피시설
헬리오시티 전체 동의 지하주차장 2층 ~ 3층,"서울특별시 송파구 송파대로 345, 103동 (가락동, 헬리오시티)",37.49751935973152,127.10722635067371,민방위대피시설
"전농동신성미소지움아파트 지하주차장 지하 1,2층","서울특별시 동대문구 서울시립대로 75 (전농동, 전농동신성미소지움아파트)",37.57831176585007,127.04852703794516,민방위대피시설
구암아파트 지하주차장 1층,"서울특별시 은평구 증산로17길 6-46 (신사동, 구암아파트)",37.59147468489044,126.91311790185352,민방위대피시설
서초롯데캐슬프레지던트아파트 지하1~3층주차장,"서울특별시 서초구 서초중앙로24길 57 (서초동, 서초롯데캐슬프레지던트)",37.496863235111626,127.0196734181875,민방위대피시설
갈현베르빌아파트(지하1층),"서울특별시 은평구 연서로 149 (갈현동, 동광갈현베르빌)",37.6122292100435,126.91680850914408,민방위대피시설
구의1동 주민센터 주차장 지하1층,"서울특별시 광진구 광나루로36길 56 (구의동, 구의제1동주민센터)",37.54243458579316,127.08569169395204,민방위대피시설
"제기서울한방진흥센터공영 지하주차장 1,2층","서울특별시 동대문구 약령중앙로 26 (제기동, 서울한방진흥센터)",37.58065530961218,127.03762653786376,민방위대피시설
백련산 힐스테이트4차APT(401동~413동지하4층),"서울특별시 은평구 백련산로 37 (응암동, 힐스테이트백련산4차아파트)",37.59016418623676,126.92159197543828,민방위대피시설
수유역두산위브아파트2 지하1층 주차장(번1동),"서울특별시 강북구 덕릉로41길 15 (번동, 수유역 두산위브 아파트 2)",37.63567027747639,127.03091183135682,민방위대피시설
강동구청 본청사 및 제2청사 지하1층,"서울특별시 강동구 성내로 25, 강동구청 지하1층 (성내동)",37.530094402948514,127.1236858217781,민방위대피시설
서울특별시교육청학생교육원글로벌문화언어체험교육원(지하1층,"경기도 가평군 가평읍 불기산길 88, 서울특별시학생교육원가평교육원",37.80238065129817,127.47019427195622,민방위대피시설
대한적십자사 동부혈액원 지하1층 기관실,"서울특별시 노원구 동일로 1329, 대한적십자사 (상계동)",37.64708302172559,127.06218599753645,민방위대피시설
이마트 지하3층~지하7층,"서울특별시 은평구 은평로 111 (응암동, 은평이마트)",37.60035756580947,126.92019251863375,민방위대피시설
상림마을6단지아파트(622~629동)629동지하1층,"서울특별시 은평구 진관4로 87 (진관동, 은평뉴타운상림마을)",37.64796042751103,126.92884718857772,민방위대피시설
영광빌딩 지하1~2층 주차장,서울특별시 관악구 신림로 158 (신림동),37.47292815156949,126.93386952727712,민방위대피시설
길음지하보도(지하1층),서울특별시 성북구 동소문로 지하234 (길음동),37.60255128799074,127.02238491421458,민방위대피시설
왕십리역이스타빌 지하1층~지하5층,"서울특별시 성동구 왕십리로 309 (행당동, 왕십리역이스타빌)",37.56119844990883,127.03460985430608,민방위대피시설
제각말5단지아파트(501~513동)509동옆지하1층,"서울특별시 은평구 연서로48길 12 (진관동, 은평뉴타운제각말)",37.628430313925975,126.9321280141781,민방위대피시설
시립서북병원,"서울특별시 은평구 갈현로7길 49 (역촌동, 서울서북병원)",37.60327025266376,126.92025446634202,민방위대피시설
박석고개1단지아파트(101~111동)110동 지하1층,"서울특별시 은평구 진관1로 21-9 (진관동, 은평뉴타운박석고개)",37.631893541581455,126.9201097602867,민방위대피시설
북한산힐스테이트 3차아파트 전체동의 지하주차장1~3층,"서울특별시 은평구 불광로 122-10 (불광동, 북한산현대힐스테이트3차아파트)",37.61848004640761,126.93490441426994,민방위대피시설
북한산힐스테이트 7차아파트 전체동의 지하주차장1~3층,"서울특별시 은평구 통일로 796 (불광동, 북한산힐스테이트7차)",37.61653157661871,126.92668606226856,민방위대피시설
행운빌딩 지하2층 주차장,"서울특별시 관악구 남부순환로 2040, 행운빌딩 지하1~2층 (남현동)",37.47618695439461,126.97559796173012,민방위대피시설
신논현역 지하 1~3층,서울특별시 강남구 봉은사로 지하 102 (역삼동),37.50666207863073,127.03200440642144,민방위대피시설
프라이어팰리스아파트 지하1층주차장,"서울특별시 강동구 고덕로 130 (암사동, 프라이어팰리스)",37.553527079948985,127.1395004938912,민방위대피시설
녹번역 3호선 지하1층~2층,"서울특별시 은평구 통일로 지하 602-1 (녹번동, 지하철3호선 녹번역)",37.60107046317368,126.93575597471656,민방위대피시설
명지전문대학 지하1층 주차장,"서울특별시 서대문구 가좌로 134 (홍은동, 명지전문대학)",37.584498222814496,126.92505354406651,민방위대피시설
한국우진학교(지하1층주차장),"서울특별시 마포구 월드컵북로38길 21 (중동, 한국우진학교)",37.57159732357573,126.90331500998012,민방위대피시설
어린이회관 지하 1층,"서울특별시 광진구 광나루로 441 (능동, 육영재단어린이회관)",37.54680188322666,127.07783349418756,민방위대피시설
상림마을3단지아파트(706~708동)706동지하1층,"서울특별시 은평구 진관4로 47 (진관동, 은평뉴타운상림마을)",37.646063590686985,126.926254137114,민방위대피시설
응암푸르지오 지하1층~지하3층,"서울특별시 은평구 백련산로 146 (응암동, 응암푸르지오)",37.59741546985464,126.92614837432562,민방위대피시설
연신내역 3호선 지하1층,"서울특별시 은평구 통일로 지하 849 (갈현동, 3,6호선 연신내역사무소)",37.618932635614,126.92085308734823,민방위대피시설
올림픽체육센터 지하1층,"서울특별시 강서구 화곡로65길 62 (등촌동, 강서구민올림픽체육센터)",37.55968892062718,126.85057001392924,민방위대피시설
DMC 청구아파트 101동 B1 외 2개소,"서울특별시 은평구 증산로1길 26 (수색동, 수색동청구아파트)",37.580722107141966,126.90103632403743,민방위대피시설
은평노인종합복지관(지하1층),"서울특별시 은평구 연서로 415 (진관동, 은평노인종합복지관)",37.63200122414934,126.9302169773403,민방위대피시설
대림빌딩 지하1~2층,"서울특별시 종로구 종로1길 36 (수송동, 대림빌딩)",37.57349246618786,126.97914023742244,민방위대피시설
매헌초등학교 지하 1층 주차장,"서울특별시 서초구 언남길 8 (양재동, 매헌초등학교)",37.47113564087595,127.04207275526817,민방위대피시설
"경남아파트(101동, 102동 지하주차장 1층)","서울특별시 은평구 가좌로7나길 35 (응암동, 경남아파트)",37.5832735357796,126.92036479055672,민방위대피시설
남청파인힐아파트(지하주차장 1층),"서울특별시 은평구 응암로 142-32 (응암동, 남청파인힐아파트)",37.58403049489599,126.91600489153608,민방위대피시설
마고정2단지아파트(323~335동)334동 지하1층,"서울특별시 은평구 진관2로 60 (진관동, 은평뉴타운마고정)",37.63342425361997,126.9239744194641,민방위대피시설
주공4단지 상가 지하1층 주차장,"서울특별시 노원구 동일로 1362 (상계동, 상계주공4단지아파트)",37.65006551061409,127.0622172767018,민방위대피시설
DMC문영퀸즈파크아파트 지하주차장 1~2층,"서울특별시 은평구 증산로13길 44-5 (증산동, 문영마운틴1차아파트)",37.58757336177128,126.9077472143522,민방위대피시설
우물골2단지아파트(209동~222동)211동지하1층,"서울특별시 은평구 진관2로 111-7 (진관동, 은평뉴타운우물골)",37.63629837121559,126.93150538623794,민방위대피시설
롯데몰 은평점(지하1층),"서울특별시 은평구 통일로 1050 (진관동, 롯데몰은평점)",37.63748270230912,126.918023068913,민방위대피시설
풍양빌딩(송중동)(지하1~3층),"서울특별시 강북구 도봉로 136, 풍양빌딩 (미아동)",37.621102322484894,127.02870935375432,민방위대피시설
일이삼전자타운(2동 지하1~4층),"서울특별시 구로구 경인로 393-7 (고척동, 일이삼전자타운)",37.49745623940571,126.8631269755976,민방위대피시설
"신성수정아파트 지하주차장 1,2층","서울특별시 은평구 은평터널로7길 2 (신사동, 신성수정아파트)",37.59274197670177,126.906318085009,민방위대피시설
리더스파크아파트 지하주차장 1-4층,"서울특별시 은평구 연서로 1 (역촌동, 리더스파크)",37.59928892450732,126.91533502986418,민방위대피시설
센타폴리스아파트 지하주차장 1-3층,"서울특별시 은평구 연서로 9 (역촌동, 센타폴리스)",37.60014483063934,126.91553657670364,민방위대피시설
태화빌딩 지하1~3층,"서울특별시 종로구 인사동5길 29 (인사동, 태화빌딩)",37.57200743895152,126.98485639209152,민방위대피시설
백련산 힐스테이트1차APT(101동~115동 지하3층),"서울특별시 은평구 백련산로2길 19 (응암동, 백련산힐스테이트1차)",37.59241383095127,126.9252265116929,민방위대피시설
강남역 2호선 지하1~3층,서울특별시 강남구 강남대로 지하 396 (역삼동),37.49705639086567,127.02818042046236,민방위대피시설
센츄리아파트(지하1층 주차장),"서울특별시 구로구 중앙로12길 12 (고척동, 센츄리아파트)",37.504452357433415,126.86230160829469,민방위대피시설
은평구립도서관 지하 1층,"서울특별시 은평구 통일로78가길 13-84 (불광동, 은평구립도서관)",37.618926660744044,126.92803880987825,민방위대피시설
서울숲SK V1센터 지하 1~4층,"서울특별시 성동구 성수일로8길 5, 서울숲 SK V1 TOWER (성수동2가)",37.54690197457389,127.05166063850216,민방위대피시설
응암에스에이치빌 지하1층~지하2층,"서울특별시 은평구 백련산로 146-30 (응암동, 응암SH-VILLE)",37.59801931142441,126.92687418086904,민방위대피시설
현대테라스타워 지식산업센터 지하 1~4층,"서울특별시 성동구 연무장5가길 7, 성수역 현대테라스타워 (성수동2가)",37.54403727608749,127.05362893304464,민방위대피시설
상계백병원 지하1층 주차장,"서울특별시 노원구 동일로 1342, 상계백병원 (상계동)",37.64866646941277,127.06298403838304,민방위대피시설
동양메이저아파트 지하1층 주차장,"서울특별시 노원구 상계로5길 12 (상계동, 동양메이저아파트)",37.65763634043175,127.06397534250084,민방위대피시설
대한적십자사 서울지사 지하주차장(지하1층),"서울특별시 성동구 고산자로 356, 대한적십자 지하1층 (마장동)",37.57147488273759,127.03851473627633,민방위대피시설
래미안 옥수리버젠아파트(지하1~2층),"서울특별시 성동구 매봉길 15 (옥수동, 래미안 옥수 리버젠)",37.54496005822659,127.01384615991611,민방위대피시설
우성현대아파트(지하1층 주차장),"서울특별시 구로구 중앙로1길 18-19 (고척동, 우성현대아파트)",37.49884292415815,126.86279451313634,민방위대피시설
백련산 힐스테이트2차APT(201동~212동지하3층),"서울특별시 은평구 백련산로 38 (응암동, 백련산 힐스테이트 2차)",37.59082692396359,126.92354676903236,민방위대피시설
우물골2단지C5블럭@(204~208동)206동지하1층,"서울특별시 은평구 진관2로 77 (진관동, 은평뉴타운우물골)",37.634563699895935,126.9275681228308,민방위대피시설
성수SKV1 지식산업센터(지하1층~ 5층),"서울특별시 성동구 연무장5가길 25, 성수역 SK V1 Tower (성수동2가)",37.54358064780165,127.05564366794374,민방위대피시설
중구회현체육센터 지하1층,"서울특별시 중구 퇴계로12길 78 (회현동1가, 중구회현체육센터)",37.55620901777166,126.98158154803208,민방위대피시설
우성꿈동산아파트(지하1층 주차장),"서울특별시 구로구 경인로47다길 34-7 (고척동, 우성꿈동산아파트)",37.5031584851036,126.86631273805612,민방위대피시설
SC제일은행본점 지하2~4층,"서울특별시 종로구 종로 47 (공평동, SC제일은행본점)",37.57111500659634,126.98239675865028,민방위대피시설
성신여대역(4호선) 지하1층,"서울특별시 성북구 동소문로 지하 102 (동선동4가, 성신여대입구역)",37.5930985862611,127.01678082741137,민방위대피시설
지하철1호선 동묘앞역 대합실 승강장 지하1층,"서울특별시 종로구 종로 359, 동묘앞역 지하1층 (숭인동)",37.5735966759967,127.0171392031152,민방위대피시설
동십자각지하도 지하1층,"서울특별시 종로구 삼청로 1 (세종로, 동십자각)",37.576061149972766,126.97789360374504,민방위대피시설
칸타빌 수유팰리스(지하1~3층)-수유3동,"서울특별시 강북구 한천로148길 12-13 (수유동, 칸타빌 수유팰리스)",37.64219899533438,127.02546516763024,민방위대피시설
현대2차아파트 210동 지하1층,"서울특별시 강남구 언주로 107 (개포동, 현대2차아파트)",37.48247754553402,127.05125276007708,민방위대피시설
성락성결교회(지하1층 ~ 4층),"서울특별시 성동구 성수일로10길 33, 기독교대한성결교회 (성수동2가)",37.546592233045445,127.05387018072344,민방위대피시설
성수롯데캐슬파크 (지하 1~2층),"서울특별시 성동구 성수일로8길 47(성수동2가, 성수동 롯데캐슬파크)",37.54604833281283,127.05595847570729,민방위대피시설
신월코아루1단지아파트(지하1층) 주차장,"서울특별시 양천구 남부순환로56길 9 (신월동, 코아루1단지)",37.53172525425087,126.82959156569017,민방위대피시설
경남아너스빌아파트 전동 지하 1층,"서울특별시 은평구 갈현로11길 46 (구산동, 경남아너스빌)",37.605559784859565,126.90538267273988,민방위대피시설
씨드큐브 창동 지하주차장 1층~7층,"서울특별시 도봉구 마들로13길 61, 씨드큐브 창동 (창동)",37.65450062187146,127.04967333434914,민방위대피시설
코오롱하늘채아파트 지하주차장 1층,"서울특별시 은평구 갈현로29길 62 (갈현동, 코오롱하늘채아파트)",37.62313913670533,126.91141163367968,민방위대피시설
건영아파트 지하주차장 1~2층,"서울특별시 은평구 갈현로45길 57 (갈현동, 갈현동건영아파트)",37.62895112503565,126.91339981105764,민방위대피시설
백련산 힐스테이트3차 APT(301~311동 지하3층),"서울특별시 은평구 백련산로 36 (응암동, 백련산 힐스테이트 3차)",37.58798190727513,126.92409803944606,민방위대피시설
9호선여의도역,"서울특별시 영등포구 여의나루로 지하40, 여의도역 지하1층 (여의도동)",37.52324913122183,126.92693567278091,민방위대피시설
9호선샛강역,"서울특별시 영등포구 의사당대로 지하166, 샛강역 지하1층 (여의도동)",37.517140136504,126.93012923253345,민방위대피시설
지하철9호선선유도역,"서울특별시 영등포구 양평로 지하124, 선유도역 (양평동5가)",37.53852231229985,126.89387206427416,민방위대피시설
은천2단지아파트 지하1층주차장,"서울특별시 관악구 인헌12길 46-1, 지하1층 (봉천동, 은천아파트)",37.469974258582354,126.96456157187863,민방위대피시설
신림현대아파트 110동 지하1층 주차장,"서울특별시 관악구 신림로29길 8 (신림동, 신림현대아파트)",37.475102480231456,126.93248262956033,민방위대피시설
서울시 북부기술 교육원 지하1층 식당,"서울특별시 노원구 덕릉로70가길 81, 서울특별시북부기술교육원 (상계동)",37.64232020551837,127.05809255089854,민방위대피시설
장석교회 지하2층 주차장,"서울특별시 노원구 월계로44길 23 (월계동, 대한예수교장로회장석교회)",37.62407564937139,127.05172325643306,민방위대피시설
문래자이아파트 지하1~2층 주차장,"서울특별시 영등포구 당산로4길 12 (문래동3가, 문래자이)",37.51614360095596,126.89677771977156,민방위대피시설
에드가 쌍문 아파트 지하주차장 1~2층,"서울특별시 도봉구 삼양로 602 (쌍문동, 에드가쌍문)",37.65657328163049,127.01386776547716,민방위대피시설
창제3동 제1공영주차장 지하1층,"서울특별시 도봉구 우이천로4길 24-11, 창제3동 제1공영주차장 (창동)",37.6330862467515,127.04145502120492,민방위대피시설
우암센스뷰(지하2층) (수유3동),"서울특별시 강북구 노해로8길 16 (수유동, 우암쎈스뷰)",37.63778343410103,127.0240400786994,민방위대피시설
도봉투웨니퍼스트2단지 지하주차장 1층,"서울특별시 도봉구 도봉로180길 28, 도봉투웨니퍼스트2단지 (도봉동)",37.68254442570489,127.04750440674606,민방위대피시설
e편한세상아파트 전동 지하 1층,"서울특별시 은평구 서오릉로21길 47 (구산동, 갈현1단지e-편한세상아파트)",37.61187773690465,126.90620296633465,민방위대피시설
하계장미6단지아파트 종합상가 지하1층,"서울특별시 노원구 섬밭로 196 (하계동, 장미아파트)",37.633702134907566,127.06786536900168,민방위대피시설
수색에코포레A104~105 B1 외 지하주차장 7개소,"서울특별시 은평구 은평터널로 65 (수색동, e편한세상수색에코포레)",37.58684433694416,126.90002237356848,민방위대피시설
북한산힐스테이트1차아파트 전체동의 지하주차장 1층~2층,"서울특별시 은평구 불광로2길 33 (불광동, 북한산힐스테이트1차아파트)",37.61264673691774,126.93700954829905,민방위대피시설
천왕연지마을1단지 지하1층 주차장,"서울특별시 구로구 오류로 36-13(천왕동, 천왕연지마을1단지)",37.488151948921306,126.84084115456604,민방위대피시설
명동지하쇼핑센터,"서울특별시 중구 남대문로 지하 72 (남대문로2가, 명동지하쇼핑센터)",37.56406701014095,126.9821589634506,민방위대피시설
지하철3호선 무악재역 지하1~3층,"서울특별시 서대문구 통일로 지하 361 (홍제동, 무악재역)",37.58242290829174,126.95056626355075,민방위대피시설
도봉투웨니퍼스트1단지 지하주차장 1층,"서울특별시 도봉구 도봉로180길 20, 도봉투웨니퍼스트1단지 (도봉동)",37.68265644962777,127.04705554731844,민방위대피시설
하계2동주민센터 지하1층,"서울특별시 노원구 공릉로55길 88 (하계동, 하계2동 주민센터)",37.63199888708088,127.0678581955602,민방위대피시설
"수유동 이테크벨리오피스텔 지하2,3층 주차장-수유1동","서울특별시 강북구 도봉로77길 6 (수유동, 수유동 이테크밸리 오피스텔)",37.63377027331551,127.02279824481715,민방위대피시설
서울가든아파트 지하 1층,서울특별시 도봉구 도봉산길 35 (도봉동),37.68655261278243,127.04163095471606,민방위대피시설
진로아파트 지하1층~2층,"서울특별시 은평구 통일로 586-19 (녹번동, 녹번JR아파트)",37.600073860225336,126.93792123450972,민방위대피시설
군자동 복합청사 지하주차장 지하1~2층,"서울특별시 광진구 면목로 13, 군자동 복합청사 (군자동)",37.55547594828362,127.0753401303312,민방위대피시설
"새절역 6호선 지하 1, 2층","서울특별시 은평구 증산로 지하 400 (신사동, 6호선 새절역사무소)",37.59115986231021,126.9132853060164,민방위대피시설
"갈현현대1차아파트 101동,102동 지하주차장 1층","서울특별시 은평구 갈현로33길 24 (갈현동, 갈현동현대아파트)",37.62217057701258,126.91418802411218,민방위대피시설
이수역리가아파트 지하주차장 1~3층,"서울특별시 동작구 사당로27길 130 (사당동, 이수역리가아파트)",37.48948982970515,126.97385325954218,민방위대피시설
가리봉교회(지하 식당),"서울특별시 구로구 우마2길 34 (가리봉동, 가리봉교회)",37.48216519469665,126.89005059861796,민방위대피시설
대진고등학교 지하1층 창고,"서울특별시 노원구 공릉로62가길 47, 대진고등학교 (하계동)",37.63775052599322,127.07484182385711,민방위대피시설
경기기계공업고등학교 지하1층 창고,서울특별시 노원구 공릉로 264 (경기기계공업고등학교),37.63303728902657,127.07446675768156,민방위대피시설
서초포레스타 2단지아파트 지하1~2층 주차장,"서울특별시 서초구 헌릉로8길 45 (내곡동, 서초포레스타2단지)",37.45531569597188,127.0610244090274,민방위대피시설
삼성아파트(지하2층 주차장)(번1동),"서울특별시 강북구 도봉로98길 33 (번동, 삼성아파트)",37.64143806637164,127.03188273954656,민방위대피시설
우리은행 종로4가금융센터 지하1층,"서울특별시 종로구 종로 186 (종로4가, 우리은행)",37.57041297892659,126.99849106581746,민방위대피시설
광화문우체국 지하1층,"서울특별시 종로구 종로 6 (서린동, 광화문우체국)",37.56979035211332,126.97809491000542,민방위대피시설
래미안장위퍼스트하이아파트 지하주차장(지하 1층~2층),"서울특별시 성북구 한천로 713 (장위동, 래미안장위퍼스트하이)",37.62007518375598,127.05152985310848,민방위대피시설
LG사이언스파크 동측 1 지하주차장 1~4층,"서울특별시 강서구 마곡중앙10로 30 (마곡동, 엘지사이언스파크)",37.562648328106135,126.83217795414072,민방위대피시설
미주진로아파트 지하주차장 1층,"서울특별시 강서구 공항대로 351-21 (등촌동, 미주진로아파트)",37.55983851131795,126.84702871730084,민방위대피시설
부영아파트 지하주차장 1층,"서울특별시 강서구 강서로56나길 110 (등촌동, 부영아파트)",37.56355787851102,126.8436410634787,민방위대피시설
이대서울병원 지하주차장 1~6층,"서울특별시 강서구 공항대로 260 (마곡동, 이화의대부속서울병원)",37.55759638161387,126.83617593807703,민방위대피시설
서초포레스타 6단지아파트 지하1층 주차장,"서울특별시 서초구 청계산로9길 1-12 (신원동, 서초포레스타6단지)",37.44998070395934,127.05564201548464,민방위대피시설
서초포레스타 5단지아파트 지하1~2층 주차장,"서울특별시 서초구 청계산로7길 43 (신원동, 서초포레스타5단지)",37.45170443310321,127.0571222297717,민방위대피시설
서초포레스타 7단지아파트 지하1~2층 주차장,"서울특별시 서초구 청계산로11길 7-12 (신원동, 서초포레스타7단지)",37.44856551143186,127.0568933173244,민방위대피시설
구산e편한세상2단지아파트 전동 지하 1층,"서울특별시 은평구 서오릉로21길 48 (구산동, e-편한세상2단지아파트)",37.61243639834306,126.90580731773278,민방위대피시설
북한산래미안아파트 전체동의 지하주차장 1층~3층,"서울특별시 은평구 진흥로 267 (불광동, 북한산래미안아파트)",37.611545979138455,126.93858067180524,민방위대피시설
"현대2차아파트 지하주차장 1, 2층","서울특별시 은평구 가좌로 344 (신사동, 현대아파트)",37.59792575761927,126.9071077279956,민방위대피시설
서초더샵포레아파트 지하1~2층 주차장,"서울특별시 서초구 헌릉로8길 58 (내곡동, 서초더샵포레)",37.45230637080679,127.0637404429724,민방위대피시설
신길센트럴아이파크아파트 지하1~2층,"서울특별시 영등포구 가마산로 426(신길동, 신길센트럴아이파크)",37.50412722354283,126.90465152381974,민방위대피시설
센트레빌레우스 1단지(지하주차장 1층~2층),"서울특별시 구로구 경인로 302(개봉동, 센트레빌 레우스 1단지)",37.49617211074485,126.85427794783884,민방위대피시설
삼성아파트 지하주차장 1~2층,"서울특별시 종로구 평창문화로 172 (평창동, 삼성아파트)",37.61092763154165,126.97867298087938,민방위대피시설
창진파크팰리스 지하1층(공사 중 진입 불가),"서울특별시 종로구 평창문화로 87, 창진파크팰리스 지하1층 (평창동)",37.60730355518562,126.97076662606,민방위대피시설
지하철1호선 종각역 대합실 승강장 지하1~2층,"서울특별시 종로구 종로 지하 55 (종로1가, 종각지하철역사)",37.57023255853313,126.98141579184396,민방위대피시설
와이하우스 지하주차장 (지하1~3층),서울특별시 성동구 자동차시장3길 93 (용답동),37.55874306405709,127.06724636927636,민방위대피시설
9호선 삼전역 역사 지하 1~2층,"서울특별시 송파구 백제고분로 지하 189 (잠실동, 삼전역)",37.50469171107899,127.08762914300598,민방위대피시설
한화꿈에그린아파트  지하1~2층 주차장,"서울특별시 노원구 중계로8길 29 (중계동, 한화꿈에그린아파트)",37.64733091343675,127.0833004077786,민방위대피시설
성수문화복지회관 지하1~2층,"서울특별시 성동구 뚝섬로1길 43, 성수문화복지회관 (성수동1가)",37.54541602582352,127.04697267980724,민방위대피시설
서울숲 ITCT 지식산업센터 지하 1~5층,"서울특별시 성동구 성수일로 10, 서울숲 ITCT 지식산업센터 (성수동1가)",37.541298528240624,127.04881170716484,민방위대피시설
FORHU 지하 1~5층,"서울특별시 성동구 왕십리로 58, FORHU (성수동1가)",37.5426630968195,127.04519847596028,민방위대피시설
갈현현대아파트 전동 지하 1층,"서울특별시 은평구 서오릉로21길 36 (구산동, 갈현현대아파트)",37.6129813484233,126.9055380501448,민방위대피시설
마장동현대아파트 지하주차장(지하1~2층),"서울특별시 성동구 살곶이길 50, 지하1~2층 (마장동, 마장동 현대아파트)",37.56945952531619,127.04254794677075,민방위대피시설
행당두산위브(지하1층 주창장),"서울특별시 성동구 행당로8길 8 (행당동, 행당두산위브)",37.55670458022146,127.03152977977916,민방위대피시설
희훈리치파크아파트 지하주차장 1층,"서울특별시 강서구 강서로45다길 30-17 (화곡동, 희훈리치파크아파트)",37.54637971850573,126.83401494813138,민방위대피시설
중계2.3동 주민센터 지하1층,서울특별시 노원구 노원로17길 56 (중계동),37.64211576667791,127.06870797749512,민방위대피시설
북한산현대홈타운아파트 전체동의 지하주차장1~3층,"서울특별시 은평구 불광로2길 7 (불광동, 북한산현대홈타운아파트)",37.61221579476827,126.93274742759854,민방위대피시설
이랜드타운아파트 지하주차장 1층,"서울특별시 은평구 은평터널로 121-6 (신사동, 이랜드타운아파트)",37.590595137106206,126.90387914253073,민방위대피시설
서울숲행당푸르지오(지하1층~지하3층),"서울특별시 성동구 고산자로 177 (행당동, 서울숲행당푸르지오아파트)",37.55520023989774,127.03246797459708,민방위대피시설
행당브라운스톤(지하1층 주차장),"서울특별시 성동구 행당로 99 (행당동, 행당브라운스톤)",37.55854996638039,127.029834750373,민방위대피시설
서울숲한신더휴아파트 지하2층~지하4층,"서울특별시 성동구 고산자로 164 (행당동, 서울숲한신더휴)",37.55512961926496,127.0362538534942,민방위대피시설
도봉중흥S클래스 지하주차장 1층,"서울특별시 도봉구 도봉로180가길 32 (도봉동, 중흥에스 클래스)",37.68478913057097,127.04714977815516,민방위대피시설
성우현대아파트(도봉2동) 지하주차장 1층~2층,"서울특별시 도봉구 마들로 735-8 (도봉동, 현대성우아파트)",37.67626319183244,127.04766376107032,민방위대피시설
창동대동아파트 지하주차장 1층~2층,"서울특별시 도봉구 도봉로 642-30 (창동, 대동아파트)",37.66165581056518,127.044058092277,민방위대피시설
브라운스톤 아파트 지하 1층 주차장,"서울특별시 영등포구 버드나루로12가길 13(영등포동7가, 브라운스톤 영등포아파트)",37.52425586257525,126.911274607167,민방위대피시설
창동신도브래뉴아파트(창5동) 지하주차장 1층~2층,"서울특별시 도봉구 도봉로136나길 40 (창동, 창동신도브래뉴1차아파트)",37.656194867485176,127.04522193442114,민방위대피시설
꿈의숲코오롱하늘채아파트 지하주차장(지하 1층~3층),"서울특별시 성북구 돌곶이로 220 (장위동, 꿈의숲코오롱하늘채아파트)",37.61967146573992,127.0461569415135,민방위대피시설
신안네트빌1단지 지하주차장 1층,"서울특별시 강서구 양천로14길 37 (방화동, 신안네트빌1단지)",37.571058817256905,126.8101746315576,민방위대피시설
도봉산역 광역환승센터 지하주차장 1층~2층,서울특별시 도봉구 도봉산4나길 43 (도봉동),37.68883797812413,127.0444561321223,민방위대피시설
래미안장위포레카운티아파트 지하주차장(지하 1층~2층),"서울특별시 성북구 장월로 160 (장위동, 래미안장위포레카운티)",37.61805582287379,127.05333911257412,민방위대피시설
미미아파트(지하1층),"서울특별시 은평구 갈현로29길 11 (갈현동, 미미아파트)",37.618970218270455,126.91352776657388,민방위대피시설
도봉산리베니움 지하주차장 1층,"서울특별시 도봉구 도봉로181길 74-30 (도봉동, 도봉산 리베니움 아파트)",37.68564196230823,127.04313966880974,민방위대피시설
가인지하보도 지하1층,"서울특별시 도봉구 도봉로136길 61, 가인지하차보도 (창동)",37.66014139187043,127.04420868922148,민방위대피시설
무악청구2차아파트 지하주차장 지하1~2층,"서울특별시 서대문구 통일로 344 (홍제동, 무악청구아파트)",37.58125964553213,126.95150625232073,민방위대피시설
창동지하보도 지하 1층,"서울특별시 도봉구 노해로67길 26, 창동지하보도 (창동)",37.65237061285095,127.0510921455512,민방위대피시설
성원상가 지하1층 체육관,"서울특별시 노원구 마들로3길 37 (월계동, 성원아파트)",37.62941571576897,127.0625137905542,민방위대피시설
은평구민체육센터(지하1~2층),"서울특별시 은평구 진관1로 40 (진관동, 은평구민체육센터)",37.63072458373778,126.9233694142622,민방위대피시설
수락리버시티 4단지 지하주차장 1층,"서울특별시 노원구 누원로 18 (상계동, 수락리버시티4단지)",37.68605183753163,127.0535694211578,민방위대피시설
새절역현대아파트 지하주차장 1층,"서울특별시 은평구 은평터널로 164(신사동, 새절역현대아파트)",37.59350864171004,126.9086140684024,민방위대피시설
녹천지하차도 지하1층,"서울특별시 도봉구 덕릉로 376, 녹천지하차보도 (창동)",37.64563513876111,127.05094215001098,민방위대피시설
은평문화예술회관 지하2층,"서울특별시 은평구 녹번로 16 (녹번동, 은평문화예술회관)",37.603916044875646,126.92836353559022,민방위대피시설
도봉한양수자인아파트 지하주차장 1층~3층,"서울특별시 도봉구 마들로 724 (도봉동, 도봉한양수자인)",37.674550091526,127.04767628356151,민방위대피시설
코리안리재보험빌딩 지하1~3층,"서울특별시 종로구 종로5길 68 (수송동, 코리안리재보험빌딩)",37.57342484422523,126.98044883526858,민방위대피시설
구파발10단지2관리(1001~1010)1009지하1층,"서울특별시 은평구 진관3로 15-35 (진관동, 은평뉴타운구파발)",37.64495551408786,126.9237156183954,민방위대피시설
상림마을8단지APT(810~820동)811동지하1층,"서울특별시 은평구 진관4로 17 (진관동, 은평뉴타운상림마을)",37.64155693287234,126.92275826034736,민방위대피시설
부영빌딩 지하3층,"서울특별시 중구 세종대로9길 42 (서소문동, 부영빌딩)",37.56157071688879,126.97378967507932,민방위대피시설
송학 휴스테이 아파트 지하주차장 1층,"서울특별시 도봉구 도당로15길 36 (방학동, 송학휴스테이)",37.6669963623536,127.03613016588456,민방위대피시설
북한산코오롱하늘채아파트 지하주차장 1층,"서울특별시 도봉구 우이천로 367 (쌍문동, 북한산코오롱하늘채아파트)",37.64824843657251,127.02319562953448,민방위대피시설
원불교 개포교당 지하1층,서울특별시 강남구 논현로 10 (개포동),37.472390150149806,127.05051952017628,민방위대피시설
종로세무서 지하1층,"서울특별시 종로구 삼일대로30길 22 (낙원동, 종로세무서)",37.57386181631175,126.98895573576064,민방위대피시설
DMC월드빌아파트 지하주차장 1층,"서울특별시 은평구 증산로 333 (증산동, 증산동월드빌)",37.586281001093,126.9114851826429,민방위대피시설
쌍용플래티넘시티1단지 지하1~2층,"서울특별시 영등포구 도영로7길 15(도림동, 쌍용플래티넘시티1단지)",37.50943034380385,126.89437101353352,민방위대피시설
데님관광호텔 지하1~4층,"서울특별시 강남구 논현로 66 (개포동, 데님관광호텔)",37.4761898780688,127.0466158149186,민방위대피시설
서울북부지방검찰청 지하주차장 1층,"서울특별시 도봉구 마들로 747 (도봉동, 서울북부지방검찰청)",37.6764172022195,127.04626521428628,민방위대피시설
방학동 ESA2단지 아파트 지하주차장 1층~3층,서울특별시 도봉구 도봉로150길 43 (방학동),37.666467796093976,127.04559996742024,민방위대피시설
군자동 공영주차장 지하1층,서울특별시 광진구 능동로27길 12 (군자동),37.55413071388242,127.07674794943595,민방위대피시설
신동아아파트 지하1층,"서울특별시 노원구 한글비석로52길 66 (상계동, 신동아아파트)",37.66740195479775,127.06751909486483,민방위대피시설
노원문화원 지하1층,서울특별시 노원구 동일로197길 24 (공릉동),37.62886562944978,127.06988103513392,민방위대피시설
낙성대동원아파트 지하1층주차장,"서울특별시 관악구 낙성대역길 19, 지하1층 (봉천동, 동원낙성대아파트)",37.476452697487645,126.96209188977308,민방위대피시설
방학동 ESA1단지 아파트 지하주차장 1층~3층,서울특별시 도봉구 마들로 657 (방학동),37.6686596155082,127.0455149543678,민방위대피시설
방학동 ESA3단지아파트 지하주차장 1층~3층,서울특별시 도봉구 도봉로150길 31 (방학동),37.66655930285563,127.0448821087274,민방위대피시설
지하철3호선 안국역 지하1~3층 대합실 승강장,"서울특별시 종로구 율곡로 지하62, 3호선 안국역 (안국동)",37.57695170880969,126.9845217950932,민방위대피시설
삼성아파트 101~102동 지하주차장 지하1~2층,"서울특별시 은평구 서오릉로 94 (대조동, 삼성타운아파트)",37.60902956354618,126.92172973196732,민방위대피시설
해주드림빌아파트 지하1층,"서울특별시 은평구 응암로 366 (녹번동, 해주드림빌)",37.60380322628081,126.92308192932497,민방위대피시설
서울북부지방법원 지하주차장 1층,"서울특별시 도봉구 마들로 749 (도봉동, 서울북부지방법원)",37.677377158650295,127.04697879348788,민방위대피시설
"홍익아파트 지하주차장 1층, 2층","서울특별시 은평구 가좌로 342 (신사동, 홍익아파트)",37.59750642755655,126.90809717241802,민방위대피시설
보라매갑을아파트 지하1~2층 주차장,"서울특별시 관악구 관천로24길 3-0 (신림동, 보라매갑을아파트)",37.48912201247034,126.92192233813226,민방위대피시설
한솔아파트(지하1층),"서울특별시 은평구 갈현로23길 41 (갈현동, 한솔아파트)",37.61803313512329,126.90993592409612,민방위대피시설
해오름2차아파트(지하1층주차장),"서울특별시 마포구 월드컵로17길 67(망원동, 해오름 아파트)",37.55439060871284,126.9076178745318,민방위대피시설
대주파크빌아파트 지하주차장 1층,"서울특별시 은평구 증산로15길 50 (신사동, 대주파크빌)",37.590691337254896,126.9081182058898,민방위대피시설
길음뉴타운위브7단지아파트 지하주차장(지하1~4층),서울특별시 성북구 길음로13길 22 (길음동),37.60977638733782,127.01882884096686,민방위대피시설
신림동공영주차장 지하1층,"서울특별시 관악구 관천로 98 (신림동, 신림동공영주차장)",37.487362822652734,126.9234859887069,민방위대피시설
동도센트리움아파트 지하주차장 1층~2층,서울특별시 도봉구 마들로 579-19 (창동),37.66166811528275,127.0453436592962,민방위대피시설
"금강아파트 지하1,2층 주차장",서울특별시 양천구 남부순환로64길 23-0 (신월동),37.52693179591799,126.8335111268238,민방위대피시설
양천해누리복지관 신월센터 지하1층,서울특별시 양천구 가로공원로 101 (신월동),37.535922649089706,126.82725006698853,민방위대피시설
양지대림2차아파트 지하1층 주차장,"서울특별시 노원구 덕릉로73길 28 (중계동, 양지대림아파트)",37.65343248331156,127.07231088351833,민방위대피시설
극동문제연구소 통일관 지하2층 주차장,"서울특별시 종로구 북촌로15길 2, 극동문제연구소/통일관 지하2층 (삼청동)",37.58630371569591,126.9834463689094,민방위대피시설
세브란스병원 지하1층~지하3층,"서울특별시 서대문구 연세로 50-1 (신촌동, 연세의료원)",37.56469966079868,126.93949699712424,민방위대피시설
비트플렉스 지하1층,서울특별시 성동구 왕십리광장로 17 (행당동),37.561288989190025,127.03838180360596,민방위대피시설
현재트윈빌아파트(지하1층),"서울특별시 은평구 서오릉로20길 5-10 (갈현동, 현재트윈빌아파트)",37.61669595646789,126.90849665495848,민방위대피시설
우남아파트(지하1층),"서울특별시 은평구 서오릉로 258 (갈현동, 우남아파트)",37.61794620006345,126.90676470106672,민방위대피시설
무악현대아파트 지하1층,"서울특별시 종로구 통일로 246-20, 110동 지하1층 (무악동, 무악현대아파트)",37.57538157007935,126.96080436479528,민방위대피시설
성수동 동양아파트 지하 1층,"서울특별시 성동구 둘레길 21 (성수동1가, 성수동동양아파트)",37.53769128957986,127.04631437762892,민방위대피시설
서울숲현대아이파크(지하1 ~ 2층 주차장),"서울특별시 성동구 동일로 237 (송정동, 서울숲아이파크)",37.552908094446416,127.06920707864316,민방위대피시설
방학동 도깨비시장 지하주차장 1층~2층,"서울특별시 도봉구 방학로10길 51 (방학동, 방학동도깨비시장주차장)",37.66462795488434,127.03388636114492,민방위대피시설
대림1차아파트(지하1층),"서울특별시 성동구 독서당로62길 43 (응봉동, 대림아파트)",37.55193076456839,127.03326445651172,민방위대피시설
방아골종합사회복지관 지하주차장 1~2층,"서울특별시 도봉구 시루봉로17길 42 (방학동, 도봉방아골종합사회복지관)",37.66932065118888,127.03264015938905,민방위대피시설
우장산한화꿈에그린아파트 지하주차장 2~3층,"서울특별시 강서구 우장산로 103 (화곡동, 우장산한화꿈에그린아파트)",37.554007561305255,126.84739247796556,민방위대피시설
동원베네스트아파트 전동 지하1~2층,"서울특별시 서대문구 홍은중앙로1길 65 (홍은동, 동원베네스트아파트)",37.59896275555633,126.94397489958116,민방위대피시설
역삼2문화센터(지하1층),"서울특별시 강남구 도곡로43길 25 (역삼동, 역삼2문화센터)",37.49600494781095,127.04681637551693,민방위대피시설
영등포역지하도 지하1층,"서울특별시 영등포구 경인로 846, 영등포 민자역사 (영등포동)",37.51592322310583,126.907372505246,민방위대피시설
"장안힐스테이트아파트 지하주차장 지하1,2층","서울특별시 동대문구 장안벚꽃로1길 7 (장안동, 장안힐스테이트)",37.57596461474808,127.0753500818514,민방위대피시설
리버그린동아아파트(지하 1층),"서울특별시 성동구 고산자로4길 34 (응봉동, 응봉동리버그린동아아파트)",37.5530659607845,127.0372523004878,민방위대피시설
신안네트빌2단지 201동 지하주차장 1층,"서울특별시 강서구 양천로14길 61 (방화동, 신안2단지아파트)",37.5702404872562,126.80961469111362,민방위대피시설
양평2동 한신아파트 지하주차장(지하 1층~2층),"서울특별시 영등포구 양평로24길 9(양평동5가, 양평동한신아파트)",37.54011454385285,126.89210345784517,민방위대피시설
한강미디어고등학교 지하1층,"서울특별시 영등포구 선유로55길 22, 한강미디어고등학교 (양평동4가)",37.53901821506949,126.8975150172833,민방위대피시설
영등포아트자이아파트 지하1~3층,"서울특별시 영등포구 도영로 66(도림동, 영등포아트자이아파트)",37.51019580402789,126.90027335048454,민방위대피시설
신동아아파트 지하1층,"서울특별시 영등포구 가마산로 312, 3동 (대림동, 신동아아파트)",37.49706106816594,126.89467250675943,민방위대피시설
지하철5호선 서대문역 대합실 승강장,"서울특별시 종로구 통일로 지하126, 서대문역 2층 (평동)",37.56617086516174,126.96688661875564,민방위대피시설
강북삼성병원 지하2층,"서울특별시 종로구 새문안로 29, 강북삼성병원 지하2층 (평동)",37.56826884721792,126.96809772801362,민방위대피시설
삼호종합상가 지하1층 마트,"서울특별시 노원구 마들로 111 (월계동, 월계미륭아파트,월계삼호아파트)",37.624590604585634,127.06541575976958,민방위대피시설
무악현대임대아파트 지하2층,"서울특별시 종로구 통일로 246-11, 113동 지하2층 (무악동, 무악현대아파트)",37.57541205753327,126.95884953015518,민방위대피시설
"신동아파밀리에아파트(103동,104동) 지하3~지하2층","서울특별시 성북구 화랑로 210-26 (석관동, 석관동 신동아 파밀리에)",37.60752579565435,127.0535626379932,민방위대피시설
DMC래미안클라시스 제2주차장 지하1~4층,"서울특별시 서대문구 증가로 191 (남가좌동, DMC래미안클라시스)",37.57793381851405,126.91656212172872,민방위대피시설
초안산신도브래뉴아파트(창3동) 지하주차장 1층,"서울특별시 도봉구 우이천로4라길 11-14 (창동, 초안산신도브래뉴)",37.63343295763959,127.0425554014407,민방위대피시설
한승미메이드아파트 지하주차장 1층,"서울특별시 도봉구 덕릉로60길 164-13 (창동, 창동한승미메이드아파트)",37.632939879378405,127.04282381902804,민방위대피시설
화곡판타지아 지하주차장 2~3층,"서울특별시 강서구 강서로 52 (화곡동, 화곡판타지아)",37.53248515420037,126.84669421995316,민방위대피시설
신풍두산위브센티움(지하 1~3층),"서울특별시 영등포구 대방천로 155(신길동, 신풍두산위브센티움)",37.49961164604159,126.90822691250722,민방위대피시설
신길1동 신길자이아파트 지하주차장 지하1층 ~ 지하2층,"서울특별시 영등포구 가마산로79길 19(신길동, 신길자이)",37.50645318167043,126.9165868871349,민방위대피시설
삼성래미안 프레비뉴 아파트 지하1~2층,"서울특별시 영등포구 가마산로 442(신길동, 래미안프레비뉴)",37.50492036789684,126.90816634474731,민방위대피시설
성동구청 지하1층~지하2층,"서울특별시 성동구 고산자로 270 (행당동, 성동구청)",37.56321570130859,127.03674628618651,민방위대피시설
무학빌딩 지하1층~지하2층,"서울특별시 성동구 고산자로 202, 무학빌딩 (행당동)",37.55822007758005,127.03446107133703,민방위대피시설
서울교통공사(인재개발원) 지하주차장 (지하1층),"서울특별시 성동구 천호대로78길 15-48 (용답동, 서울시투자기관교육복지센터)",37.56156199791736,127.05663539771164,민방위대피시설
강변청구아파트(지하2층),"서울특별시 성동구 둘레15길 7(성수동2가, 청구강변아파트)",37.53533251209438,127.05485855684124,민방위대피시설
우장산롯데아파트 지하주차장 1층,"서울특별시 강서구 우장산로 92 (화곡동, 우장산롯데아파트)",37.55246085870102,126.84648715439936,민방위대피시설
창신성결교회 지하1층,"서울특별시 종로구 창신5길 22 (창신동, 창신성결교회)",37.573699252313766,127.0121379419894,민방위대피시설
서울숲푸르지오1차 지하1~3층 주차장,"서울특별시 성동구 금호로 15, 지하1~3층 (금호동4가, 서울숲푸르지오아파트)",37.54475588643664,127.02245667620193,민방위대피시설
서울숲삼부아파트 지하1층,"서울특별시 성동구 왕십리로 280(행당동, 서울숲삼부아파트)",37.559999043010606,127.03744803413912,민방위대피시설
YM프라젠아파트 지하주차장 (지하1층),"서울특별시 성동구 자동차시장1길 14 (용답동, 와이엠프라젠아파트)",37.56131981779849,127.05867640808276,민방위대피시설
지하철1호선 동대문역 대합실 승강장,"서울특별시 종로구 종로 지하 302 (창신동, 1호선 동대문역)",37.57176702464936,127.01125721152314,민방위대피시설
대우파크힐아파트 지하주차장 1층,"서울특별시 도봉구 시루봉로 8 (쌍문동, 대우파크힐아파트)",37.65158375935884,127.0291838342545,민방위대피시설
도봉파크빌3단지아파트 지하주차장 1층~2층,"서울특별시 도봉구 마들로 895 (도봉동, 도봉파크빌3단지아파트)",37.68763310172796,127.0486580077678,민방위대피시설
북한산아이파크아파트 지하주차장 1층~2층,"서울특별시 도봉구 도봉로136길 28 (창동, 북한산 아이파크)",37.65790974184686,127.0436336188988,민방위대피시설
금호벽산아파트(지하1층~지하2층 주차장),"서울특별시 성동구 금호로 100 (금호동1가, 벽산아파트)",37.55185693075095,127.0271160063022,민방위대피시설
금호삼성래미안아파트(지하1층 주차장),"서울특별시 성동구 독서당로 343 (금호동1가, 금호삼성래미안아파트)",37.54910048621026,127.02736467614928,민방위대피시설
NC백화점 지하1~8층,"서울특별시 은평구 불광로 20, NC백화점 (대조동)",37.60972139183688,126.92900366369416,민방위대피시설
서울남부고용노동지청(지하주차장 1층),"서울특별시 영등포구 선유로 120 (양평동1가, 노동부 남부지청)",37.52456982215999,126.89130511544067,민방위대피시설
래미안에스티움 지하1층,"서울특별시 영등포구 신풍로 77(신길동, 래미안에스티움)",37.5009076003841,126.91356283815558,민방위대피시설
교보생명빌딩 지하2~3층,"서울특별시 종로구 종로 1 (종로1가, 교보생명빌딩)",37.57058241972444,126.97807978623544,민방위대피시설
우리들병원(지하1층~2층 주차장)-수유3동,"서울특별시 강북구 한천로 1083 (수유동, 광산타워)",37.64255353248662,127.02266362535264,민방위대피시설
한성아파트 지하1층,"서울특별시 영등포구 가마산로 575(신길동, 한성아파트)",37.50467618449501,126.9193264531744,민방위대피시설
서초트라팰리스 지하1~3층 주차장,"서울특별시 서초구 효령로72길 57 (서초동, 서초트라팰리스)",37.48682253282664,127.02838224959424,민방위대피시설
양평2동 거성아파트 지하1~2층,"서울특별시 영등포구 선유로43가길 24(양평동3가, 거성파스텔아파트)",37.53149857360306,126.89187881011144,민방위대피시설
문영칸타빌레아파트 지하1~2층 주차장,"서울특별시 영등포구 도림천로 391(대림동, 대림동문영칸타빌레아파트)",37.48976494621255,126.89710896068294,민방위대피시설
포레나신길아파트(지하 1층),"서울특별시 영등포구 신길로 119 (신길동, 포레나 신길)",37.50296343505899,126.909607765004,민방위대피시설
삼정아파트 지하주차장 2~3층,"서울특별시 강서구 방화동로 126 (방화동, 삼정아파트)",37.571975066367415,126.81192430506982,민방위대피시설
현대건설기술교육원 지하1층,서울특별시 영등포구 도림천로19길 12-2(대림동),37.48715008667819,126.90106142690412,민방위대피시설
6호선약수역지하철승강장,"서울특별시 중구 다산로 지하 115 (신당동, 약수역 6호선)",37.55476349048296,127.01049584464272,민방위대피시설
우성1차아파트 지하1층,"서울특별시 영등포구 도신로 68(신길동, 신길우성아파트)",37.50532767295696,126.90041673372068,민방위대피시설
정목초등학교 지하1~3층 주차장,"서울특별시 양천구 목동중앙로3길 30-10 (목동, 서울정목초등학교)",37.53731676335414,126.87049237724976,민방위대피시설
삼성 래미안아파트(도봉2동) 지하주차장 1층~2층,"서울특별시 도봉구 도봉로170길 40 (도봉동, 래미안도봉아파트)",37.67962343181487,127.0465230075623,민방위대피시설
도봉파크빌2단지아파트 지하주차장 1층~2층,"서울특별시 도봉구 마들로 835 (도봉동, 도봉파크빌2단지)",37.68437142258798,127.05072082073626,민방위대피시설
창신2동 동대문맨션 지하1층,"서울특별시 종로구 창신길 20 (창신동, 동대문맨션)",37.572400741217685,127.01101987942702,민방위대피시설
탑건진선미아파트 지하주차장 1층,"서울특별시 강서구 초록마을로 166 (화곡동, 탑건진선미아파트)",37.53624446617125,126.84614091114476,민방위대피시설
우리은행창신동지점 지하1층,"서울특별시 종로구 종로 311 (창신동, (주)우리은행창신동지점)",37.572309047512206,127.01224598131505,민방위대피시설
불광역 6호선 지하1~4층,"서울특별시 은평구 통일로 지하723-1, 3,6호선 불광역사무소 (대조동)",37.61034545366253,126.92990730752943,민방위대피시설
서울응봉초등학교 (지하1층),"서울특별시 성동구 독서당로62길 28 (응봉동, 응봉초등학교)",37.55091704502629,127.0340498117684,민방위대피시설
도렴빌딩 지하1~2층,"서울특별시 종로구 새문안로5길 37, 도렴빌딩 지하1~2층 (도렴동)",37.573604944586,126.97419324231876,민방위대피시설
미도파광화문빌딩 지하2층,"서울특별시 종로구 세종대로23길 47, 지하1층 (당주동)",37.57136593698089,126.97370442426212,민방위대피시설
로얄빌딩 지하2층,"서울특별시 종로구 새문안로5길 19, 로얄빌딩 지하1층 (당주동)",37.571988361499685,126.9743279738754,민방위대피시설
텐즈힐1단지 지하주차장 1~3층,"서울특별시 성동구 무학로 33 (하왕십리동, 텐즈힐)",37.56856566484742,127.0279660822871,민방위대피시설
영등포역 지하쇼핑센터 지하 1층,"서울특별시 영등포구 경인로 지하843, 영등포역지하도상가 (영등포동3가)",37.5167846656951,126.90725772912973,민방위대피시설
천호3동 공영주차장(지하1~3층),"서울특별시 강동구 진황도로29길 34 (천호동, 천호동공영주차장)",37.53891767018447,127.13324316607788,민방위대피시설
태창네스트힐아파트 지하주차장 1층,"서울특별시 강서구 초록마을로 121 (화곡동, 태창네스트힐아파트)",37.53769193155719,126.85099184222604,민방위대피시설
세종빌딩 지하1층,"서울특별시 종로구 세종대로23길 54, 세종빌딩, 세종아파트 지하1층 (당주동)",37.57186417876331,126.97331520729593,민방위대피시설
시티빌딩 지하1층,"서울특별시 종로구 새문안로 50, 한국씨티은행 본점 지하1층 (신문로2가)",37.56888939165568,126.97075383304092,민방위대피시설
금호아파트 지하1층~지하2층,"서울특별시 은평구 응암로 318 (응암동, 응암동금호아파트)",37.599214396043685,126.92223295492074,민방위대피시설
이마빌딩 지하2~3층,"서울특별시 종로구 종로1길 42 (수송동, 이마빌딩)",37.5739093790531,126.97901801596248,민방위대피시설
신길종합사회복지관 지하주차장 지하1층 ~지하2층,"서울특별시 영등포구 영등포로84길 24-5, 신길종합사회복지관 (신길동)",37.51115951771548,126.92145650965352,민방위대피시설
금호어울림아파트 주차장(102동 지하2층)-번2동,서울특별시 강북구 오현로31길 85-7 (번동),37.63060597903172,127.03541599766068,민방위대피시설
대림동1차한신아파트 지하1층,"서울특별시 영등포구 디지털로69길 13(대림동, 대림동1차한신아파트)",37.49447724976696,126.90350068816186,민방위대피시설
대림동현대아파트 지하1층,"서울특별시 영등포구 시흥대로187길 12(대림동, 대림동현대아파트)",37.4930263512518,126.90817598785978,민방위대피시설
삼환아파트 지하1층,"서울특별시 영등포구 여의대방로43나길 25(신길동, 삼환아파트)",37.506709254683855,126.91924544105689,민방위대피시설
대방지하차도 지하1층,"서울특별시 영등포구 영등포로 423, 신양치안센터 (신길동)",37.512864646377885,126.92525342348203,민방위대피시설
여의도국회앞지하보도 지하1층,"서울특별시 영등포구 의사당대로 38, 여의도더샵아일랜드파크 (여의도동)",37.52570465924969,126.91874166829275,민방위대피시설
현대2차아파트 지하1층,"서울특별시 영등포구 도신로4길 6(대림동, 현대2차아파트)",37.50276634787862,126.8946153982068,민방위대피시설
대림1동어린이집 지하1층,"서울특별시 영등포구 디지털로 441, 대림제1동사무소/대림1동복지관 (대림동)",37.49545587666544,126.90597928192108,민방위대피시설
종로2가 지하상가 지하1층,"서울특별시 종로구 종로 지하 73 (종로1가, 종각지하철역사)",37.57025675282013,126.98514359597188,민방위대피시설
명남더블레스 지하1층,"서울특별시 은평구 은평로 182-8 (응암동, 명남더블레스아파트)",37.60103624906429,126.92767465127228,민방위대피시설
63한화생명빌딩 지하3층,"서울특별시 영등포구 63로 50, 63한화생명빌딩 지하1층 (여의도동)",37.51983362704,126.940072221585,민방위대피시설
강서구의회 지하주차장 2층,서울특별시 강서구 등촌로 185 (등촌동),37.54650805140777,126.86228272480086,민방위대피시설
석탄회관빌딩 지하2~3층,"서울특별시 종로구 종로5길 58 (수송동, 석탄회관빌딩)",37.57292970765771,126.9804667851378,민방위대피시설
대림아파트 지하주차장 1~2층,"서울특별시 강서구 등촌로 137 (등촌동, 대림아파트)",37.542136331814056,126.8626276385648,민방위대피시설
영등포제1스포츠센터(지하 1층),"서울특별시 영등포구 신풍로 1, 영등포제1스포츠센터 (신길동)",37.500592334842494,126.90651969347611,민방위대피시설
연신중학교 공영주차장 지하2층,"서울특별시 은평구 연서로33길 16-32 (불광동, 연신중학교)",37.62331411018393,126.92508432447278,민방위대피시설
지하철7호선신풍역,"서울특별시 영등포구 신풍로 지하27, 신풍역 (신길동)",37.50030990172099,126.90940103456371,민방위대피시설
북한산월드메르디앙 아파트 지하주차장 1층,"서울특별시 도봉구 삼양로 566 (쌍문동, 북한산월드메르디앙)",37.65379215666948,127.01359426325844,민방위대피시설
숭인상가아파트 지하1층,"서울특별시 종로구 청계천로 391, 지하1층 (숭인동, 숭인상가아파트)",37.57213119588749,127.0205678581478,민방위대피시설
명수대한양아파트 지하주차장 1층,"서울특별시 동작구 현충로10길 42 (흑석동, 명수대 한양아파트(흑석동))",37.50489307537753,126.96655916514686,민방위대피시설
한솔솔파크아파트 지하 1층 주차장,"서울특별시 영등포구 도림천로 431(대림동, 新 대림 한솔 솔파크)",37.48735031801767,126.8995022300078,민방위대피시설
대림역 7호선 지하1층,"서울특별시 영등포구 도림로 지하137, 대림역 (대림동)",37.492850022179645,126.8967958264048,민방위대피시설
건영아파트 지하1층,"서울특별시 영등포구 도림로 313(신길동, 건영아파트)",37.50574372893091,126.90128862430224,민방위대피시설
안말어린이공원 공영주차장(지하1~3층),"서울특별시 강동구 풍성로45길 11 (성내동, 안말어린이공원 공영주차장)",37.531506520274526,127.12994722034806,민방위대피시설
강서센트레빌4차아파트 지하주차장 1층,"서울특별시 강서구 남부순환로 11 (공항동, 강서센트레빌4차)",37.56059225684061,126.80812347978512,민방위대피시설
신방화역 지하 1층,"서울특별시 강서구 방화대로 지하 301 (방화동, 신방화역)",37.56735181936253,126.81638231526568,민방위대피시설
KT행당빌딩 지하1층,"서울특별시 성동구 고산자로 212 (행당동, 행당전화국)",37.55897591207059,127.03442788302036,민방위대피시설
"대림2차아파트 (관리사무소, 지하 1층)","서울특별시 성동구 독서당로 431 (응봉동, 대림2차아파트)",37.55289401391144,127.0325196596542,민방위대피시설
현대아파트(지하 1층),"서울특별시 성동구 독서당로 377 (응봉동, 금호현대아파트)",37.551046905527336,127.03095398916926,민방위대피시설
신동아아파트(지하 1층),"서울특별시 성동구 독서당로 375 (응봉동, 신동아아파트)",37.550252095371526,127.0295014118252,민방위대피시설
대림강변타운아파트(지하 1층),"서울특별시 성동구 고산자로 160 (응봉동, 대림강변타운)",37.5534299121042,127.03574114066356,민방위대피시설
용답초등학교 지하1층,"서울특별시 성동구 용답25길 1 (용답동, 용답초등학교)",37.56082939435593,127.053554827141,민방위대피시설
방학동 동부센트레빌아파트 지하주차장 1층~2층,"서울특별시 도봉구 방학로 120 (방학동, 방학동부센트레빌)",37.66329238128961,127.03953221561338,민방위대피시설
금광포란재아파트 지하주차장 1층~2층,서울특별시 도봉구 도봉로150바길 26 (방학동),37.664659336615976,127.04507135249516,민방위대피시설
쌍문e편한세상 아파트 지하주차장 1층,"서울특별시 도봉구 노해로41가길 16 (쌍문동, 쌍문e-편한세상)",37.64979012564159,127.02726299613364,민방위대피시설
강변건영아파트 지하 1층,"서울특별시 성동구 왕십리로 36 (성수동1가, 강변건영아파트)",37.54036783674634,127.04510473755404,민방위대피시설
서울숲대림아파트 지하 1층,"서울특별시 성동구 뚝섬로 311(성수동1가, 서울숲 대림)",37.54205895993799,127.04532055663374,민방위대피시설
"리센츠아파트 전체 동의 지하주차장 지하 1,2층","서울특별시 송파구 올림픽로 135 (잠실동, 리센츠)",37.51405918455855,127.08845421905616,민방위대피시설
지하철5호선여의나루역,"서울특별시 영등포구 여의동로 지하343, 여의나루역 지하1층 (여의도동)",37.528172567107184,126.93251078104056,민방위대피시설
극동아파트(지하주차장 1층~2층),"서울특별시 중랑구 동일로 941 (묵동, 극동늘푸른아파트)",37.61461443365996,127.0761290962848,민방위대피시설
문래힐스테이트 지하1층 주차장,"서울특별시 영등포구 문래로 82(문래동3가, 문래힐스테이트)",37.51835970214246,126.8908636753863,민방위대피시설
"회기힐스테이트아파트지하주차장 1층, 104동앞","서울특별시 동대문구 회기로26길 15 (회기동, 회기힐스테이트)",37.59004606030593,127.05366104970923,민방위대피시설
영등포뉴타운지하쇼핑몰 지하 1층,"서울특별시 영등포구 영중로 지하40, 영등포뉴타운지하쇼핑몰 (영등포동3가)",37.519097240453824,126.90593577537024,민방위대피시설
양지대림1차아파트 지하1층 주차장,"서울특별시 노원구 덕릉로71길 30 (중계동, 양지대림아파트)",37.65118443174879,127.07052360297698,민방위대피시설
신길역 1호선 환승통로(지하1층),"서울특별시 영등포구 영등포로 327, 신길역 (신길동)",37.51631841551963,126.91701975676663,민방위대피시설
대성유니드아파트(지하 1층),"서울특별시 영등포구 가마산로50길 27(신길동, 신길동 대성 유니드 아파트)",37.50174269548355,126.90305076376488,민방위대피시설
소월아트홀 지하1층,"서울특별시 성동구 왕십리로 281, 소월아트홀 (행당동)",37.55936462804514,127.03612199679496,민방위대피시설
신대림자이아파트 지하1~3층 주차장,"서울특별시 영등포구 시흥대로173길 13(대림동, 신대림자이)",37.48654984006839,126.90243489194596,민방위대피시설
현대3차아파트 지하1층 주차장,"서울특별시 영등포구 선유서로 6(문래동5가, 현대3차아파트)",37.51610583282225,126.88444020035185,민방위대피시설
신길1동 경남아파트 지하주차장 지하1층~지하2층,"서울특별시 영등포구 영등포로 351 (신길동, 신길동경남아파트)",37.51569440274722,126.91848963994303,민방위대피시설
쌍문브라운스톤아파트 지하주차장 1층,"서울특별시 도봉구 노해로40길 71-0 (쌍문동, 브라운스톤쌍문)",37.64731748254701,127.02920013385273,민방위대피시설
포이초등학교 공영주차장 지하1층,"서울특별시 강남구 개포로22길 87 (개포동, 포이초등학교)",37.475599954215184,127.05232364615595,민방위대피시설
양평동우림이비지센터(지하주차장 1층),"서울특별시 영등포구 양산로 43, 양평동우림 이 비지센타 (양평동3가)",37.52578946883492,126.88795766879704,민방위대피시설
보라매코오롱하늘채아파트 지하주차장,"서울특별시 동작구 여의대방로24다길 40 (대방동, 보라매코오롱하늘채아파트)",37.49853129253727,126.92312030782324,민방위대피시설
서울교통공사 본사 지하주차장 (지하1~3층),서울특별시 성동구 천호대로 346 (용답동),37.562594614020725,127.05723873957372,민방위대피시설
지하철2호선문래역,"서울특별시 영등포구 당산로 지하28, 문래역 (문래동3가)",37.518271174256,126.89458018807676,민방위대피시설
북한산대창센시티아파트 102동 지하주차장 1층~2층,"서울특별시 은평구 불광로 208 (불광동, 북한산대창센시티)",37.625393176918216,126.9294255001587,민방위대피시설
엔지니어링공제빌딩 지하1~4층,"서울특별시 강남구 테헤란로 335, 엔지니어링공제빌딩 (역삼동)",37.504653155429935,127.04829178654668,민방위대피시설
성원(창4동) 아파트 지하주차장 1층~2층,서울특별시 도봉구 마들로16길 56,37.66080417310175,127.04977746751044,민방위대피시설
금호동대우아파트 지하 1~2층 주차장,"서울특별시 성동구 독서당로 272, 지하1~2층 (금호동4가, 금호동 대우아파트)",37.54597274913695,127.01968327075193,민방위대피시설
럭키아파트 지하주차장 1층,"서울특별시 도봉구 도봉로169길 31 (도봉동, 럭키아파트)",37.67922813308713,127.0444165385962,민방위대피시설
중앙하이츠아파트단지 지하주차장 (지하1층),"서울특별시 성동구 용답중앙27길 8 (용답동, 중앙하이츠아파트)",37.56315561606484,127.05542526426736,민방위대피시설
동양크레오 아파트 지하주차장 1층~2층,"서울특별시 도봉구 시루봉로 166 (방학동, 동양크레오아파트)",37.664436053445,127.03027701486845,민방위대피시설
여선교회전국연합회관(지하1~2층),서울특별시 용산구 독서당로 98 (한남동),37.53510302287783,127.01141558524228,민방위대피시설
송파여성문화회관 지하주차장 1~2층,"서울특별시 송파구 백제고분로42길 5 (송파동, 송파여성문화회관)",37.50589818681105,127.10977967777144,민방위대피시설
도봉구청 지하주차장 1층~2층,서울특별시 도봉구 마들로 656 (방학동),37.66870588486015,127.04709989678383,민방위대피시설
한솔솔파크 더리버 아파트(지하 1층 주차장),"서울특별시 강동구 선사로 120 (암사동, 한솔 솔파크 더 리버)",37.5496335585505,127.12356908753412,민방위대피시설
강변현대아파트(지하1~2층),"서울특별시 성동구 둘레11길 1 (성수동2가, 강변현대아파트)",37.53641370828225,127.0509936748938,민방위대피시설
현대2차 아파트(창4동) 지하주차장 1층~2층,서울특별시 도봉구 도봉로136길 111 (창동),37.66103367207404,127.04608928629344,민방위대피시설
사평역 지하1~3층,"서울특별시 서초구 사평대로 지하 285 (반포동, 사평역)",37.50440444304865,127.01381369059864,민방위대피시설
현대3차 아파트(창4동) 지하주차장 1층~2층,"서울특별시 도봉구 도봉로136길 111 (창동, 창동2,3차현대아파트)",37.66013195572778,127.04608291834566,민방위대피시설
현대4차 아파트(창4동) 지하주차장 1층~2층,서울특별시 도봉구 노해로69가길 54,37.65895609827243,127.04630016497134,민방위대피시설
역삼1문화센터 지하 1~2층,"서울특별시 강남구 역삼로7길 16 (역삼동, 역삼1문화센터)",37.49535487161785,127.03324953009796,민방위대피시설
DMC쌍용스윗닷홈아파트 지하주차장 지하1층,"서울특별시 서대문구 거북골로 91-6 (남가좌동, DMC쌍용스윗닷홈)",37.575352780301806,126.91908313549852,민방위대피시설
동아에코빌아파트 지하주차장 1층~2층,"서울특별시 도봉구 도봉로180길 6-25 (도봉동, 동아에코빌아파트)",37.681516321445606,127.04689943008832,민방위대피시설
오동공원 현대홈타운 아파트(지하2층)-번2동,서울특별시 강북구 오현로31길 89 (번동),37.63150606650687,127.0355288292496,민방위대피시설
프린스빌딩 지하1층,서울특별시 관악구 난우길 2 (신림동),37.4732261641357,126.91917394893912,민방위대피시설
이수아파트 지하주차장 1층~2층,"서울특별시 도봉구 도봉로146길 36 (방학동, 브라운스톤방학아파트)",37.663851147715455,127.04502307466004,민방위대피시설
증미역 지하1~3층,"서울특별시 강서구 양천로 지하 560 (등촌동, 증미역 9호선)",37.557545938206864,126.86158198782628,민방위대피시설
금호브라운스톤아파트1차 지하1~3층,"서울특별시 성동구 매봉길 24, 지하1~3층 (금호동4가, 브라운스톤금호)",37.54674393014968,127.01565983329486,민방위대피시설
금호동롯데아파트 지하1~2층 주차장,"서울특별시 성동구 동호로 84, 지하1~2층 (금호동4가, 롯데아파트)",37.54706289456907,127.01736597781748,민방위대피시설
현대2차아파트 지하1층 주차장,"서울특별시 영등포구 문래로4길 4, 현대아파트 (문래동6가)",37.52044219780028,126.88286080482683,민방위대피시설
지하철7호선보라매역,"서울특별시 동작구 상도로 지하2, 7호선 보라매역 (대방동)",37.499568831038864,126.92057229174236,민방위대피시설
학여울역 (지하1~5층),"서울특별시 강남구 남부순환로 지하 3104 (대치동, 학여울역)",37.496733734494725,127.0718401262323,민방위대피시설
래미안대치하이스턴 모든 동 지하 (지하1층),"서울특별시 강남구 도곡로93길 12 (대치동, 래미안 대치 하이스턴)",37.501045222583606,127.06548704512146,민방위대피시설
반도유보라팰리스아파트 지하1~2층 주차장,"서울특별시 영등포구 국회대로 597(당산동4가, 당산동 반도유보라팰리스)",37.5273135397179,126.9012856681732,민방위대피시설
대치2주민센터 (지하1~2층),"서울특별시 강남구 영동대로65길 24 (대치동, 대치2동주민센터)",37.50225696285025,127.06416727079716,민방위대피시설
두산아파트 지하1층,"서울특별시 성동구 동호로 100 (금호동3가, 두산아파트)",37.54996305439417,127.01643891949536,민방위대피시설
금호초등학교 지하1층,"서울특별시 성동구 무수막길 69 (금호동2가, 금호초등학교)",37.552545112278686,127.02009622895652,민방위대피시설
군자메가박스 지하주차장 지하1층,서울특별시 광진구 능동로 289 (군자동),37.55578986588277,127.07833818056493,민방위대피시설
옥수삼성아파트 지하1~2층,"서울특별시 성동구 독서당로 218(옥수동, 옥수삼성아파트)",37.542362163038135,127.01403785107205,민방위대피시설
천주교난곡성당 지하1층,서울특별시 관악구 난곡로26길 43 (신림동),37.47039013402913,126.92215056446562,민방위대피시설
반포자이아파트 지하1층 주차장,"서울특별시 서초구 신반포로 270 (반포동, 반포자이아파트)",37.50661407815264,127.0140154862438,민방위대피시설
대우이안아파트(지하주차장 1층),"서울특별시 영등포구 선유로33길 18(양평동3가, 양평동 대우이안2)",37.52702874562057,126.88937324405488,민방위대피시설
보라매 경남아너스빌 아파트 지하 1~2층 주차장,"서울특별시 영등포구 여의대방로 25(신길동, 보라매 경남아너스빌)",37.49495991401448,126.91012847607014,민방위대피시설
해성빌딩 지하1층,서울특별시 관악구 난곡로 180 (신림동),37.471149928948776,126.9201057646498,민방위대피시설
관악드림타운임대(아) 지하주차장16 (지하1~4층),"서울특별시 관악구 구암길 106 (봉천동, 관악드림타운아파트)",37.49165038727472,126.94815574672648,민방위대피시설
신동아하이팰리스(지하주차장 1층),"서울특별시 영등포구 선유서로 67, 신동아하이팰리스 (양평동2가)",37.521885072350905,126.88466373746196,민방위대피시설
현대3차아파트 지하1층,"서울특별시 영등포구 도신로 31(대림동, 현대3차아파트)",37.50553264356553,126.89561335771344,민방위대피시설
9호선국회의사당역,"서울특별시 영등포구 국회대로 지하758, 국회의사당역 지하1층 (여의도동)",37.52739098273105,126.9185592047804,민방위대피시설
코오롱아파트 지하1층,"서울특별시 영등포구 도영로 2-5(대림동, 대림동코오롱아파트)",37.50696451013005,126.89491382457976,민방위대피시설
글라스타워 (지하2~7층),"서울특별시 강남구 테헤란로 534 (대치동, 글라스타워빌딩)",37.50825029367828,127.06239166785072,민방위대피시설
대림쇼핑아파트(수유주상복합) 지하2층 주차장(수유1동),"서울특별시 강북구 도봉로71가길 11 (수유동, 수유대림쇼핑아파트)",37.631920857271695,127.02222269117956,민방위대피시설
삼성래미안4차아파트 지하주차장 지하1층~지하2층,"서울특별시 영등포구 당산로 214(당산동5가, 당산 삼성 래미안)",37.53195638112159,126.90306481928252,민방위대피시설
봉천벽산타워2차(아) 지하 1~2층 주차장,서울특별시 관악구 구암5가길 49 (봉천동),37.49251143444441,126.94604063514076,민방위대피시설
김포공항역 9호선 지하 1~4층,"서울특별시 강서구 하늘길 지하 77 (방화동, 김포공항역)",37.56505959423036,126.80299177996903,민방위대피시설
한국해운조합 지하 1~2층,"서울특별시 강서구 공항대로 379 (등촌동, 한국해운조합)",37.55711334568903,126.84989130675136,민방위대피시설
공항시장역 지하1~4층,"서울특별시 강서구 방화동로 지하30, 공항시장역(9호선) (공항동)",37.56360563634755,126.81058547254042,민방위대피시설
삼양동 경남아너스빌아파트 주차장(지하2층),서울특별시 강북구 삼양로74길 8 (미아동),37.6288953114202,127.01868458852007,민방위대피시설
중소기업중앙회 지하2~3층,"서울특별시 영등포구 은행로 30, 중소기업중앙회 지하1층 (여의도동)",37.52818923802215,126.92272277420436,민방위대피시설
"성원아파트 지하1,2층 주차장","서울특별시 노원구 노원로34길 34 (상계동, 성원아파트)",37.66036945822107,127.06585194643938,민방위대피시설
미원아파트 지하1층 주차장,"서울특별시 영등포구 문래로8길 5(문래동6가, 문래동미원아파트)",37.51988545832344,126.8864019198937,민방위대피시설
동아에코빌 지하1~2층,"서울특별시 영등포구 도림로 365(도림동, 동아에코빌)",37.50916966600728,126.89873313030296,민방위대피시설
삼양동벽산아파트 107동 P4 주차장(지하2~3층),"서울특별시 강북구 솔샘로 159, 지하2~지하3층 (미아동, 벽산라이브파크)",37.62114963658146,127.01082702938577,민방위대피시설
은빛1단지아파트 지하주차장 1층,"서울특별시 노원구 동일로245길 162 (상계동, 은빛1단지아파트)",37.681517083894015,127.05384445068646,민방위대피시설
삼성아파트 지하 1~2층 주차장,"서울특별시 노원구 중계로14나길 25 (중계동, 삼성아파트)",37.64895300493933,127.08331308478,민방위대피시설
피카디리플러스 지하5~7층,"서울특별시 종로구 돈화문로5가길 1 (돈의동, 피카디리플러스)",37.57103629607835,126.99122894854688,민방위대피시설
현대1차아파트 지하1층,"서울특별시 영등포구 도신로4길 14(대림동, 현대아파트)",37.50214188165904,126.89489845678584,민방위대피시설
두산위브아파트 지하1층 주차장,"서울특별시 영등포구 신길로60나길 9(영등포동, 두산위브)",37.51485540207186,126.91272651321368,민방위대피시설
영등포푸르지오아파트 지하1층 주차장,"서울특별시 영등포구 도신로29길 28(영등포동, 영등포푸르지오)",37.51153350885459,126.90238985679888,민방위대피시설
한라아파트 지하1~2층,"서울특별시 영등포구 도신로15라길 5-7(도림동, 한라아파트)",37.50754754347897,126.89749680284524,민방위대피시설
동원빌딩 (지하2층),"서울특별시 강남구 영동대로 333 (대치동, 동원빌딩)",37.50411745464233,127.06486109942688,민방위대피시설
화곡4동주민센터 지하주차장 1~2층,"서울특별시 강서구 곰달래로57가길 26 (화곡동, 시립청소년수련관및화곡4동주민자치센터)",37.53456157632174,126.86079106882929,민방위대피시설
방신서광아파트 101동 지하주차장 1층,"서울특별시 강서구 양천로14길 17, 101동 (방화동, 방신서광아파트)",37.57202155516306,126.81068028395208,민방위대피시설
코오롱1차아파트 지하주차장 1~2층,"서울특별시 강서구 화곡로66길 90 (등촌동, 등촌동코오롱아파트)",37.5559780867957,126.85828197294605,민방위대피시설
세종대학교 대양AI센터 지하주차장 지하3~5층,"서울특별시 광진구 능동로 209 (군자동, 세종대학교)",37.55073492986105,127.0741311858804,민방위대피시설
서울아이티고등학교 지하1층,"서울특별시 노원구 섬밭로 299-0 (중계동, 서울아이티고등학교)",37.64211561204165,127.06194588324698,민방위대피시설
중계역 지하1층,"서울특별시 노원구 동일로 지하 1308-1 (중계동, 중계역)",37.642698304183575,127.06518183925463,민방위대피시설
상명고등학교 지하1층,"서울특별시 노원구 덕릉로 553 (중계동, 민정학원)",37.64924581185009,127.0683086578421,민방위대피시설
상명초등학교 지하1층,"서울특별시 노원구 덕릉로 541, 상명초등학교 (중계동)",37.64848157329308,127.06754022984808,민방위대피시설
2001아울렛 지하1층,"서울특별시 노원구 동일로204가길 46, 2001아울렛 (중계동)",37.641304308466914,127.0679874945906,민방위대피시설
광안빌딩 지하1~4층,"서울특별시 관악구 시흥대로 578 (신림동, 광안프라자)",37.48426278455352,126.90328827162564,민방위대피시설
목화아파트 상가 지하1층,"서울특별시 노원구 노원로19길 31 (중계동, 목화아파트)",37.643454178387536,127.0696566001843,민방위대피시설
주공1단지상가 지하1~2층,"서울특별시 노원구 월계로49길 5 (월계동, 월계1단지주공아파트)",37.62920356088507,127.0559849717253,민방위대피시설
삼익주상복합아파트 지하주차장 1~3층,"서울특별시 동작구 만양로 84 (노량진동, 삼익주상복합아파트)",37.510928558065366,126.94513237262008,민방위대피시설
홍제한화아파트 전체 동의 지하주차장 1층,"서울특별시 서대문구 통일로 357 (홍제동, 무악재한화아파트)",37.582161419288646,126.94967549364972,민방위대피시설
AT센터 지하 1~3층 주차장,"서울특별시 서초구 강남대로 27 (양재동, 농수산물유통공사,화훼공판장)",37.46825646249364,127.03914127625326,민방위대피시설
월계공단 지하1층,"서울특별시 노원구 월계로45길 28 (월계동, 월계아파트형공장)",37.6269408013551,127.05125357096408,민방위대피시설
평화종합사회복지관 지하1층,"서울특별시 노원구 노원로 331 (중계동, 시영3단지목련아파트)",37.64650864944533,127.06901008950769,민방위대피시설
무지개아파트 관리사무소 지하1층,"서울특별시 노원구 동일로208길 20 (중계동, 무지개아파트)",37.642720915719735,127.06656755671362,민방위대피시설
건영옴니백화점 지하1층,"서울특별시 노원구 섬밭로 258 (중계동, 건영옴니백화점)",37.638826734358425,127.0647544451985,민방위대피시설
엘크루메트로시티 지하2~6층,"서울특별시 중구 충무로 13 (충무로3가, 엘크루메트로시티)",37.56236342432783,126.9926351095398,민방위대피시설
돌곶이역(6호선),서울특별시 성북구 화랑로 지하 243 (석관동),37.61060594308779,127.0571469577258,민방위대피시설
서울세검정초등학교 지하2층,"서울특별시 종로구 세검정로9길 1 (신영동, 서울세검정초등학교)",37.60323935266555,126.9609642417855,민방위대피시설
강동리버스트8단지(지하1~2층 주차장),"서울특별시 강동구 아리수로93나길 88 (강일동, 강동리버스트8단지)",37.57152829150953,127.17619917057118,민방위대피시설
센트라스 지하주차장 1~6층,"서울특별시 성동구 왕십리로 410 (하왕십리동, 센트라스)",37.56611045149079,127.02764654296868,민방위대피시설
순영웰라이빌 지하1층 주차장,"서울특별시 영등포구 영등포로62길 42(영등포동, 순영웰라이빌)",37.51653571992827,126.91329999670376,민방위대피시설
상명대학교 자하관 지하1층,"서울특별시 종로구 홍지문2길 20 (홍지동, 상명대학교)",37.602823342530215,126.95504307756514,민방위대피시설
"삼호아파트(수유프라자) 지하2,3층 주차장 (수유1동)","서울특별시 강북구 도봉로 261 (수유동, 삼호아파트, 수유프라자)",37.63169657199781,127.02345066046936,민방위대피시설
텐즈힐2단지 지하주차장 1~3층,"서울특별시 성동구 마장로 137 (상왕십리동, 텐즈힐)",37.56936273953531,127.02471548756118,민방위대피시설
한국폴리텍대학 서울정수캠퍼스 본관동 지하1층,"서울특별시 용산구 보광로 73 (보광동, 한국폴리텍1대학서울정수캠퍼스)",37.52913825822973,126.9965381877632,민방위대피시설
왕십리도선동 공공복합청사 지하주차장 1층,"서울특별시 성동구 마장로 141, 왕십리도선동 공공복합청사 (상왕십리동)",37.56787737451848,127.0254832635234,민방위대피시설
"휘경 이수브라운스톤 아파트 지하주차장 지하 1,2층","서울특별시 동대문구 망우로20길 86 (휘경동, 브라운스톤 휘경)",37.59019939408973,127.06635139627178,민방위대피시설
동방빌딩 주차장 지하1층,"서울특별시 관악구 남부순환로 2028, 동방빌딩 지하1층 (남현동)",37.47586292226179,126.97385099078488,민방위대피시설
당곡역(신림선 지하1~2층),"서울특별시 관악구 보라매로 4, 인접 경전철 역사(당곡역) (봉천동)",37.4898623595347,126.9277328598324,민방위대피시설
지하철5호선양평역,"서울특별시 영등포구 양산로 지하21, 양평역 (양평동2가)",37.52531811996148,126.8859537011243,민방위대피시설
삼성엔지니어링(지하주차장 2~4층),서울특별시 강동구 상일로6길 26 (상일동),37.54886917490269,127.17532715625538,민방위대피시설
진덕빌딩 지하1층 주차장,"서울특별시 영등포구 선유동1로 22, 당산주차빌딩 (당산동2가)",37.52400698339446,126.89215975885018,민방위대피시설
서울대학교병원 의학연구혁신센터 지하4층 주차장,"서울특별시 종로구 대학로 71, 서울대학교병원 의학연구혁신센터 (연건동)",37.57774934645428,127.00078114323505,민방위대피시설
동아일보사 지하2~4층,"서울특별시 종로구 청계천로 1 (서린동, 동아일보사)",37.56953820827224,126.97806991929356,민방위대피시설
"성균관대학교 600주년기념관 지하2,3,4층","서울특별시 종로구 성균관로 25-2 (명륜3가, 성균관대학교)",37.58839279451035,126.99221490241754,민방위대피시설
광원빌딩 지하1층,서울특별시 종로구 창경궁로 230 (명륜4가),37.58221592111017,126.9982202262485,민방위대피시설
역삼역 지하1~2층,"서울특별시 강남구 테헤란로 지하 156 (역삼동, 역삼역)",37.50124941521163,127.03833153674124,민방위대피시설
지하철3호선 경복궁역 대합실 승강장,"서울특별시 종로구 사직로 지하130, 3호선 경복궁역 지하1~3층 (적선동)",37.57576030662453,126.97320625221444,민방위대피시설
종로구문화체육센터 지하1~2층,"서울특별시 종로구 인왕산로1길 21, 종로문화체육센터 지하1~2층 (사직동)",37.57427620368176,126.96467058518256,민방위대피시설
방배본동 주민자치센터 지하 1층 주차장,"서울특별시 서초구 동광로19길 38 (방배동, 방배본동주민센터)",37.4941415258129,126.9888279941009,민방위대피시설
중계무지개 아파트상가 지하1층,"서울특별시 노원구 동일로208길 19 (중계동, 중계무지개아파트)",37.64494468126995,127.06532288147268,민방위대피시설
정안프라자 지하1층,"서울특별시 노원구 동일로 1308 (중계동, 정안프라자)",37.64700128102881,127.06609986688116,민방위대피시설
종로구민회관 지하2층,"서울특별시 종로구 지봉로5길 7-5 (창신동, 종로구구민회관, 보건소통합청)",37.57351225198523,127.01448436466264,민방위대피시설
노량진쌍용예가아파트 지하주차장 1~2층,"서울특별시 동작구 장승배기로16길 134 (노량진동, 쌍용예가아파트)",37.5099939088493,126.9436658222388,민방위대피시설
지하철6호선 동묘앞역 대합실 승강장,"서울특별시 종로구 지봉로 지하24, 6호선 동묘앞역 (숭인동)",37.571627838358864,127.01581261065054,민방위대피시설
지하철4호선 동대문역 대합실 지하4층 승강장,"서울특별시 종로구 율곡로 지하 308 (종로6가, 4호선동대문역)",37.570627543290136,127.00944073108404,민방위대피시설
성지하이츠3차빌딩 지하 2~6층,"서울특별시 강남구 논현로 507 (역삼동, 성지하이츠3차빌딩)",37.50169492342049,127.03597692861798,민방위대피시설
한국타이어빌딩 지하 1~4층,"서울특별시 강남구 테헤란로 133 (역삼동, 한국타이어빌딩)",37.50014401518215,127.03338899494176,민방위대피시설
독립문초등학교 지하1층,"서울특별시 종로구 통일로12길 23 (무악동, 독립문초등학교)",37.57418825115251,126.96024673902544,민방위대피시설
종로청계힐스테이트아파트 지하1층,"서울특별시 종로구 숭인동길 21, 지하1층 (숭인동, 종로청계힐스테이트)",37.57603046991158,127.0211512503178,민방위대피시설
올림픽기념 국민생활관 지하1층,"서울특별시 종로구 성균관로 91 (혜화동, 국민생활관)",37.590357050927736,126.99884199192384,민방위대피시설
해태보라매타워 지하 2~5층 주차장,서울특별시 관악구 보라매로3길 29 (봉천동),37.4911677066627,126.92509868424,민방위대피시설
더케이호텔 지하 1~2층 주차장,"서울특별시 서초구 바우뫼로12길 70 (양재동, 교육문화회관)",37.46677328418406,127.03281566184332,민방위대피시설
"동원빌딩, 한성대학교에듀센터 지하1층","서울특별시 종로구 창경궁로 254 (명륜2가, 동원빌딩)",37.58369872388486,127.00002037900464,민방위대피시설
서울맹학교 초등교육관 지하1층,"서울특별시 종로구 필운대로 97, 국립서울맹학교 초등교육관동 지하1층 (신교동)",37.58478892610966,126.96754514748976,민방위대피시설
유림회관 지하1층,"서울특별시 종로구 성균관로 31 (명륜3가, 유림회관)",37.58579780300936,126.99573900370504,민방위대피시설
서울대학교병원 융합의학기술원(정림빌딩)지하2층 강당,"서울특별시 종로구 율곡로 214 (연건동, 정림빌딩)",37.57582684902354,127.00264454928926,민방위대피시설
롯데백화점 관악점 지하 2~7층 주차장,서울특별시 관악구 봉천로 209 (봉천동),37.49053914030444,126.92505008350425,민방위대피시설
롯데상가 지하1층,"서울특별시 노원구 섬밭로 263 (중계동, 롯데상가)",37.638785572670926,127.06248789143709,민방위대피시설
보라매우성아파트 지하 1~3층 주차장,서울특별시 관악구 보라매로5길 5 (봉천동),37.49230640261989,126.925562397552,민방위대피시설
베어스타운아파트 지하1층 주차장,"서울특별시 영등포구 선유서로 40(문래동6가, 베어스타운아파트)",37.51912821883187,126.88523774980912,민방위대피시설
고대구로병원 신관 지하3층 주차장,서울특별시 구로구 구로동로 148-0 (구로동),37.49210904072152,126.8847442762169,민방위대피시설
정릉스카이쌍용아파트 지하주차장 1층~3층,"서울특별시 성북구 북악산로 828 (정릉동, 정릉스카이쌍용아파트)",37.599648639143744,127.0165527836563,민방위대피시설
데시앙 1단지 지하주차장 2층/ 2단지 지하주차장 1층,"서울특별시 성북구 서경로 28 (정릉동, 길음뉴타운 데시앙)",37.60641173730328,127.01611056840382,민방위대피시설
서초3차 이편한세상아파트 지하1~2층 주차장,"서울특별시 서초구 남부순환로 2343-10 (서초동, 서초3차대림이편한세상)",37.47865835732077,127.00770271584206,민방위대피시설
지하철4호선 혜화역 대합실 승강장,"서울특별시 종로구 대학로 지하 120 (명륜4가, 4호선 혜화역)",37.58213258277638,127.00181470992898,민방위대피시설
베네치아메가몰 지하3~4층,"서울특별시 중구 청계천로 400 (황학동, 롯데캐슬베네치아)",37.57097824068418,127.02143375230516,민방위대피시설
방화5단지아파트 506동 지하주차장 1층,"서울특별시 강서구 금낭화로 287-19 (방화동, 방화5단지아파트)",37.577189012997934,126.81025292451136,민방위대피시설
대진여자고등학교 지하1층,"서울특별시 노원구 공릉로 438 (중계동, 대진여자고등학교)",37.64606972834052,127.06729822832972,민방위대피시설
(주)대교 지하 1~5층 주차장,서울특별시 관악구 보라매로3길 23 (봉천동),37.49112684681763,126.92559384264536,민방위대피시설
서울농학교 청각언어훈련센터 지하1층,"서울특별시 종로구 필운대로 103, 국립서울농학교 청각언어훈련센터동 지하1층 (신교동)",37.58503721773994,126.9685803285214,민방위대피시설
KT혜화지사 지하1층 체력단련실,"서울특별시 종로구 대학로 65 (연건동, KT혜화지사)",37.57715121826569,127.00142705067935,민방위대피시설
동원빌딩  지하1층,"서울특별시 종로구 새문안로3길 15, 동원빌딩 지하1층 (당주동)",37.5717465265484,126.97231858708098,민방위대피시설
신교공영주차장 지하1층~4층,"서울특별시 종로구 자하문로 89, 종로구 장애인복지관 및 푸르메재활센터(신교공영주차장) (신교동)",37.58409020342747,126.96981869477229,민방위대피시설
은평구청 보건소 지하1층,"서울특별시 은평구 은평로 195 (녹번동, 은평구종합청사)",37.60267156719929,126.9288770121076,민방위대피시설
상명대학교 박물관 지하주차장,"서울특별시 종로구 평창문화로 151, 지하주차장 (평창동)",37.610552775989134,126.97595966142208,민방위대피시설
왕십리모노퍼스주상복합 지하주차장 1~2층,"서울특별시 성동구 청계천로 474 (하왕십리동, 왕십리모노퍼스주상복합)",37.56955576349858,127.02934715318374,민방위대피시설
"관악산휴먼시아A(210-1동,217동)지하1~3층주차장",서울특별시 관악구 난곡로 55 (신림동),37.45910904676267,126.92003882579304,민방위대피시설
대동세무고등학교 본관 지하1층,"서울특별시 종로구 계동길 84-10, 대동세무고등학교 (계동)",37.5819238031785,126.98788964204452,민방위대피시설
영화블렌하임 아파트(지하1층주차장),"서울특별시 마포구 월드컵로25길 26 (망원동, 마포영화블렌하임)",37.55848972765168,126.90630246266758,민방위대피시설
서울명신초등학교 지하1층,"서울특별시 종로구 낙산길 250 (창신동, 서울명신초등학교)",37.581588400261865,127.01420520229374,민방위대피시설
"신림2차푸르지오A(106동-108동)지하1,2층주차장",서울특별시 관악구 난곡로 66 (신림동),37.46134424578611,126.91990858732008,민방위대피시설
