대피소명,주소,위도,경도,유형
"SK북한산시티아파트(P207, 135동)(지하3층)","서울특별시 강북구 솔샘로 174, 135동 (미아동, SK북한산시티아파트)",36.71416924820895,127.01170324035328,민방위대피시설
와이스퀘어(지하3~4층),"서울특별시 강북구 도봉로 52, 연이빌딩 (미아동)",36.70989387565394,127.02937499260402,민방위대피시설
서울숲 코오롱디지털타워1차(지하1~3층),"서울특별시 성동구 성수일로4길 25, 서울숲코오롱디지털타워 (성수동2가)",36.63875655391354,127.05056520284592,민방위대피시설
"가리봉동주민센터 지하1층 주차장, 지하2층 주차장","서울특별시 구로구 우마2길 35, 가리봉주민센터 (가리봉동)",36.57873198331352,126.89020412817248,민방위대피시설
광운대학교 지하2~3층 주차장,"서울특별시 노원구 광운로 20 (월계동, 광운대학교)",36.71589698349536,127.05818666910598,민방위대피시설
시립뇌성마비복지관 지하1층 식당,"서울특별시 노원구 덕릉로70가길 96, 서울시립뇌성마비복지관 (상계동)",36.73853555927722,127.05531053364555,민방위대피시설
강동경희대학교 병원 본관동 지하1층,"서울특별시 강동구 동남로 892, 강동경희대학교병원 본관동 지하 1층 (상일동)",36.6494158550205,127.1547702766488,민방위대피시설
관악동부센트레빌 지하주차장 (지하1~3층),서울특별시 관악구 은천로33길 5 (봉천동),36.58337774617088,126.9507887652937,민방위대피시설
성현동아아파트109동 지하주차장 (지하1층),서울특별시 관악구 관악로 285 (봉천동),36.58576529892314,126.9552986161192,민방위대피시설
성현동아아파트106-8동 지하주차장 (지하1층),서울특별시 관악구 관악로 285 (봉천동),36.58576529892314,126.9552986161192,민방위대피시설
성현동아아파트110동 지하주차장 (지하1층),"서울특별시 관악구 관악로 285 (봉천동, 성현동아아파트)",36.58576529892314,126.9552986161192,민방위대피시설
봉천동아아파트 201-4동 지하주차장 (지하1층),서울특별시 관악구 관악로37길 20 (봉천동),36.58407145801616,126.95591690060692,민방위대피시설
성현동아아파트 101-2동 지하주차장 (지하1층),서울특별시 관악구 관악로 285 (봉천동),36.58576529892314,126.9552986161192,민방위대피시설
관악드림타운(아) 지하주차장15 (지하1~2층),서울특별시 관악구 성현로 80 (봉천동),36.585941225522376,126.95042195331408,민방위대피시설
신사두산위브1차 아파트 지하주차장 1층,"서울특별시 은평구 갈현로1길 36 (신사동, 은평신사두산위브아파트)",36.69613305472016,126.90603822203455,민방위대피시설
"성원아파트 지하주차장 1, 2층","서울특별시 은평구 갈현로4길 26-5 (신사동, 신사성원아파트)",36.696636647066434,126.91354796130192,민방위대피시설
혜심원(지하1층),서울특별시 용산구 소월로2나길 18 (후암동),36.64958137285667,126.97696786837172,민방위대피시설
"GS건설, 그랑서울 지하2~7층",서울특별시 종로구 종로 33 (청진동),36.66729588146872,126.98083079668116,민방위대피시설
"SK북한산시티아파트(P203, 113동)(지하2~3층)","서울특별시 강북구 솔샘로 174, 113동 (미아동, SK북한산시티아파트)",36.71416924820895,127.01170324035328,민방위대피시설
"한신휴플러스아파트 지하주차장 1, 2층","서울특별시 은평구 갈현로1길 31 (신사동, 신사동한신휴플러스)",36.69515622130372,126.90650075629534,민방위대피시설
신사씨티아파트 지하주차장 2층,"서울특별시 은평구 가좌로 391 (신사동, 씨티아파트)",36.69654738247784,126.90446209234398,민방위대피시설
임탑아파트 지하주차장 1층,"서울특별시 은평구 갈현로5길 25-11 (신사동, 임탑아파트)",36.69792842535491,126.90874577265836,민방위대피시설
"청운제일아파트 지하주차장 1, 2층","서울특별시 은평구 증산로 417 (신사동, 청운제일아파트)",36.68981613628191,126.91414472866838,민방위대피시설
라이프씨티아파트 지하주차장 1층,"서울특별시 은평구 갈현로3다길 15 (신사동, 라이프씨티아파트)",36.69856951139365,126.90567701582756,민방위대피시설
"삼부아파트 지하주차장 2, 3층","서울특별시 은평구 증산로21길 11 (신사동, 신흥상가삼부아파트)",36.69187659696426,126.91369417564064,민방위대피시설
래미안 트리베라1차 아파트 주차장(삼각산동)(지하3층),"서울특별시 강북구 삼양로19길 25 (미아동, 삼성래미안트리베라1차아파트)",36.710134863907946,127.0197030214883,민방위대피시설
한겨레신문사(지하1~지하3층 주차장),"서울특별시 마포구 효창목길 6 (공덕동, 한겨레신문사)",36.64317375881451,126.95854926010868,민방위대피시설
관악드림타운(아) 지하주차장11 (지하1~3층),서울특별시 관악구 성현로 80 (봉천동),36.585941225522376,126.95042195331408,민방위대피시설
관악드림타운(아) 지하주차장5 (지하1~3층),서울특별시 관악구 성현로 80 (봉천동),36.585941225522376,126.95042195331408,민방위대피시설
관악드림타운(아) 지하주차장1 (지하1~5층 ),"서울특별시 관악구 성현로 80 (봉천동, 관악드림타운아파트)",36.585941225522376,126.95042195331408,민방위대피시설
관악드림타운(아) 지하주차장4 (지하1~3층),서울특별시 관악구 성현로 80 (봉천동),36.585941225522376,126.95042195331408,민방위대피시설
관악드림타운(아) 지하주차장14 (지하1~3층),서울특별시 관악구 성현로 80 (봉천동),36.585941225522376,126.95042195331408,민방위대피시설
관악드림타운(아) 지하주차장13 (지하1~4층),서울특별시 관악구 성현로 80 (봉천동),36.585941225522376,126.95042195331408,민방위대피시설
관악드림타운(아) 지하주차장7 (지하1~3층),서울특별시 관악구 성현로 80 (봉천동),36.585941225522376,126.95042195331408,민방위대피시설
상일동역 지하1층 역사,서울특별시 강동구 고덕로 지하 359 (상일동),36.65085926802974,127.15434030958244,민방위대피시설
남경도빌딩 지하2층,"서울특별시 관악구 남부순환로 1836 (봉천동, 호산빌딩)",36.57665474264935,126.95350359267532,민방위대피시설
정성요양병원 본관(지하1층주차장),서울특별시 구로구 남부순환로107길 24 (가리봉동),36.57570306403081,126.8950640559025,민방위대피시설
성북역신도브래뉴아파트 지하1층 주차장,"서울특별시 노원구 광운로19길 38 (월계동, 성북역신도브래뉴)",36.71934386899289,127.0574443137182,민방위대피시설
관악드림타운(아) 지하주차장2 (지하1~3층),서울특별시 관악구 성현로 80 (봉천동),36.585941225522376,126.95042195331408,민방위대피시설
하나플러스2차아파트 지하주차장 1층,"서울특별시 강동구 양재대로85길 60, 지하1층 (성내동, 하나플러스ll)",36.621522405417785,127.1292160619804,민방위대피시설
"용두동롯데캐슬리치지하주차장 지하1,2층","서울특별시 동대문구 한빛로 73(용두동, 용두롯데캐슬리치)",36.67531313127034,127.02983221716576,민방위대피시설
하버라인3단지  지하1~2층 주차장,"서울특별시 구로구 항동로 43 (항동, 하버라인 3단지)",36.57517959560143,126.8255629811846,민방위대피시설
경남아파트 (지하1층~지하3층),"서울특별시 강남구 논현로 209 (도곡동, 경남아파트)",36.58504557308193,127.03954386367828,민방위대피시설
관악 위버폴리스 (지하2~6층),"서울특별시 관악구 관악로 195 (봉천동, 관악위버폴리스)",36.57888850973873,126.95300067517913,민방위대피시설
포스코트아파트 (지하1층~지하2층),"서울특별시 강남구 남부순환로381길 15 (도곡동, 포스코트아파트)",36.58408120652213,127.04627222541838,민방위대피시설
동진빌딩 지하2~3층,"서울특별시 관악구 관악로 217 (봉천동, 동진빌딩)",36.58054958353603,126.95435962177405,민방위대피시설
사가정역(지하 1~3층),"서울특별시 중랑구 사가정로 지하 393 (면목동, 사가정역)",36.67875579568116,127.08630974861497,민방위대피시설
신봉아파트101동 지하1층,"서울특별시 관악구 양녕로6나길 18 (봉천동, 신봉아파트)",36.58110716106343,126.94947460074508,민방위대피시설
서울숲 한라시그마밸리(지하1~5층),"서울특별시 성동구 성수이로 51, 서울숲한라시그마벨리 (성수동2가)",36.63644488053927,127.0536525813628,민방위대피시설
사당롯데캐슬골든포레 108동 지하3층주차장,"서울특별시 동작구 사당로 90, 108동 (사당동, 사당 롯데캐슬 골든포레)",36.58789543161103,126.9619399835563,민방위대피시설
금광아크존 지하 1~2층,"서울특별시 강남구 압구정로42길 36 (신사동, 금광아크존1)",36.62273254411338,127.03343641536692,민방위대피시설
서초호반써밋아파트 지하1~2층,"서울특별시 서초구 양재대로2길 109 (우면동, 서초호반써밋)",36.55260325550487,127.01231641265068,민방위대피시설
하얏트호텔(지하1~2층),"서울특별시 용산구 소월로 322, 하얏트호텔 지하 1~2층 (한남동)",36.63572439004362,126.99706038927064,민방위대피시설
제일기획빌딩(지하3~4층),"서울특별시 용산구 이태원로 222, 제일기획 (한남동)",36.63113586043159,126.99806898361985,민방위대피시설
지하철 한강진역(지하1~4층),"서울특별시 용산구 이태원로 지하287, 6호선 한강진역 지하 4층 (한남동)",36.63698732606438,127.00104007119369,민방위대피시설
신길동 힐스테이트클래시안 아파트 지하주차장 B2~B4층,"서울특별시 영등포구 신길로28길 9(신길동, 힐스테이트 클래시안)",36.60030648811277,126.91219174607568,민방위대피시설
보광동신동아아파트 지하1층,"서울특별시 용산구 장문로 104 (보광동, 신동아아파트)",36.622038770594834,127.0010502783918,민방위대피시설
벽산상가 지하1층,"서울특별시 노원구 섬밭로 209 (하계동, 신한은행)",36.731641555754464,127.06270539256812,민방위대피시설
방송회관 지하1~6층 주차장,"서울특별시 양천구 목동동로 233 (목동, 한국방송회관)",36.62314055326446,126.87224133801996,민방위대피시설
지웰홈스 왕십리 지하1층~지하2층,"서울특별시 성동구 고산자로14길 26 (행당동, 지웰홈스 왕십리)",36.659640275410055,127.036371148654,민방위대피시설
고척동아한신아파트(지하1층 주차장),"서울특별시 구로구 중앙로6길 17(고척동, 고척동 동아한신아파트)",36.5970916348086,126.86594047818082,민방위대피시설
고척아이파크아파트RD(모든 동 지하1~2층 주차장),"서울특별시 구로구 중앙로5길 59 (고척동, 고척아이파크)",36.59679716172919,126.86026586525776,민방위대피시설
남해오네뜨아파트 지하주차장 1층,"서울특별시 동작구 사당로2가길 173 (사당동, 남해오네뜨아파트)",36.583250993680416,126.9651593639264,민방위대피시설
사당자이아파트 2주차장 지하2층,"서울특별시 동작구 사당로2가길 102 (사당동, 사당자이아파트)",36.584869825190815,126.96210743309652,민방위대피시설
삼호그린아파트 상가주차장 지하1층,"서울특별시 동작구 사당로2가길 188 (사당동, 삼호그린아파트)",36.58221940014454,126.9649481115922,민방위대피시설
꿈의숲 아이파크 지하주차장(지하2층),서울특별시 성북구 돌곶이로40길 46(장위동),36.71534733559764,127.0472993072935,민방위대피시설
고덕전철역 지하1층역사,서울특별시 강동구 고덕로 지하 253 (고덕동),36.65181125474274,127.1512602409418,민방위대피시설
백련산 해모로APT(101동~109동 지하3층),"서울특별시 은평구 응암로30길 15(응암동, 백련산해모로)",36.69244211181714,126.9221903507128,민방위대피시설
잠실우성4차아파트 101동~108동 지하 1층,"서울특별시 송파구 백제고분로18길 30 (잠실동, 우성아파트)",36.5989936990357,127.08117706369885,민방위대피시설
사당해그린 아파트 지하주차장 1층,"서울특별시 동작구 사당로2길 40 (사당동, 사당해그린 아파트)",36.5880479922627,126.96299843514252,민방위대피시설
삼창프라자,서울특별시 마포구 마포대로 63 (도화동),,,민방위대피시설
마스터즈 빌딩,"서울특별시 마포구 독막로 331, 마스터즈타워빌딩 (도화동)",36.63916016994846,126.94917703527324,민방위대피시설
한전강동지점,"서울특별시 강동구 양재대로 1318, 한국전력 강동송파지사 (둔촌동)",36.62000235637552,127.13319297629285,민방위대피시설
창1동 주민센터 지하주차장 1층,"서울특별시 도봉구 해등로 46, 창1동 주민센터 (창동)",36.74456789999514,127.0425227518082,민방위대피시설
잠실본동 복합청사 지하2층,"서울특별시 송파구 백제고분로 145, 잠실본동 복합청사 지하 2층 (잠실동)",36.60224033702099,127.081436175791,민방위대피시설
잠실종합시장 지하주차장 1층,서울특별시 송파구 백제고분로 157(잠실동),36.60198309545991,127.0825457581022,민방위대피시설
홍익대학교 제3기숙사(지하1~2층주차장),"서울특별시 마포구 성미산로 55 (성산동, 홍익대학교제3기숙사)",36.656181612116455,126.91451694303018,민방위대피시설
선사현대아파트(지하 2-3층 주차장),서울특별시 강동구 상암로 11 (암사동),36.64858041725836,127.12355090569103,민방위대피시설
금란교회(지하주차장 3~6층),서울특별시 중랑구 망우로 455 (망우동),36.69690785285358,127.10078756149618,민방위대피시설
갑을빌딩(지하1층),"서울특별시 용산구 한강대로 350, 지하1층 (갈월동)",36.64584795861316,126.97186910389756,민방위대피시설
"서울시립대운동장 지하주차장 1,2,3구역","서울특별시 동대문구 서울시립대로 163, 서울시립대학교 (전농동)",36.67961151139978,127.05853935231364,민방위대피시설
DMC진흥아파트 101~106동 지하1~2층,"서울특별시 은평구 은평터널로 60 (수색동, DMC진흥)",36.68155962886154,126.9006945485674,민방위대피시설
노원평생학습관 지하1층,"서울특별시 노원구 동일로204길 13 (중계동, 노원평생학습관)",36.7363127980842,127.06553948994186,민방위대피시설
씨티21 지하1~2층 주차장,"서울특별시 서초구 반포대로 316 (잠원동, 씨티21)",36.60340308453208,126.99986967368932,민방위대피시설
안국약품빌딩 지하1층 주차장,서울특별시 영등포구 시흥대로 613(대림동),36.58364065272449,126.90487495570213,민방위대피시설
그린임광아파트 지하주차장 1~2층,"서울특별시 강서구 등촌로 113 (등촌동, 그린임광아파트)",36.63666454038858,126.86420096014174,민방위대피시설
탑스빌 아파트 지하1층,"서울특별시 금천구 금하로30길 34 (시흥동, 탑스빌아파트)",36.54501863169685,126.91601857019675,민방위대피시설
조달청 지하 1층,"서울특별시 서초구 반포대로 217 (반포동, 조달청빌딩)",36.59554300742026,127.00217282763906,민방위대피시설
대명아파트(지하1~2층주차장),"서울특별시 마포구 동교로39길 11 (연남동, 대명APT)",36.657875212912856,126.92383693410436,민방위대피시설
용산2가동 주민센터(지하1~3층),"서울특별시 용산구 신흥로 90, 용산2가동 주민센터, 용산치안센터 지하1~3층 (용산동2가)",36.64212629041526,126.98487404189768,민방위대피시설
브라운스톤 용산(지하1~2층),"서울특별시 용산구 효창원로 88 (용문동, 브라운스톤용산)",36.63244625503732,126.9589011397634,민방위대피시설
용산파크자이(지하1~5층),"서울특별시 용산구 한강대로 205,  지하1~5층 (한강로1가, 용산파크자이)",36.632806624821,126.97220579597617,민방위대피시설
센트레빌아스테리움서울(지하2~9층),"서울특별시 용산구 한강대로 372, 지하2~9층 (동자동, 센트레빌아스테리움서울)",36.64785425523548,126.9727475130217,민방위대피시설
현대아이파크몰(용산역) ( 지하1~3층),"서울특별시 용산구 한강대로23길 55, 용산역 지하1~3층 (한강로3가)",36.62573689250647,126.96380026610412,민방위대피시설
서울역(4호선)(지하1~2층),"서울특별시 용산구 한강대로 지하392, 4호선 서울역 지하1~2층 (동자동)",36.64929668796267,126.97234362827972,민방위대피시설
YTN서울타워(지하1층),"서울특별시 용산구 남산공원길 105 (용산동2가, YTN서울타워)",36.64277491802323,126.98599779325318,민방위대피시설
지하철5호선 광화문역 지하1~3층 대합실 승강장,"서울특별시 종로구 세종대로 지하172, 5호선 광화문역 지하1~3층 (세종로)",36.66861866366724,126.97639613415627,민방위대피시설
용산구청(지하2~5층),"서울특별시 용산구 녹사평대로 150, 용산구종합행정타운 지하 2~5층 (이태원동)",36.628741553608826,126.98951567254652,민방위대피시설
광화문사거리 지하1층 지하중앙보도,"서울특별시 종로구 세종대로 지하172, 5호선 광화문역 지하1~3층 (세종로)",36.66861866366724,126.97639613415627,민방위대피시설
용강동복합청사(지하1층 주차장),"서울특별시 마포구 토정로31길 31, 용강동주민센터 (용강동)",36.63849816925926,126.94268780705954,민방위대피시설
에이치제이중공업건설부문 남영동사옥(지하1~5층),"서울특별시 용산구 한강대로71길 4, 갈월동 오피스 지하1~5층 (갈월동)",36.63665932097487,126.97218204942916,민방위대피시설
시티파크2단지(지하1~3층),"서울특별시 용산구 서빙고로 31, 지하1~3층 (한강로3가, 용산 시티파크2단지)",36.622337366303874,126.96945926454528,민방위대피시설
시티파크1단지(지하1~3층),"서울특별시 용산구 서빙고로 35, 지하1~3층 (한강로3가, 용산시티파크1단지)",36.62129001092718,126.96872982540256,민방위대피시설
파크타워(지하1~4층),"서울특별시 용산구 서빙고로 67, 지하1~4층 (용산동5가, 파크타워)",36.62045299702747,126.9702512986411,민방위대피시설
세종문화회관 지하2층 세종?충무공이야기 전시관,서울특별시 종로구 세종대로 175(세종로),36.6684221632717,126.97543933322012,민방위대피시설
이촌2동주민센터(지하1~2층),"서울특별시 용산구 이촌로18길 20, 이촌2동 주민센터 지하1~2층 (이촌동)",36.62241569397321,126.95444861896256,민방위대피시설
청파동주민센터(지하1~2층),"서울특별시 용산구 청파로49길 6, 청파동 주민센터 지하 1~2층 (청파동2가)",36.64165167710342,126.96945069532534,민방위대피시설
마곡13단지힐스테이트마스터 지하주차장 1~2층,"서울특별시 강서구 마곡중앙1로 71 (마곡동, 마곡13단지힐스테이트마스터)",36.65395794650079,126.8197410623779,민방위대피시설
효창동 청마루아파트(지하1~2층),"서울특별시 용산구 백범로 250 (효창동, 세양청마루아파트)",36.63692932256552,126.95669227189524,민방위대피시설
씨제이나인파크(지하1~3층),"서울특별시 용산구 백범로90다길 12, 지하1~3층 (문배동, 용산씨제이나인파크)",36.63226487997159,126.96875543805912,민방위대피시설
브라운스톤남산아파트(지하2층),"서울특별시 용산구 후암로 65 (후암동, 브라운스톤 남산아파트)",36.64750888556605,126.97575581402336,민방위대피시설
우이신설경전철 북한산보국문역(지하1층~지하2층),"서울특별시 성북구 보국문로 지하 88, 북한산보국문역 (정릉동)",36.70828432629988,127.00744628992014,민방위대피시설
이촌동 LG한강자이아파트(지하1~2층),"서울특별시 용산구 이촌로64길 15, 지하 1~!층 (이촌동, 엘지한강자이아파트)",36.61612533442028,126.97066881609736,민방위대피시설
한남동 현대홈타운(지하1~2층),"서울특별시 용산구 장문로 141, 지하 1~2층 (한남동, 한남힐스테이트)",36.6246201245525,127.0030229377222,민방위대피시설
서빙고 금호베스트빌(지하1~2층),"서울특별시 용산구 서빙고로51길 68-14 (서빙고동, 금호베스트빌)",36.619036089778646,126.99128933017414,민방위대피시설
국립중앙박물관(지하1~2층),"서울특별시 용산구 서빙고로 137 (용산동6가, 국립중앙박물관)",36.61921530340605,126.98166528163355,민방위대피시설
서빙고동주민센터(지하1~2층),"서울특별시 용산구 서빙고로 279 (서빙고동, 서빙고동주민센터)",36.616666565346016,126.99390081802116,민방위대피시설
용문동주민센터(지하1층~지하3층),"서울특별시 용산구 새창로12길 13 (도원동, 용문동 주민센터)",36.63513939864802,126.95728372476174,민방위대피시설
숙대입구역(지하1~2층),"서울특별시 용산구 한강대로 지하306, 숙대입구역 지하1~2층 (갈월동)",36.641746976693774,126.9714921561683,민방위대피시설
언주역 지하1층,"서울특별시 강남구 봉은사로 지하 201 (논현동, 언주역)",36.60367868321877,127.0330711466115,민방위대피시설
용산도서관 민방위대피시설(지하1층),"서울특별시 용산구 두텁바위로 160 (후암동, 용산도서관)",36.64820557850871,126.97952376427703,민방위대피시설
녹사평역(지하1~5층),"서울특별시 용산구 녹사평대로 지하195, 6호선 녹사평역 지하1~5층 (용산동4가)",36.63062460014286,126.98491611712372,민방위대피시설
구의3동주민센터 지하주차장 1~2층,"서울특별시 광진구 강변역로 17 (구의동, 구의제3동 복합청사)",36.6341856585275,127.0901010506932,민방위대피시설
남영동주민센터(지하1층),"서울특별시 용산구 두텁바위로 25, 남영동 주민센터 지하1층층 (갈월동)",36.64196605766694,126.97434191990696,민방위대피시설
강동리엔파크 14단지 지하주차장 1~2층,"서울특별시 강동구 고덕로98길 160 (상일동, 강동리엔파크14단지)",36.64771639871409,127.17779013605146,민방위대피시설
개포동역(지하1층),"서울특별시 강남구 개포로 지하 420 (개포동, 개포동역)",36.58615142083683,127.06807910551515,민방위대피시설
효창공원앞역(지하1~3층),"서울특별시 용산구 백범로 지하 287 (효창동, 6호선효창공원앞역)",36.63580348938663,126.96066493922748,민방위대피시설
도원삼성래미안아파트(지하1층~지하4층),"서울특별시 용산구 새창로 70 (도원동, 삼성래미안아파트)",36.63447737571437,126.95506507935912,민방위대피시설
삼각지역(지하1~4층),"서울특별시 용산구 한강대로 지하180, 4호선 삼각지역 지하1~4층 (한강로1가)",36.63083313602556,126.97275860523602,민방위대피시설
신용산역(지하1~2층),"서울특별시 용산구 한강대로 지하112, 4호선 신용산역 지하1~2층 (한강로2가)",,,민방위대피시설
LS용산타워(국제빌딩)(지하1~4층),"서울특별시 용산구 한강대로 92, LS용산타워 지하1~4층 (한강로2가)",36.6243728360343,126.96757187198938,민방위대피시설
지하철 이촌역(지하1~2층),"서울특별시 용산구 서빙고로 지하83, 4호선 이촌역 지하1~2층 (용산동5가)",36.6181282175848,126.97488961966717,민방위대피시설
월계역신도브래뉴아파트 지하1층 주차장,"서울특별시 노원구 광운로 132 (월계동, 월계역신도브래뉴)",36.72523164152146,127.05720321211231,민방위대피시설
이촌동 대림아파트(지하1~2층),"서울특별시 용산구 이촌로2가길 122, 지하1~2층 (이촌동, 대림아파트)",36.62139726114975,126.954680866883,민방위대피시설
이촌동 현대한강아파트(지하1~2층),"서울특별시 용산구 이촌로34길 29, 지하1~2층 (이촌동, 현대한강아파트)",36.61950258878254,126.95729729883666,민방위대피시설
이촌동 북한강아파트( 지하1~2층),"서울특별시 용산구 이촌로2가길 66, 지하1~2층 (이촌동, 북한강아파트)",36.62348720829572,126.95356052480108,민방위대피시설
성산e편한세상2차(지하1층주차장),"서울특별시 마포구 월드컵북로 216 (성산동, 성산2차 e편한세상)",36.66595009678822,126.90569609703692,민방위대피시설
경희궁롯데캐슬아파트 지하2층,"서울특별시 종로구 통일로 230 (무악동, 경희궁롯데캐슬)",36.67000339604243,126.95903032337938,민방위대피시설
성신여자대학교교직원주차장(수정관) 지하 2층,"서울특별시 성북구 보문로34다길 2 (돈암동, 성신여자대학교)",36.68812837781095,127.02098136480484,민방위대피시설
인왕산2차 아이파크아파트 지하1층,"서울특별시 종로구 통일로18길 34, 201동 지하1층 (무악동, 인왕산2차아이파크아파트)",36.67192406513552,126.95930742609713,민방위대피시설
청화아파트(지하1층),"서울특별시 용산구 장문로 27, 청화아파트 지하층 (이태원동, 청화아파트)",36.62612709850866,126.99408925242167,민방위대피시설
해밀턴호텔(지하3~4층),"서울특별시 용산구 이태원로 179, 해밀톤호텔 (본관) 지하 3~4층 (이태원동)",36.63092382707536,126.99315626818849,민방위대피시설
삼환로즈빌아파트(지하1~2층주차장),"서울특별시 구로구 경인로 343 (고척동, 삼환로즈빌)",36.59404248931171,126.85893475594632,민방위대피시설
월드타운대림아파트(지하1층주차장),"서울특별시 마포구 월드컵북로30길 9-22 (성산동, 성산월드타운대림아파트)",36.66553114079651,126.9085484059247,민방위대피시설
관악드림타운(아) 지하주차장3 (지하1~3층),서울특별시 관악구 성현로 80 (봉천동),36.585941225522376,126.95042195331408,민방위대피시설
관악드림타운(아) 지하주차장6 (지하1~3층),서울특별시 관악구 성현로 80 (봉천동),36.585941225522376,126.95042195331408,민방위대피시설
관악드림타운(아) 지하주차장9 (지하1~3층),서울특별시 관악구 성현로 80 (봉천동),36.585941225522376,126.95042195331408,민방위대피시설
아미여성병원,"서울특별시 노원구 노원로 416 (상계동, 모네여성병원)",36.74991418000464,127.06631574245397,민방위대피시설
삼창아파트 지하1층,"서울특별시 노원구 광운로2가길 22 (월계동, 삼창아파트)",36.7138768957604,127.058329067873,민방위대피시설
새솔금호아파트 지하1~3주차장,"서울특별시 구로구 공원로 35 (구로동, 새솔금호아파트)",36.59617106421561,126.8908274667403,민방위대피시설
신안타워 지하2~4주차장,"서울특별시 구로구 구로중앙로 68 (구로동, 신안타워)",36.59201666461274,126.88935818114112,민방위대피시설
르메이에르아파트 지하주차장 1층,"서울특별시 동작구 사당로20길 119 (사당동, 르메이에르)",36.574589835640346,126.97323092465815,민방위대피시설
푸른마을동아아파트(101~107동)지하1~3층주차장,"서울특별시 성북구 서경로 31 (정릉동, 푸른마을 동아아파트)",36.70368605669178,127.01332980888104,민방위대피시설
정릉중앙하이츠빌1단지(101~105동) 지하주차장3층,"서울특별시 성북구 아리랑로19길 60 (정릉동, 중앙하이츠빌1단지아파트)",36.69897430934042,127.00857140819828,민방위대피시설
"일신건영아파트 지하1,2주차장","서울특별시 구로구 새말로9길 22 (구로동, 일신건영아파트)",36.59984062729139,126.88631515760888,민방위대피시설
SH스카이아파트 주차장-수유1동(지하1층),"서울특별시 강북구 인수봉로23가길 3 (수유동, SH스카이)",36.72380743869397,127.01094157994108,민방위대피시설
성산현대2차아파트(지하1층주차장),"서울특별시 마포구 성암로 79 (중동, 성산2차현대아파트)",36.66662700581483,126.90889773207708,민방위대피시설
구로리어린이공원 지하주차장(지하1~3층),"서울특별시 구로구 구로중앙로 13 (구로동, 구로리공원)",36.58705878131555,126.89210699081504,민방위대피시설
원효로2동 주민센터 지하주차장 1층,"서울특별시 용산구 효창원로8길 3, 원효로제2동 주민센터 지하1층 (산천동)",36.63052445893168,126.95133884226996,민방위대피시설
삼성아파트 지하주차장 1층,"서울특별시 동작구 사당로26길 130-6 (사당동, 삼성아파트)",36.57420615447397,126.97712582581929,민방위대피시설
관악드림타운(아) 지하주차장10 (지하1~3층),서울특별시 관악구 성현로 80 (봉천동),36.585941225522376,126.95042195331408,민방위대피시설
범천타워 지하 1~4층,서울특별시 광진구 천호대로 572 (능동),36.65217642960225,127.0794869322342,민방위대피시설
한국성서대학교 밀알관 지하2층 주차장,"서울특별시 노원구 동일로214길 32, 한국성서대학교 (상계동)",36.74479825980849,127.06269809676584,민방위대피시설
"용신e편한세상센트럴포레 지하주차장 지하 1,2,3층","서울특별시 동대문구 무학로 91(용두동, e편한세상 청계센트럴포레 아파트)",36.668328731030925,127.0286113884868,민방위대피시설
우이제일교회 사회복지관(지하1층) - 우이동,"서울특별시 강북구 삼양로163길 63 (우이동, 우이제일교회 사회복지관)",36.7555121958378,127.00985241736436,민방위대피시설
정우빌딩(지하2층 주차장),"서울특별시 마포구 토정로37길 46(도화동, 정우빌딩)",36.63870354395966,126.94719826516608,민방위대피시설
래미안베라힐즈 지하1층~3층,"서울특별시 은평구 통일로 630 (녹번동, 래미안베라힐즈)",36.70033642372296,126.9361184391866,민방위대피시설
하계역(지하철 7호선) 지하2층,"서울특별시 노원구 동일로 지하 1196 (하계동, 하계역)",36.73144914264333,127.06693857909497,민방위대피시설
씨티극동아파트 전체 동의 지하주차장 지하1층,"서울특별시 송파구 한가람로 478 (풍납동, 씨티극동아파트)",36.635790217072056,127.11603429991249,민방위대피시설
능동 주민센터 지하 1층,"서울특별시 광진구 천호대로112길 55, 능동주민센터 (능동)",36.64994953235341,127.07882010321218,민방위대피시설
"제기 이수브라운아파트 지하주차장 지하1,2층","서울특별시 동대문구 왕산로23길 89 (제기동, 이수브라운스톤)",36.67838760300496,127.03290284300544,민방위대피시설
마장에스에이치빌 지하주차장(지하1층),"서울특별시 성동구 마조로15가길 23, 지하1층 (마장동, 마장 에스에이치빌)",36.6605992206756,127.03873946137509,민방위대피시설
은천1단지아파트 지하3층주차장,"서울특별시 관악구 인헌12길 46-2 (봉천동, 은천아파트)",36.56756044667706,126.96448798028928,민방위대피시설
"삼각산아이원아파트 주차장(104,105,106-지하3)","서울특별시 강북구 삼양로19길 113 (미아동, 삼각산아이원아파트)",36.71141905614045,127.01713462946388,민방위대피시설
신도림3차동아아파트(301~309동 지하1~3층주차장),"서울특별시 구로구 신도림로 78 (신도림동, 신도림3차동아아파트)",36.60572780382218,126.88478509818847,민방위대피시설
회현지하쇼핑센터,"서울특별시 중구 소공로 지하 58 (충무로1가, 회현지하쇼핑센터)",36.65703153196326,126.98092581108445,민방위대피시설
상계2동 공공복합청사 지하1층,"서울특별시 노원구 상계로 118 (상계동, 상계2동복합청사)",36.75367432879709,127.06626112114856,민방위대피시설
강원학사 지하1층,"서울특별시 관악구 난곡로30길 61 (신림동, 강원학사)",36.56692531207111,126.92376818452811,민방위대피시설
동부센트레빌아파트 지하주차장 1~2층,"서울특별시 강서구 방화대로45길 32 (방화동, 동부센트레빌아파트)",36.67089453245032,126.81638259216396,민방위대피시설
염리세양청마루아파트(지하1층 주차장),"서울특별시 마포구 독막로42길 5(염리동, 세양청마루아파트)",36.63924429464527,126.94631912907634,민방위대피시설
국립재활원-인수동(지하2층),"서울특별시 강북구 삼각산로 58 (수유동, 국립재활원)",36.73508805305669,127.00972322105753,민방위대피시설
"SK북한산시티아파트(P211, 147동)(지하2~3층)","서울특별시 강북구 솔샘로 174 (미아동, SK북한산시티아파트)",36.71416924820895,127.01170324035328,민방위대피시설
"SK북한산시티아파트(P205, 122동)(지하3층)","서울특별시 강북구 솔샘로 174 (미아동, SK북한산시티아파트)",36.71416924820895,127.01170324035328,민방위대피시설
"1호선 제기동역 지하 1층, 2층","서울특별시 동대문구 왕산로 지하 93 (제기동, 제기동역)",36.67475120298776,127.0376308270863,민방위대피시설
구룡역(지하1층),"서울특별시 강남구 개포로 지하 403 (개포동, 구룡역)",36.583195685388986,127.05752755196204,민방위대피시설
강남더샵포레스트아파트 지하주차장 2층~3층,"서울특별시 강남구 광평로34길 35 (수서동, 강남더샵포레스트아파트)",36.57746150311894,127.0931740143676,민방위대피시설
유타쇼핑몰  지하주차장1~6층,서울특별시 성북구 동소문로 106 (동선동1가),36.688794243084885,127.01619523570244,민방위대피시설
길음뉴타운래미안8단지아파트 4차지하주차장(지하1~3층),서울특별시 성북구 길음로 33 (길음동),36.70375285956174,127.01695436570604,민방위대피시설
삼각산아이원아파트 주차장(121-지하2),"서울특별시 강북구 삼양로19길 113 (미아동, 삼각산아이원아파트)",36.71141905614045,127.01713462946388,민방위대피시설
"SK북한산시티아파트(P206, 129동)(지하2층)","서울특별시 강북구 솔샘로 174 (미아동, SK북한산시티아파트)",36.71416924820895,127.01170324035328,민방위대피시설
엘루체컨벤션 지하2~4층,"서울특별시 서초구 신반포로 23 (반포동, 엘루체)",36.59792008566231,126.9864971301634,민방위대피시설
북아현두산아파트 지하1층,"서울특별시 서대문구 이화여대8길 62 (북아현동, 두산아파트)",36.65536355424624,126.94991919692453,민방위대피시설
포엠빌아파트(지하1층)-수유3동,"서울특별시 강북구 한천로139가길 26 (수유동, 포엠빌아파트)",36.73671396410613,127.02404033427568,민방위대피시설
공릉역(지하1~4층),서울특별시 노원구 동일로 지하 1074 (공릉동),36.72195718828891,127.07110954195596,민방위대피시설
세양빌딩  지하 1층 주차장,"서울특별시 노원구 덕릉로 669 (중계동, 세양빌딩)",36.75357902061503,127.07292063428552,민방위대피시설
상계불암대림아파트 전체동 지하주차장 B1층~B2층,"서울특별시 노원구 덕릉로94길 21 (상계동, 상계불암대림아파트)",36.75941285994261,127.07546390904317,민방위대피시설
휘경미소지움아파트 지하주차장 지하 1층,"서울특별시 동대문구 망우로 105 (휘경동, 휘경미소지움아파트)",36.68778005610053,127.06329262793702,민방위대피시설
남서울힐스테이트아파트 1단지 지하1~2층,서울특별시 금천구 시흥대로 165 (시흥동),36.543972264790746,126.90161555242,민방위대피시설
서울특별시북부여성발전센터 지하1층,서울특별시 노원구 동일로207길 50(중계동),36.73919873383368,127.06016912656726,민방위대피시설
홍제청구3차아파트 지하주차장 지하1~5층,"서울특별시 서대문구 통일로 332 (홍제동, 홍제청구3차아파트)",36.67664210665536,126.95271516141456,민방위대피시설
기산그린아파트-번3동(지하1층),"서울특별시 강북구 월계로37길 137-0 (번동, 기산그린아파트)",36.72366818013365,127.04236249620163,민방위대피시설
중동계룡아파트(지하1층주차장),"서울특별시 마포구 월드컵북로38가길 20 (중동, 중동계룡아파트)",36.66667214173172,126.90626968644932,민방위대피시설
은평평화공원 지하1층,서울특별시 은평구 서오릉로 지하 47 (녹번동),36.70152089689564,126.92324644615896,민방위대피시설
6호선 상수역 지하 1~3층,서울특별시 마포구 독막로 지하85 (상수동),36.64417975067924,126.92296412583758,민방위대피시설
우이동 주민센터(지하1층),"서울특별시 강북구 삼양로139길 49 (수유동, 우이동주민센터,환경미화원후생관)",36.74412333125581,127.0109931974195,민방위대피시설
"길음뉴타운푸르지오2,3단지아파트지하주차장(지하1~6층)",서울특별시 성북구 길음로 119 (길음동),36.70797966987056,127.01517651438294,민방위대피시설
사당우성아파트2단지 지하주차장 1층,"서울특별시 동작구 동작대로29길 91 (사당동, 사당우성아파트)",36.58581182040467,126.97544406337444,민방위대피시설
길음래미안1차아파트 지하주차장(지하1~3층),서울특별시 성북구 길음로9길 40 (길음동),36.70203042334579,127.01923246754733,민방위대피시설
중계그린아파트 상가 지하1층,"서울특별시 노원구 동일로207길 23, 동은유치원 (중계동)",36.73822364228062,127.06257157687864,민방위대피시설
합정역(2호선) 지하1~2층,"서울특별시 마포구 양화로 지하 55, 합정역(2호선) (서교동)",,,민방위대피시설
서울대벤처타운역 (지하1~2층),서울특별시 관악구 신림로 144 (신림동),36.56826138360838,126.93396706176708,민방위대피시설
경남아너스빌 지하주차장 1~2층,"서울특별시 동작구 사당로9가길 82 (사당동, 경남아너스빌 아파트)",36.5844200113039,126.96740582410688,민방위대피시설
"예성그린캐슬2차아파트 주차장 지하1,2층","서울특별시 관악구 남현7길 3, 지하1~2층 (남현동, 예성그린캐슬2차아파트)",36.56971529772911,126.97578045187704,민방위대피시설
대덕트윈빌 101동 지하주차장 1~2층,"서울특별시 금천구 시흥대로112길 6 (독산동, 대덕트윈빌)",36.56348525576264,126.89951397070404,민방위대피시설
송정동 공공복합청사(지하1층~ 3층 주차장),"서울특별시 성동구 송정18가길 9, 송정동 공공복합청사 (송정동)",36.649516352683065,127.06689409835572,민방위대피시설
힐스테이트 녹번 지하1층~3층,"서울특별시 은평구 통일로 610 (녹번동, 힐스테이트 녹번)",36.69793492683714,126.93679071535044,민방위대피시설
상계3.4동주민센터 B1층,"서울특별시 노원구 덕릉로 859 (상계동, 상계3.4동주민센터)",36.76914755861193,127.08144171413524,민방위대피시설
명일주공9단지아파트(전체동의 지하1층),서울특별시 강동구 구천면로 476 (명일동),36.64409998637675,127.1483039837216,민방위대피시설
상도건영아파트 101동 지하주차장 1층,"서울특별시 동작구 만양로 26 (상도동, 건영아파트)",36.60334410796904,126.94958666962204,민방위대피시설
아르테스 웨딩홀(구 교보생명빌딩) 지하주차장 3~5층,서울특별시 동작구 동작대로 59 (사당동),36.57826390361456,126.98088330565255,민방위대피시설
도화동주민센터(지하1층주차장),"서울특별시 마포구 도화길 37 (도화동, 도화공영주차장및주민센터)",36.63775818854489,126.94974490512055,민방위대피시설
월드컵아파트 9단지(지하1~2층주차장),"서울특별시 마포구 월드컵북로 501 (상암동, 상암월드컵파크9단지)",36.67964387859667,126.8793148159793,민방위대피시설
"나산스위트 지하주차장 4,5층","서울특별시 동작구 보라매로5가길 24 (신대방동, 보라매나산스위트)",36.58686522666524,126.92406808692068,민방위대피시설
가야위드안 지하1층,"서울특별시 관악구 봉천로12길 39 (신림동, 가야위드안)",36.58312655478313,126.9301731189156,민방위대피시설
오원빌딩(지하1층주차장),"서울특별시 마포구 백범로 123 (염리동, 신양빌딩)",36.642995367225296,126.9448280275036,민방위대피시설
총신대입구(이수)역(4호선) 지하1~2층,"서울특별시 동작구 동작대로 지하 117 (사당동, 총신대입구(이수)역4호선)",36.58424411189856,126.98170821935054,민방위대피시설
대신증권 지하1층주차장,서울특별시 강동구 양재대로 1596 (명일동),36.644226132521126,127.1412830317687,민방위대피시설
한국전력 노원도봉지사 지하1층 주차장,"서울특별시 노원구 노해로 429 (상계동, 한국전력공사 북부지점)",36.750117072103976,127.05422957225537,민방위대피시설
서광아파트지하1층 주차장,"서울특별시 노원구 마들로1길 44 (월계동, 서광아파트)",36.71933541157844,127.06336585798844,민방위대피시설
관악문화재단 지하 2층,"서울특별시 관악구 신림로3길 35, 관악문화관도서관 (신림동)",36.563684127784114,126.9446749831811,민방위대피시설
다솜금호아파트 주차장(지하1~3층),"서울특별시 구로구 새말로16길 70 (구로동, 다솜금호아파트)",36.59873697176408,126.8924460257931,민방위대피시설
구로동금호아파트 지하1~4주차장,"서울특별시 구로구 공원로 26 (구로동, 금호아파트)",36.5960638595481,126.89265119243804,민방위대피시설
역촌역 6호선 지하1층,"서울특별시 은평구 서오릉로 지하 63 (녹번동, 6호선 역촌역사무소)",36.70241742159969,126.9234302694152,민방위대피시설
"이문 래미안2차아파트 지하주차장 지하1,2층","서울특별시 동대문구 이문로12길 3-10 (이문동, 래미안이문2차아파트)",36.68970851542034,127.05862708004044,민방위대피시설
"휘경 동일스위트리버 지하주차장 지하 1,2층","서울특별시 동대문구 한천로 300 (휘경동, 동일스위트리버)",36.68359879965583,127.06710296092048,민방위대피시설
도화동현대아파트(지하1층주차장),"서울특별시 마포구 새창로 52 (도화동, 도화동현대아파트)",36.63560749967664,126.95362561637248,민방위대피시설
금룡빌딩(지하1층주차장),서울특별시 마포구 성미산로 193 (연남동),36.65909995185554,126.926800559763,민방위대피시설
래미안솔베뉴아파트 지하주차장(지하1층~지하3층),"서울특별시 강동구 양재대로 1650 (명일동, 래미안 솔베뉴)",36.648955950772056,127.1428575435126,민방위대피시설
테크노마트 지하주차장 1~5층,"서울특별시 광진구 광나루로56길 85 (구의동, 테크노마트)",36.63188039042146,127.09385638958322,민방위대피시설
"휘경 주공아파트 지하주차장 지하 1,2층",서울특별시 동대문구 한천로 248 (휘경동),36.679174990164825,127.0691328108796,민방위대피시설
브라운스톤아파트(지하주차장 1~2층),"서울특별시 중랑구 공릉로18길 59 (묵동, 브라운스톤태릉아파트)",36.71493522910284,127.08067409458712,민방위대피시설
사슴3단지아파트 303동 지하1층 주차장,"서울특별시 노원구 월계로55길 15 (월계동, 월계사슴3단지아파트)",36.72792520397344,127.05820190439825,민방위대피시설
강동경찰서 지하1층 ~지하2층주차장,"서울특별시 강동구 성내로 57 (성내동, 강동경찰서)",36.624862871812745,127.12446215820276,민방위대피시설
한국외국어대 교수학습개발원 지하1층,서울특별시 동대문구 이문로 107 (이문동),36.69361651985066,127.05723365360988,민방위대피시설
영등포구청별관 지하1층,"서울특별시 영등포구 선유동1로 80, 영등포구 별관청사 (당산동3가)",36.62463002491258,126.89481125017362,민방위대피시설
청광플러스원아파트 지하주차장 지하1층,"서울특별시 금천구 두산로11길 22 (독산동, 청광플러스원아파트)",36.56741801458178,126.89459867253748,민방위대피시설
장위우방아파트(1개동구성)지하주차장(지하1~2층),서울특별시 성북구 화랑로 235 (장위동),36.706420536581184,127.05360019938442,민방위대피시설
구현대아파트 지하1층,서울특별시 금천구 탑골로3길 50 (시흥동),36.54977071372174,126.91414982249168,민방위대피시설
공장(남부순환로 1521) 지하1층,"서울특별시 관악구 남부순환로 1521, 지하 1층 (신림동)",36.57924791363169,126.91979444333174,민방위대피시설
신사베드로성당 지하1층,"서울특별시 관악구 관천로11길 124, 지하 1층 (신림동)",36.57960688340049,126.9182854811136,민방위대피시설
월계1동 주민센터 지하1층,"서울특별시 노원구 석계로 59 (월계동, 석산빌딩)",36.71611564421725,127.061459899312,민방위대피시설
무악청구1차아파트 제2주차장 지하1~2층,"서울특별시 서대문구 통일로 348 (홍제동, 무악청구아파트)",36.678103429478114,126.95183758998508,민방위대피시설
사당극동아파트 지하주차장 1층,"서울특별시 동작구 동작대로29길 119 (동작동, 정금배드민턴장)",36.58581182040467,126.97544406337444,민방위대피시설
현대아파트 지하주차장 1층,"서울특별시 동작구 사당로13길 86 (사당동, 현대아파트)",36.58429844720015,126.96996625815888,민방위대피시설
송중동주민센터(지하1층),"서울특별시 강북구 오패산로 162 (미아동, 송중동 주민센터)",36.71230737799044,127.03257650517703,민방위대피시설
두산위브트레지움아파트(삼각산동)(지하2~3층),"서울특별시 강북구 삼양로27길 95 (미아동, 두산위브트레지움아파트)",36.71395751985835,127.01595236914946,민방위대피시설
웰피아아파트 지하1층,"서울특별시 관악구 관천로18길 27 (신림동, 웰피아)",36.58414000042313,126.9245855175513,민방위대피시설
아셈그린힐 지하주차장 지하1층,"서울특별시 금천구 독산로78다길 22 (독산동, 아셈그린힐)",36.56548890599185,126.9055357207,민방위대피시설
홍제원현대아파트 제5주차장 지하1~2층,"서울특별시 서대문구 통일로34길 43 (홍제동, 홍제원현대아파트)",36.68384840106469,126.94940539795893,민방위대피시설
래미안 트리베라2차 아파트(삼각산동)(지하3층),서울특별시 강북구 삼양로27길 19 (미아동),36.71350478392472,127.01938210127835,민방위대피시설
건양노블레스지하1층 주차장,"서울특별시 노원구 화랑로45길 42-18 (월계동, 건양노블레스아파트)",36.71339865512875,127.0648802999912,민방위대피시설
길음래미안 3차아파트 지하주차장(지하1~3층),서울특별시 성북구 길음로 16 (길음동),36.70246080775103,127.02184479931,민방위대피시설
홍제원현대아파트 제4주차장 지하1층,"서울특별시 서대문구 통일로34길 43 (홍제동, 홍제원현대아파트)",36.68384840106469,126.94940539795893,민방위대피시설
시냇가푸른나무교회 지하1층,"서울특별시 관악구 인헌1길 29, 시냇가푸른나무교회 지하1층 (봉천동)",36.57097615942045,126.96827484134649,민방위대피시설
농협 지하1층,"서울특별시 관악구 인헌6길 16, 지하1층 (봉천동)",36.57033694063954,126.96567235616465,민방위대피시설
동아불암아파트 전체동 지하주차장 B1층~B3층,"서울특별시 노원구 덕릉로 780 (상계동, 동아불암아파트)",36.76315832220536,127.07796645177396,민방위대피시설
불암현대아파트 전체동 지하주차장 B1층~B4층,"서울특별시 노원구 덕릉로118길 29 (상계동, 상계불암현대아파트)",36.76403111424634,127.07987341359228,민방위대피시설
답십리 청계벽산메가트리움 지하주차장 지하1층,서울특별시 동대문구 천호대로 241 (답십리동),36.66604587666362,127.04833254783664,민방위대피시설
"용두두산위브아파트 지하주차장 지하1,2층","서울특별시 동대문구 정릉천동로 16 (용두동, 용두두산위브)",36.66961507626554,127.03501069059654,민방위대피시설
예성그린캐슬1차아파트 주차장 지하1층,"서울특별시 관악구 남현7길 20, 지하1층 (남현동, 예성그린캐슬아파트)",36.56941776500668,126.97624604521911,민방위대피시설
부영그린타운3차(지하2~6층) 주차장,"서울특별시 양천구 목동동로 411 (목동, 부영그린타운3차)",36.632913852170304,126.882821999016,민방위대피시설
남서울힐스테이트아파트 2단지 지하1~2층,서울특별시 금천구 시흥대로 165 (시흥동),36.543972264790746,126.90161555242,민방위대피시설
효성인텔리언빌딩(지하2층)-수유3동,"서울특별시 강북구 도봉로 313 (수유동, 효성인텔리안오피스텔)",36.73262681530606,127.02235467639473,민방위대피시설
성실교회(지하2~3층 주차장)-수유3동,"서울특별시 강북구 노해로 50 (수유동, 성실교회)",36.736333474785646,127.02185551600677,민방위대피시설
성내동삼성아파트(전체동 지하1층),"서울특별시 강동구 풍성로 128 (성내동, 성내동삼성아파트)",36.62694109171759,127.12372325306,민방위대피시설
강변한솔솔파크 지하주차장 1~2 층,"서울특별시 강서구 양천로63길 38 (염창동, 강변한솔솔파크)",36.65287089392976,126.86734881498556,민방위대피시설
상계1동 주민센터 지하1층,"서울특별시 노원구 동일로 1697 (상계동, 상계1동주민센터)",36.7760534927151,127.0534560476421,민방위대피시설
경동제약 지하1~3층,"서울특별시 관악구 남부순환로 1926, 경동제약빌딩 지하3층 (봉천동)",36.57311596850655,126.9627763035049,민방위대피시설
개포2동주민센터(지하1층),"서울특별시 강남구 개포로 511 (개포동, 개포2동주민센터)",36.58595583066621,127.06748711618668,민방위대피시설
이튼타워리버5차아파트 지하주차장 1~2층,"서울특별시 광진구 능동로4길 40, 지하주차장 1층 (자양동, 이튼타워리버5차)",36.62836523286629,127.06743803370044,민방위대피시설
은천성결교회 지하1층,"서울특별시 관악구 관천로 119, 은천성결교회 지하 1층 (신림동)",36.58458786337352,126.92118135704268,민방위대피시설
진흥아파트 지하주차장 1~2층,"서울특별시 동작구 사당로16아길 43 (사당동, 진흥아파트)",36.57643573176397,126.96871219842866,민방위대피시설
성원그린아파트(지하1층) - 우이동,"서울특별시 강북구 삼양로139가길 63 (우이동, 성원그린아파트)",36.74806236172456,127.00997970079972,민방위대피시설
홈플러스 지하3층~지하6층 주차장,서울특별시 강동구 양재대로 1571 (천호동),36.641901318641736,127.139793535604,민방위대피시설
목동한신청구아파트(지하1~2층) 주차장,"서울특별시 양천구 목동서로2길 22 (목동, 한신청구아파트)",36.63764169408839,126.88227190081932,민방위대피시설
바라본아파트 지하1층 주차장,"서울특별시 관악구 복은길 129-13 (신림동, 바라본아파트)",36.57172054602168,126.94224472569326,민방위대피시설
구립 파란들어린이집 지하1층,서울특별시 양천구 가로공원로 85 (신월동),36.63186591049765,126.82664352433991,민방위대피시설
신월청소년문화센터 지하1층,"서울특별시 양천구 가로공원로 86 (신월동, 신월청소년문화쎈타)",36.631420156060535,126.82676877659443,민방위대피시설
"동대문구청 지하주차장 1층,2층",서울특별시 동대문구 천호대로 145 (용두동),36.67060471659423,127.03850106898656,민방위대피시설
금성초등학교(지하주차장 1층),"서울특별시 중랑구 신내로21길 55 (신내동, 금성초등학교)",36.71126996593716,127.08780417675445,민방위대피시설
남구로역 지하(지하1~3층),"서울특별시 구로구 도림로 지하 7 (구로동, 남구로역)",36.5810940444125,126.88726642458342,민방위대피시설
정호진아트빌 지하1층주차장,"서울특별시 관악구 남부순환로 1962, 정호진 아트힐 지하2층 (봉천동)",36.57179113889005,126.96606525902936,민방위대피시설
6호선 광흥창역 지하 1~3층,서울특별시 마포구 독막로 지하165 (창전동),36.64364820086988,126.93247525557152,민방위대피시설
남태령역 4호선  지하1~지하3층,"서울특별시 서초구 과천대로 지하 816 (방배동, 남태령역)",36.56054609172079,126.98862422439818,민방위대피시설
가양역 지하 1층,"서울특별시 강서구 양천로 지하 485 (가양동, 가양역)",36.65794605928316,126.85494207041572,민방위대피시설
롯데우성아파트107동 지하1층 주차장,"서울특별시 노원구 노원로22길 34 (중계동, 롯데아파트,우성아파트)",36.74302726755375,127.07118856980316,민방위대피시설
천호1동 공영주차장  지하1층~지하3층 주차장,"서울특별시 강동구 구천면로42길 60 (천호동, 천호동 노외주차장)",36.64078239279176,127.13422925141288,민방위대피시설
전농 우성아파트 지하주차장 지하 1층,"서울특별시 동대문구 사가정로 190 (전농동, 전농우성아파트)",36.67345881631255,127.0634122418386,민방위대피시설
현대7단지아파트 지하주차장 1~2층,"서울특별시 광진구 구의강변로3가길 39 (구의동, 구의7단지조합현대아파트)",36.63301831396143,127.089078940863,민방위대피시설
금호어울림아파트(지하주차장 1층),"서울특별시 중랑구 공릉로2길 39 (묵동, 금호어울림아파트)",36.70891874171687,127.07831709026108,민방위대피시설
중계4동주민센터 지하1층,"서울특별시 노원구 덕릉로82길 50 (중계동, 중계4동주민센터)",36.75497823698459,127.0762588857854,민방위대피시설
염광아파트 지하1층 주차장,"서울특별시 노원구 덕릉로79길 23-0 (중계동, 염광아파트)",36.75238098484652,127.0713035986559,민방위대피시설
순영웰라이빌 지하주차장(지하1~5층),"서울특별시 구로구 가마산로 280 (구로동, 구로2차순영웰라이빌)",36.592413900080274,126.89196221954587,민방위대피시설
"전농동 동아아파트 지하주차장 지하 1,2층",서울특별시 동대문구 서울시립대로 31 (전농동),36.67106854814581,127.0443855303437,민방위대피시설
"답십리 청계한신휴플러스 아파트 지하주차장 지하1,2층",서울특별시 동대문구 서울시립대로 14 (답십리동),36.66855714248351,127.04466462497052,민방위대피시설
"롯데백화점 청량리역사점 지하1층, 2층","서울특별시 동대문구 왕산로 214 (전농동, 청량리역,롯데백화점)",36.67716463686921,127.04565878168528,민방위대피시설
"답십리 한화아파트 지하주차장 지하 1,2층",서울특별시 동대문구 고미술로 57 (답십리동),36.66311805494389,127.05255797291572,민방위대피시설
대림오페라타워 지하주차장(지하2~5층),"서울특별시 구로구 구로중앙로 60 (구로동, 대림오페라타워)",36.59132226428976,126.88993882164552,민방위대피시설
신한은행 독산동지점 지하1층,서울특별시 금천구 시흥대로 446 (독산동),36.56935948871006,126.89922074163982,민방위대피시설
6호선 마포구청역(지하1~2층),"서울특별시 마포구 월드컵로 지하 190 (성산동, 마포구청역)",,,민방위대피시설
"장안 동대문퍼스트데시앙지하주차장 지하1,2층","서울특별시 동대문구 장한로27가길 37(장안동, 동대문더퍼스트데시앙)",36.67107431032679,127.06898101149368,민방위대피시설
대우빌라(지하1층주차장),"서울특별시 마포구 월드컵북로18길 26 (성산동, 대우빌라)",36.65995828113922,126.91505528944468,민방위대피시설
"휘경 동부센트레빌 아파트 지하주차장 지하 1,2층",서울특별시 동대문구 외대역동로 14 (휘경동),36.68721489800472,127.06680811927224,민방위대피시설
중앙하이츠아파트 지하 1층 주차장,"서울특별시 노원구 한글비석로14길 37 (중계동, 중앙하이츠아파트)",36.7553289249794,127.07471301959288,민방위대피시설
동아아파트 지하1~3층 주차장,"서울특별시 서초구 신반포로33길 15 (잠원동, 동아아파트)",36.60490537971115,127.00925586158458,민방위대피시설
세이브존 노원점 지하주차장 2층,"서울특별시 노원구 한글비석로 57, 세이브존 (하계동)",36.73406289815085,127.06711558628498,민방위대피시설
시흥중앙교회 지하1층,"서울특별시 금천구 시흥대로72길 13 (시흥동, 시흥중앙교회(세나유치원))",36.553391374835805,126.90064182266111,민방위대피시설
"제기벽산아파트 지하주차장 지하1,2층 정문,102동앞",서울특별시 동대문구 약령시로 25 (제기동),36.67964050891556,127.03075461488643,민방위대피시설
청원빌딩(지하1~2층주차장),서울특별시 마포구 월드컵북로 122 (성산동),36.66030054488239,126.91346986003975,민방위대피시설
"전농 래미안 아름숲아파트 지하주차장 지하 1,2층","서울특별시 동대문구 전농로16길 51 (전농동, 래미안아름숲)",36.6771315725984,127.05957604547696,민방위대피시설
롯데우성아파트103동 지하1층 주차장,"서울특별시 노원구 노원로22길 34 (중계동, 롯데아파트,우성아파트)",36.74302726755375,127.07118856980316,민방위대피시설
"전농래미안 크레시티 아파트 지하주차장 지하1,2층","서울특별시 동대문구 사가정로 65 (전농동, 래미안크레시티아파트)",36.67247097653024,127.04927932171309,민방위대피시설
"답십리 래미안위브 아파트 지하주차장 지하1,2층","서울특별시 동대문구 답십리로 130 (답십리동, 래미안위브아파트)",36.66822372198121,127.05253618057657,민방위대피시설
"서울시립대 조형관 지하 1, 2층","서울특별시 동대문구 서울시립대로 163 (전농동, 서울시립대학교)",36.67961151139978,127.05853935231364,민방위대피시설
롯데우성아파트101동 지하1층 주차장,"서울특별시 노원구 노원로22길 34 (중계동, 롯데아파트,우성아파트)",36.74302726755375,127.07118856980316,민방위대피시설
에벤에셀프라자(지하1~2층),서울특별시 금천구 금하로 720 (시흥동),36.54658528523893,126.90972991595444,민방위대피시설
현대프라임아파트 지하주차장 1층,"서울특별시 광진구 광나루로56길 29 (구의동, 현대프라임아파트)",36.63357870392746,127.09569069137324,민방위대피시설
DMC덕원아파트 지하주차장 1~2층,"서울특별시 은평구 증산로 221 (증산동, 덕원아파트)",36.674975420283054,126.90394679168756,민방위대피시설
기산프라자 지하주차장(지하2~3층),"서울특별시 구로구 구로동로26길 8, 지하주차장동 (구로동, 기산빅프라자)",36.58648844125148,126.8853154188874,민방위대피시설
"동영문화센터(지하2,3,4)","서울특별시 강남구 언주로 337 (역삼동, 동영문화센터)",36.59396476326654,127.04279521640736,민방위대피시설
세방아파트(지하주차장 1층),"서울특별시 중랑구 숙선옹주로9길 25 (묵동, 세방아파트)",36.71161859721431,127.08181540638434,민방위대피시설
구민체육센터(지하주차장 1층),"서울특별시 중랑구 신내로15길 189 (묵동, 중랑구민체육센터)",36.71136008389966,127.08565853671377,민방위대피시설
두산아파트 지하주차장(지하1층),"서울특별시 구로구 도림로 59, 지하주차장동 (구로동, 구로두산아파트)",36.58551585216428,126.88978387802622,민방위대피시설
금호타운아파트101동 지하1층,"서울특별시 노원구 한글비석로46나길 10 (상계동, 금호아파트)",36.76348827023784,127.06722628629636,민방위대피시설
길음래미안2차아파트 지하주차장(지하2층),서울특별시 성북구 길음로 74 (길음동),36.70587738807497,127.01968720982067,민방위대피시설
명일1동 공영주차장(지하1층),서울특별시 강동구 구천면로 395 (명일동),36.64713545175819,127.14040607966282,민방위대피시설
금호타운아파트102동 지하1층,"서울특별시 노원구 한글비석로46나길 10 (상계동, 금호아파트)",36.76348827023784,127.06722628629636,민방위대피시설
묵동자이아파트 2단지(지하주차장 2~4층),"서울특별시 중랑구 동일로 932 (묵동, 묵동자이아파트)",36.71003884642951,127.07585722004616,민방위대피시설
남산타운문화체육센터 지하1층,"서울특별시 중구 다산로 32 (신당동, 남산타운)",36.645195720443226,127.00839214266097,민방위대피시설
동산빌딩(지하1층 주차장),서울특별시 강동구 양재대로 1584 (명일동),36.64318887760216,127.14115509577044,민방위대피시설
시흥유통상가 A지원~B지원 지하1층,"서울특별시 금천구 시흥대로 97 (시흥동, 시흥유통상가)",36.53949874828498,126.90201959927651,민방위대피시설
유당빌딩(지하1층),서울특별시 금천구 시흥대로 350 (독산동),36.56071627946599,126.89846901994092,민방위대피시설
유창빌딩 지하주차장 지하1층,"서울특별시 금천구 범안로 1209 (독산동, 협진식품빌딩)",36.56293881708256,126.8969107062908,민방위대피시설
한신아파트 1~13동 지하1층,"서울특별시 금천구 한내로 62 (독산동, 한신아파트)",36.552690688433,126.88856773161784,민방위대피시설
현대아파트 101동 ~ 102동 지하1층,"서울특별시 금천구 범안로17길 12 (독산동, 독산현대아파트)",36.56362815697576,126.89546153557605,민방위대피시설
경남아너스빌아파트  주차장 지하1층,"서울특별시 노원구 덕릉로94길 10 (중계동, 경남아너스빌)",36.75827203676081,127.0753884968304,민방위대피시설
자양우성7차아파트 지하주차장 1~2층,"서울특별시 광진구 아차산로36길 39, 지하주차장 1층 (자양동, 자양7차우성아파트)",36.63253216816206,127.07293775346164,민방위대피시설
효성네오인텔리안(지하2~6층 주차장)(번1동),"서울특별시 강북구 도봉로 352(번동, 효성네오인텔리안)",36.73487133589271,127.02594122945348,민방위대피시설
일주빌딩 지하1층~지하2층,서울특별시 강동구 구천면로 304 (천호동),36.64286620087639,127.13255233295013,민방위대피시설
수송초등학교(지하2층 주차장) (번1동),"서울특별시 강북구 한천로124길 14 (번동, 수송초등학교)",36.733290881998194,127.03183041207026,민방위대피시설
KT노원지사 지하2층 주차장,서울특별시 노원구 노해로 502 (상계동),36.750649980909095,127.06215919107528,민방위대피시설
"금천현대아파트101~103,104~107,108~110","서울특별시 금천구 벚꽃로 73 (독산동, 금천현대아파트)",36.55843295673547,126.8908945584424,민방위대피시설
덕왕빌딩(지하1층),"서울특별시 금천구 독산로64길 15, 나무빌딩 (독산동)",36.56143424993446,126.9038445800194,민방위대피시설
"장미아파트 에이동, 비동 지하1층","서울특별시 금천구 문성로 27 (독산동, 장미아파트)",36.57297753647357,126.90694068794268,민방위대피시설
성지아파트 지하1층,"서울특별시 금천구 시흥대로51길 55 (시흥동, 성지아파트)",36.55038497583032,126.90921793681191,민방위대피시설
현대6단지아파트 지하주차장 1층,"서울특별시 광진구 구의강변로 94 (구의동, 현대아파트)",36.634679624558,127.09276869292216,민방위대피시설
태림빌딩 지하2층 주차장,"서울특별시 관악구 남부순환로 2056, 태림빌딩 지하2층 (남현동)",36.57248333070351,126.97671210142636,민방위대피시설
목련아파트 지하1층,"서울특별시 금천구 금하로3길 26 (시흥동, 시흥목련아파트)",36.55075793524979,126.89808982855308,민방위대피시설
독산고등학교 지하1층,"서울특별시 금천구 문성로 64 (독산동, 독산고등학교)",36.57235122028205,126.91119443731256,민방위대피시설
동문아파트 지하1층 주차장,"서울특별시 관악구 신림로31가길 19 (신림동, 동문아파트)",36.57250165859099,126.9357792890712,민방위대피시설
태영빌딩 지하1층,"서울특별시 관악구 신림로 206 (신림동, 태영빌딩)",36.57185701970666,126.93738645674075,민방위대피시설
어린이대공원역 지하 1~3층,"서울특별시 광진구 능동로 지하 210 (능동, 어린이대공원)",36.64938695512843,127.07948547976254,민방위대피시설
진도2차아파트 1개동 주차장 지하1층,"서울특별시 금천구 두산로 36 (독산동, 진도아파트)",36.56618145160114,126.89270643597266,민방위대피시설
경남아파트 101동 지하1층,"서울특별시 금천구 독산로 78-1 (시흥동, 경남아파트)",36.55076803114697,126.90696530165008,민방위대피시설
삼익아파트 시흥동 101동 ~ 113동 지하1층,"서울특별시 금천구 독산로50길 89 (시흥동, 삼익아파트)",36.55944831249056,126.90973240958866,민방위대피시설
상계10동 주민센터 지하1층,"서울특별시 노원구 노원로 530 (상계동, 상계10동주민센터)",36.75746599882485,127.05876172052989,민방위대피시설
강변우성아파트 지하주차장 1층,"서울특별시 광진구 구의강변로 42 (구의동, 구의동강변우성아파트)",36.631520580154046,127.09105579252532,민방위대피시설
탐라영재관 지하주차장 2~3층,"서울특별시 강서구 양천로57길 10-10 (가양동, 탐라영재관)",36.65895008219333,126.85371483812592,민방위대피시설
킴스클럽 지하3층 주차장,"서울특별시 서초구 잠원로 69 (잠원동, 킴스클럽)",36.60641842733608,127.00602254881314,민방위대피시설
"제네스타워빌딩 지하2,3층 주차장-수유1동","서울특별시 강북구 덕릉로 82 (수유동, 제네스타워)",36.73059952059346,127.02180158181436,민방위대피시설
무악청구1차아파트 제5주차장 지하1~2층,"서울특별시 서대문구 통일로 348 (홍제동, 무악청구아파트)",36.678103429478114,126.95183758998508,민방위대피시설
장성그랜드사우나 지하1~2층,"서울특별시 동작구 장승배기로 113 (노량진동, 장성빌딩)",36.60400837598567,126.9395072882227,민방위대피시설
해오름아파트(지하주차장 1층),"서울특별시 중랑구 공릉로4길 4 (묵동, 묵동해오름아파트)",36.70929446843646,127.07639948417128,민방위대피시설
대우그린빌라(지하1층),"서울특별시 금천구 시흥대로90길 10 (독산동, 대우그린빌라)",36.55706748111992,126.89936860733827,민방위대피시설
혜전빌딩 지하2층,"서울특별시 금천구 시흥대로 488 (독산동, 혜전빌딩)",36.57323554099352,126.89969198495392,민방위대피시설
"사당역(2,4호선) 지하 1~3층","서울특별시 동작구 동작대로 지하 3 (사당동, 사당역(4호선))",36.573080409870855,126.98106982055522,민방위대피시설
상도더샵아파트 109동 지하주차장1층,"서울특별시 동작구 장승배기로4길 9 (상도동, 상도더샵아파트)",36.59825261338106,126.9428661456149,민방위대피시설
동작역(4호선) 지하1층,"서울특별시 동작구 현충로 257 (동작동, 4호선동작역Dongjaks.t)",36.59903517453013,126.97944187116272,민방위대피시설
한국아파트(지하주차장 1층~3층),"서울특별시 중랑구 중랑천로 332 (묵동, 묵동한국아파트)",36.71053088813483,127.07184447918918,민방위대피시설
무악청구1차아파트 제3주차장 지하1~2층,"서울특별시 서대문구 통일로 348 (홍제동, 무악청구아파트)",36.678103429478114,126.95183758998508,민방위대피시설
풍산빌딩 지하2층~지하7층,"서울특별시 서대문구 충정로 23 (충정로3가, 풍산빌딩)",36.65745530109214,126.96266985399603,민방위대피시설
"동아하이빌아파트(지하1층, 지하3층, 지하5층 주차장)",서울특별시 강동구 구천면로 278 (천호동),36.6408964318033,127.1320551319406,민방위대피시설
롯데우성아파트109동 지하1층 주차장,"서울특별시 노원구 노원로22길 34 (중계동, 롯데아파트,우성아파트)",36.74302726755375,127.07118856980316,민방위대피시설
삼양동 삼성레미안아파트 주차장 지하2층,"서울특별시 강북구 삼양로 256 (미아동, 래미안미아1차아파트)",36.72217119765144,127.0183975062237,민방위대피시설
포르텔오피스텔(지하2층 주차장)(번1동),서울특별시 강북구 한천로 1003 (번동),36.73404332875848,127.02838618321996,민방위대피시설
수유1동 주민센터 지하2층 주차장,"서울특별시 강북구 삼양로 299 (수유동, 수유1동 주민센터,수유문화정보도서관)",36.72627295303115,127.01662280910652,민방위대피시설
홍제원현대아파트 제3주차장 지하1~2층,"서울특별시 서대문구 통일로34길 43 (홍제동, 홍제원현대아파트)",36.68384840106469,126.94940539795893,민방위대피시설
인왕산아이파크아파트 주차장 지하2층,"서울특별시 종로구 통일로16길 8-3, 109동 지하1층 (무악동, 인왕산아이파크)",36.67318843360011,126.95716944382076,민방위대피시설
월계3동주민센터 지하1층 창고,"서울특별시 노원구 마들로 57-0 (월계동, 월계3동주민센터)",36.71715678986162,127.06766762977148,민방위대피시설
명일지에스아파트(전동지하1층),서울특별시 강동구 상암로51길 61 (명일동),36.64520141695304,127.14316885094854,민방위대피시설
KCC아파트 지하주차장 1~2층,서울특별시 동작구 사당로20나길 57 (사당동),36.57746756039199,126.97322594278862,민방위대피시설
동아아파트 지하주차장 1층,서울특별시 동작구 양녕로23길 43 (상도동),36.59242298931108,126.93997164289075,민방위대피시설
경향렉스빌아파트 지하주차장 1~3층,서울특별시 동작구 양녕로23길 9 (상도동),36.59147136828671,126.94183989489764,민방위대피시설
도화공영주차장 지하1층,"서울특별시 동작구 성대로17길 지하 52 (상도동, 도화공영주차장)",36.59583450029852,126.93518677662672,민방위대피시설
삼익아파트 지하1층,"서울특별시 동작구 양녕로26나길 8 (상도동, 삼익아파트)",36.593316257912136,126.94449032141274,민방위대피시설
상도2차갑을명가아파트 지하주차장 1층,"서울특별시 동작구 국사봉길 175 (상도동, 상도2차갑을명가아파트)",36.58974272618609,126.93522920329394,민방위대피시설
삼원타워 지하 2~4층,"서울특별시 강남구 테헤란로 124, 삼원타워 (역삼동)",36.59487468936343,127.03042557791278,민방위대피시설
지하철 이태원역(지하1~5층),"서울특별시 용산구 이태원로 지하177, 6호선 이태원역 지하층 (이태원동)",36.63072715765345,126.99393371833207,민방위대피시설
신안1차아파트(지하주차장 1층),"서울특별시 중랑구 공릉로2라길 15 (묵동, 신안1차아파트)",36.70904805261023,127.0792565151661,민방위대피시설
노량진우성아파트 지하주차장 1~2층,"서울특별시 동작구 만양로8길 50 (노량진동, 우성아파트)",36.60580562990826,126.94764009217738,민방위대피시설
금호베스트빌 지하1~2층,"서울특별시 서초구 나루터로 46 (잠원동, 금호베스트빌아파트)",36.61079252195356,127.01320040459257,민방위대피시설
그랑빌아파트 지하주차장1층,"서울특별시 노원구 마들로 31 (월계동, 그랑빌아파트)",36.71399632795579,127.06697881733108,민방위대피시설
삼성래미안아파트 지하주차장 1~3층,"서울특별시 동작구 사당로23바길 9 (사당동, 동작삼성래미안아파트)",36.5853501220611,126.97002199690724,민방위대피시설
롯데캐슬아파트 지하주차장 1~3층,"서울특별시 동작구 사당로27길 190 (사당동, 롯데캐슬)",36.58695037959876,126.97205640436536,민방위대피시설
노원역 7호선 지하1층,"서울특별시 노원구 동일로 지하1409, 노원역 7호선 (상계동)",36.74970727059827,127.05930872382454,민방위대피시설
롯데캐슬비엔아파트 지하주차장 1~2층,"서울특별시 동작구 양녕로 170 (상도동, 상도동 롯데캐슬비엔)",36.59299987107394,126.94346499958786,민방위대피시설
리젠트오피스텔 지하주차장 1~4층,"서울특별시 광진구 강변역로4길 68 (구의동, 리젠트오피스텔)",36.62870752489737,127.09083533196797,민방위대피시설
동서울터미널 지하주차장 2~3층,"서울특별시 광진구 강변역로 50 (구의동, 동서울터미널빌딩)",36.63009799009205,127.09170283219032,민방위대피시설
"강동구의회 지하1층~지하2층 식당,주차장","서울특별시 강동구 성내로 55 (성내동, 강동구의회의사당)",36.624862871812745,127.12446215820276,민방위대피시설
신대방경남아파트 지하주차장 1~2층,"서울특별시 동작구 신대방길 85 (신대방동, 경남아파트)",36.585583164343,126.90872501416514,민방위대피시설
"힐스테이트 상도 센트럴파크 지하주차장 P1, P2","서울특별시 동작구 상도로 346-1 (상도동, 힐스테이트 상도 센트럴파크)",36.59158391807086,126.9506726021274,민방위대피시설
힐스테이트 상도 프레스티지 지하주차장 1~3층,"서울특별시 동작구 상도로 346-2 (상도동, 힐스테이트 상도 프레스티지)",36.59270981806805,126.94876832498636,민방위대피시설
(주)한섬 성내사옥 본관 지하1층,"서울특별시 강동구 강동대로 195 (성내동, 뉴타임빌딩)",36.620643315464605,127.12604816563478,민방위대피시설
사당동삼성아파트 지하주차장 1층,"서울특별시 동작구 동작대로35아길 14 (사당동, 사당동삼성아파트)",36.589526910754245,126.97879125973346,민방위대피시설
명일역 지하1층 역사,"서울특별시 강동구 양재대로 지하 1632 (명일동, 명일역)",,,민방위대피시설
남성역(7호선) 지하1~3층,"서울특별시 동작구 사당로 지하 218 (사당동, 남성역 7호선)",36.5809087783599,126.97067701027088,민방위대피시설
이수역(7호선) 지하1~3층,"서울특별시 동작구 사당로 지하 310 (사당동, 이수역(7호선))",36.58134271296671,126.98060407776472,민방위대피시설
굽은다리역 지하1층,"서울특별시 강동구 양재대로 지하 1572 (명일동, 굽은다리역)",36.64223551997762,127.140700039934,민방위대피시설
이태원 지하보도(지하1층),서울특별시 용산구 녹사평대로 228 (이태원동),36.63412761434313,126.98637559299354,민방위대피시설
"경희의료원 지하 1,2층","서울특별시 동대문구 경희대로 23 (회기동, 경희의료원)",36.692902499335645,127.05000884846136,민방위대피시설
"경희대학교 청운관 지하 1,2층",서울특별시 동대문구 경희대로 26 (회기동),36.692902499335645,127.05000884846136,민방위대피시설
은혜교회 지하1층,"서울특별시 동작구 여의대방로22길 120 (신대방동, 은혜교회)",36.594156961738285,126.92670863425656,민방위대피시설
성원상떼빌 지하주차장 1~4층,"서울특별시 동작구 신대방1가길 38 (신대방동, 동작상떼빌아파트)",36.58369564873247,126.90716398584416,민방위대피시설
국민은행 명일동지점(지하1층 주차장),서울특별시 강동구 양재대로 1661 (명일동),36.6500356990322,127.14142587600384,민방위대피시설
사당휴먼시아아파트 지하주차장 1~3층,"서울특별시 동작구 사당로16길 96 (사당동, 사당휴먼시아아파트)",36.57513365134138,126.96972002352165,민방위대피시설
홍제원현대아파트 제2주차장 지하1층,"서울특별시 서대문구 통일로34길 43 (홍제동, 홍제원현대아파트)",36.68384840106469,126.94940539795893,민방위대피시설
"경희의료원 주차빌딩 지하주차장 지하1,2층",서울특별시 동대문구 경희대로1나길 56-3 (회기동),36.68979260290158,127.04898275237404,민방위대피시설
래미안수유아파트107동(지하2층 주차장) (수유2동),"서울특별시 강북구 한천로159길 8 (수유동, 래미안수유아파트)",36.74090656330253,127.01707166811904,민방위대피시설
노원프라자 주차장 지하2층,"서울특별시 노원구 상계로 51 (상계동, 노원프라자빌딩)",36.75224368899809,127.05932452832356,민방위대피시설
당산근린공원 지하1~2층 주차장,서울특별시 영등포구 당산로27길 12 (당산동3가),36.62169192066397,126.89621904128836,민방위대피시설
순천향대학병원(지하1~2층),"서울특별시 용산구 대사관로 59, 순천향대학병원 신관 지하 1~2층 (한남동)",36.62988717801038,127.0034769188382,민방위대피시설
지하철 2호선 영등포구청역 지하1~2층 역사,"서울특별시 영등포구 당산로 지하121, 영등포구청역 (당산동3가)",36.62154744415936,126.89729998371442,민방위대피시설
강동수도사업소 지하1층,"서울특별시 강동구 성내로 51 (성내동, 강동수도사업소)",36.62519652093266,127.1237664513727,민방위대피시설
한신무학아파트 지하1층,"서울특별시 성동구 왕십리로31나길 18 (하왕십리동, 한신무학아파트)",36.65853686369141,127.02726503212578,민방위대피시설
독바위역( 6호선) 대합실 지하1층~6층,"서울특별시 은평구 불광로 지하 129-1 (불광동, 6호선 독바위역사무소)",36.714570960312805,126.9328735095915,민방위대피시설
로얄동아아파트 지하주차장 지하1~2층,"서울특별시 광진구 뚝섬로52마길 56 (자양동, 로얄동아아파트)",36.62438085435912,127.07966429236625,민방위대피시설
월곡3에스에이치빌지하주차장 1층~2층,서울특별시 성북구 오패산로 90 (하월곡동),36.70663241039539,127.03565901143892,민방위대피시설
상계주공아파트 12단지 관리동 지하1층,"서울특별시 노원구 한글비석로 530 (상계동, 상계주공12단지아파트)",36.76236727383642,127.05783860324864,민방위대피시설
무악청구1차아파트 제1주차장 지하1~2층,"서울특별시 서대문구 통일로 348 (홍제동, 무악청구아파트)",36.678103429478114,126.95183758998508,민방위대피시설
주공15단지 지하1층 헬스장,"서울특별시 노원구 동일로227길 26 (상계동, 상계주공15단지아파트)",36.76498480144212,127.0523109175951,민방위대피시설
마곡엠밸리12단지 지하주차장 1~2층,"서울특별시 강서구 공항대로 140-0 (마곡동, 마곡엠밸리12단지)",36.65537986116583,126.8242424602473,민방위대피시설
마곡엠밸리15단지 지하주차장 1~2층,"서울특별시 강서구 마곡중앙로 36 (마곡동, 마곡엠밸리15단지)",36.65293588537036,126.8293723241854,민방위대피시설
파스칼진 빌딩(지하2층 주차장)(번1동),"서울특별시 강북구 덕릉로 113 (번동, 파스칼진빌딩)",36.731384677611466,127.0252712013134,민방위대피시설
영신여자고등학교 독서실,"서울특별시 노원구 중계로16나길 13 (중계동, 영신여고/영신간호비즈니스고등학교)",36.74839770232412,127.08123932974247,민방위대피시설
"월드메르디앙아파트 지하주차장 101동, 102동지하1층","서울특별시 금천구 독산로36길 36 (시흥동, 월드메르디앙아파트)",36.55588990837191,126.90744160538,민방위대피시설
홈플러스 테스코 금천점 지하주차장 지하1층,"서울특별시 금천구 시흥대로 391 (독산동, 삼성홈플러스)",36.56485604182256,126.89733168193906,민방위대피시설
렉스빌 연립주택 지하1층,"서울특별시 금천구 시흥대로28길 42 (시흥동, 렉스빌)",36.5384379533984,126.90646605725522,민방위대피시설
삼일아파트 지하1층,"서울특별시 금천구 시흥대로24길 32 (시흥동, 삼일아파트)",36.53739421424158,126.9066472653454,민방위대피시설
무악청구1차아파트 제6주차장 지하1~2층,"서울특별시 서대문구 통일로 348 (홍제동, 무악청구아파트)",36.678103429478114,126.95183758998508,민방위대피시설
양재4지하보도 지하1층,"서울특별시 강남구 삼성로 14 (개포동, 개포자이 프레지던스)",36.58173248902239,127.06971891734128,민방위대피시설
마곡엠밸리11단지 지하주차장 1~2층,서울특별시 강서구 공항대로 124-0 (마곡동),36.65553783476948,126.8224354402028,민방위대피시설
수유역두산위브아파트1 지하1층 주차장(번1동),"서울특별시 강북구 덕릉로41길 12 (번동, 수유역 두산위브 아파트 1)",36.73203383561778,127.03085905295278,민방위대피시설
형인휴아름아파트(지하1층)-수유3동,"서울특별시 강북구 수유로23길 48 (수유동, 형인휴아름)",36.73459075260095,127.02115219271312,민방위대피시설
상계6.7동주민센터 지하1층,"서울특별시 노원구 노원로 429, 상계6.7동주민센터 (상계동)",36.75108479742714,127.06539120431508,민방위대피시설
시흥빌딩 지하1층,서울특별시 금천구 시흥대로 155 (시흥동),36.544203833564566,126.9028213402735,민방위대피시설
스카이 아파트 지하1층,"서울특별시 금천구 시흥대로47길 35 (시흥동, 스카이아파트)",36.54570477339356,126.9006685412317,민방위대피시설
산호시티빌아파트 지하1~3층,"서울특별시 금천구 시흥대로 251 (시흥동, 도일산호시티빌)",36.55228757935818,126.8999365823812,민방위대피시설
새한벤쳐월드 지하1~3층,"서울특별시 금천구 시흥대로 281 (시흥동, 새한벤처월드)",36.55471679605555,126.89853982789734,민방위대피시설
자양현대2차아파트 지하주차장 1~2층,"서울특별시 광진구 뚝섬로34길 9, 지하주차장 1층 (자양동, 자양2차현대아파트)",36.63037510496744,127.0690118228612,민방위대피시설
남부여성발전센타 내 강당 지하1층,"서울특별시 금천구 독산로50길 23 (시흥동, 남부여성발전센터)",36.55932381166175,126.90641656957796,민방위대피시설
명성교회 지하주차장(지하1층),서울특별시 강동구 구천면로 452 (명일동),36.64474399667274,127.14500541311072,민방위대피시설
홍제원현대아파트 제1주차장 지하1~2층,"서울특별시 서대문구 통일로34길 43 (홍제동, 홍제원현대아파트)",36.68384840106469,126.94940539795893,민방위대피시설
크로바볼링장 지하1층,서울특별시 금천구 시흥대로 440 (독산동),36.56909583395611,126.89948240342112,민방위대피시설
삼익아파트 독산동(지하1층),"서울특별시 금천구 남부순환로120길 22 (독산동, 삼익아파트)",36.57427910027018,126.90114888830576,민방위대피시설
현대3차아파트 지하주차장 지하1층,서울특별시 강동구 진황도로 211 (둔촌동),36.62354447047447,127.14238577227972,민방위대피시설
신성통상 지하주차장 지하1층,서울특별시 강동구 풍성로63길 84 (둔촌동),36.627904848585565,127.13790484252712,민방위대피시설
신내4단지아파트(각 동 지하주차장 1층),"서울특별시 중랑구 숙선옹주로 91 (묵동, 신내4단지신내아파트)",36.71260655836942,127.08309197207365,민방위대피시설
하이츠아파트 지하주차장 지하1층,서울특별시 강동구 명일로 113 (둔촌동),36.62570766239496,127.13994174338649,민방위대피시설
홍제원현대아파트 제6주차장 지하1~2층,"서울특별시 서대문구 통일로34길 43 (홍제동, 홍제원현대아파트)",36.68384840106469,126.94940539795893,민방위대피시설
노원구청 지하1층 주차장,"서울특별시 노원구 노해로 437, 노원구청 (상계동)",36.75036342485584,127.05521136525977,민방위대피시설
금천아파트 지하1층,"서울특별시 금천구 금하로14길 53-1 (시흥동, 금천아파트)",36.54718804007545,126.90498030383355,민방위대피시설
한라아파트 지하주차장 1~2층,"서울특별시 광진구 뚝섬로33길 20, 지하주차장 1층 (자양동, 한라아파트)",36.63183788280297,127.06843351056246,민방위대피시설
위너스골프연습장(지하1층),"서울특별시 금천구 시흥대로 296 (독산동, 위너스스포츠클럽)",36.55623992463336,126.89950337829926,민방위대피시설
동양드림아파트(지하1층),"서울특별시 금천구 독산로58나길 56 (독산동, 동양드림아파트)",36.561747843807055,126.9070011906241,민방위대피시설
현대오피스텔 지하주차장(지하1~2층),"서울특별시 구로구 구로중앙로18길 5, 지하주차장동 (구로동, 현대오피스텔)",36.59110941155506,126.8901890757613,민방위대피시설
로얄프라자 지하주차장(지하1층),"서울특별시 구로구 가마산로 278 (구로동, 로얄프라자)",36.59231472235592,126.89175183234192,민방위대피시설
창영빌딩(지하1층),"서울특별시 금천구 독산로 218 (독산동, 창영빌딩)",36.56258204853722,126.90238306306802,민방위대피시설
호정타워아파트(지하3층),"서울특별시 금천구 시흥대로88길 21 (독산동, 호정타워아파트)",36.55733769278552,126.90067256842056,민방위대피시설
금천구청 지하1~2층,"서울특별시 금천구 시흥대로73길 70, 금천구청종합청사 (시흥동)",36.55298626434703,126.89585878202912,민방위대피시설
라이프아파트 주차장 지하1층,"서울특별시 금천구 벚꽃로 60 (독산동, 독산라이프아파트)",36.557250646427946,126.89275749309108,민방위대피시설
이랜드 해가든 아파트 101동 ~ 105동 지하1층,"서울특별시 금천구 벚꽃로6길 3 (독산동, 이랜드해가든아파트)",36.557182274164624,126.8935475957784,민방위대피시설
금빛휘트니스센터 지하1층,"서울특별시 금천구 금하로 668 (시흥동, 금빛공원)",36.549301534143176,126.90447848346608,민방위대피시설
강북문화정보도서관(지하1층)-번2동,서울특별시 강북구 오현로 145 (번동),36.72141316815426,127.03509183422064,민방위대피시설
"현대아파트(지하2, 3층 주차장) (수유2동)",서울특별시 강북구 한천로 1131 (수유동),36.7416167259169,127.01755282385584,민방위대피시설
우성2차아파트 지하1층,"서울특별시 영등포구 도림로47길 1(대림동, 우성아파트)",36.59180361694848,126.90040926949877,민방위대피시설
월곡두산위브아파트(임대) 지하주차장 1층~3층,"서울특별시 성북구 오패산로 46 (하월곡동, 월곡두산위브아파트)",36.70322454102636,127.03713362029148,민방위대피시설
미성상가 지하1층 상가,"서울특별시 노원구 마들로 59 (월계동, 월계미성아파트)",36.71747400849282,127.06607705012225,민방위대피시설
신반포역 9호선 지하1~2층,"서울특별시 서초구 신반포로 지하105, 신반포역 (반포동)",36.59990425291366,126.99611027833708,민방위대피시설
신내5단지두산대림아파트(지하주차장 1층),"서울특별시 중랑구 신내로21길 16 (묵동, 신내두산대림아파트)",36.713075122367215,127.08638670688144,민방위대피시설
DMC SK뷰@ 101~106동 B3~B4,"서울특별시 은평구 수색로 216, DMC SK뷰 (수색동)",36.67677379339079,126.90003046758092,민방위대피시설
논현2문화센터 지하주차장 1층~2층,"서울특별시 강남구 학동로43길 17 (논현동, 논현2동주민센터)",36.61346927483969,127.03601697052834,민방위대피시설
한양대학교 대운동장 주차장 지하1층,"서울특별시 성동구 왕십리로 222, 한양대학교 (사근동)",36.65392537995671,127.04605532669382,민방위대피시설
한양대학교 대운동장 주차장 지하2층,"서울특별시 성동구 왕십리로 222, 한양대학교 (사근동)",36.65392537995671,127.04605532669382,민방위대피시설
한양대학교 한양종합기술연구원 주차장 지하 2층,"서울특별시 성동구 왕십리로 222, 한양대학교 (사근동)",36.65392537995671,127.04605532669382,민방위대피시설
반포힐스테이트아파트 지하1~2층 주차장,"서울특별시 서초구 신반포로16길 15-20 (반포동, 반포힐스테이트)",36.59736585350463,126.99608205303387,민방위대피시설
중앙보훈병원역 지하1층 역사,"서울특별시 강동구 동남로 지하 625 (둔촌동, 중앙보훈병원역)",36.624534752520894,127.14581737452936,민방위대피시설
삼성전자서울알엔디캠퍼스1단지 지하1~3층 주차장,"서울특별시 서초구 성촌길 33 (우면동, (주)삼성전자서울R&D캠퍼스)",36.56130540933162,127.02220800254412,민방위대피시설
한양대학교 한양종합기술연구원 주차장 지하1층,"서울특별시 성동구 왕십리로 222, 한양대학교 (사근동)",36.65392537995671,127.04605532669382,민방위대피시설
망원1차대림아파트(지하1층주차장),"서울특별시 마포구 망원로2길 103(망원동, 망원1차대림아파트)",36.649618280973584,126.9051991323843,민방위대피시설
압구정로데오역 지하2층~5층,"서울특별시 강남구 압구정로 지하402, 압구정로데오역 지2층 (압구정동)",36.62561855257284,127.0399945534225,민방위대피시설
마곡엠밸리14단지 지하주차장 1~2층,"서울특별시 강서구 마곡중앙로 33 (마곡동, 마곡엠밸리14단지)",36.65323088832661,126.82605766733386,민방위대피시설
마곡엠밸리10단지 지하주차장 1~2층,"서울특별시 강서구 마곡중앙1로 72 (마곡동, 마곡엠밸리10단지)",36.655730577626365,126.82070415753,민방위대피시설
마곡엠밸리4단지 지하주차장 1~3층,"서울특별시 강서구 마곡서로 175 (마곡동, 마곡엠밸리4단지)",36.6656983337812,126.82576233474909,민방위대피시설
둔촌오륜역 지하1층 역사,"서울특별시 강동구 강동대로 지하 303 (둔촌동, 둔촌오륜역)",36.6146979368152,127.13846656675784,민방위대피시설
시민의숲역 신분당선 지하 1~2층,"서울특별시 서초구 매헌로 지하 116 (양재동, 양재시민의숲역(매헌역))",36.56614221409466,127.03709694449648,민방위대피시설
송암빌딩 지하주차장 1층~3층,"서울특별시 강남구 언주로 709 (논현동, 송암빌딩)",36.61289073818963,127.03362527553776,민방위대피시설
건설회관 지하주차장 1층,"서울특별시 강남구 언주로 711 (논현동, 건설회관)",36.61352860425118,127.03293990465772,민방위대피시설
자양3동주민센터 지하1층,"서울특별시 광진구 뚝섬로 568, 자양제3동주민센터  지하1층 (자양동)",36.62998522624757,127.07121801975896,민방위대피시설
태승훼미리아파트 지하주차장 1층,"서울특별시 강서구 국회대로7길 175 (화곡동, 태승훼미리아파트)",36.62496378331286,126.85204731354789,민방위대피시설
9호선 한성백제역 승강장 지하1~2층,"서울특별시 송파구 위례성대로 지하 29 (방이동, 한성백제역)",36.612402639354144,127.11547773070072,민방위대피시설
송파나루역 지하 대합실 1~2층,"서울특별시 송파구 백제고분로 지하 446 (방이동, 송파나루역)",36.607140678046,127.1106281780278,민방위대피시설
신목동파라곤아파트 지하2층 주차장,서울특별시 양천구 오목로 55 (신월동),36.619373178797645,126.845051051879,민방위대피시설
광화문역연결 청진지하공공보도,"서울특별시 종로구 세종대로 지하172, 5호선 광화문역 (세종로)",36.66861866366724,126.97639613415627,민방위대피시설
삼성화원아파트(지하1층주차장),"서울특별시 마포구 망원로10길 6(망원동, 삼성화원아파트)",36.65362568738505,126.9069815315449,민방위대피시설
후암동 주민센터(지하1층),"서울특별시 용산구 후암로 32-6 (후암동, 후암동 주민센터)",36.64486851931702,126.97762779911888,민방위대피시설
곰달래문화복지센터 지하주차장 1~3층,"서울특별시 강서구 강서로5길 50 (화곡동, 복지문화센터및공영주차장)",36.6252286870955,126.8499107126381,민방위대피시설
석촌고분역 지하1~2층,"서울특별시 송파구 백제고분로 지하 274 (삼전동, 석촌고분역)",36.5982603248171,127.094747271892,민방위대피시설
목동금호베스트빌 101동 지하1층 주차장,"서울특별시 양천구 목동중앙북로8길 111, 101동 (목동, 금호베스트빌아파트)",36.64118025739734,126.86914721938834,민방위대피시설
영등포구청 지하2~3층,"서울특별시 영등포구 당산로 123, 영등포구청 (당산동3가)",36.6224436072902,126.89640039643108,민방위대피시설
창동 데시앙 아파트 지하주차장 1~2층,"서울특별시 도봉구 도봉로110다길 51 (창동, 태영창동데시앙)",36.739123655854975,127.03221668518204,민방위대피시설
남부지방법원 별관 지하1층 주차장,"서울특별시 양천구 신월로 386, 서울남부지방법원 (신정동)",36.6177946939431,126.8649981577244,민방위대피시설
"서울숲역 수인분당선 지하1층,4층","서울특별시 성동구 왕십리로 지하77, 서울숲역 (성수동1가)",36.64020815105661,127.04356864831928,민방위대피시설
목동금호베스트빌 102동 지하1층 주차장,"서울특별시 양천구 목동중앙북로8길 111, 102동 (목동, 금호베스트빌아파트)",36.64118025739734,126.86914721938834,민방위대피시설
목동금호베스트빌 104동 지하1층 주차장,"서울특별시 양천구 목동중앙북로8길 111, 104동 (목동, 금호베스트빌아파트)",36.64118025739734,126.86914721938834,민방위대피시설
양동초등학교 지하1층,"서울특별시 양천구 오목로23길 24 (신정동, 서울양동초등학교)",36.62226433570203,126.85218562235823,민방위대피시설
북부장애인복지관 지하1층 강당,"서울특별시 노원구 덕릉로70가길 92, 북부장애인복지관 (상계동)",36.73853555927722,127.05531053364555,민방위대피시설
서울중앙기계부품 지하1층주차장,서울특별시 구로구 경인로53길 15-0 (구로동),36.59708150406285,126.87528397445206,민방위대피시설
월곡래미안월곡아파트지하주차장 1층~3층,서울특별시 성북구 오패산로 90 (하월곡동),36.70663241039539,127.03565901143892,민방위대피시설
인왕산현대아파트 제2주차장 지하1~2층,"서울특별시 서대문구 통일로34길 46 (홍제동, 인왕산현대아파트)",36.681718471275786,126.95062305223485,민방위대피시설
동하빌딩(지하2~3층),"서울특별시 강남구 남부순환로 2913 (대치동, 동하빌딩)",36.58903578921045,127.05714146525489,민방위대피시설
동익아파트 지하주차장 1층,"서울특별시 강남구 광평로39길 3 (수서동, 동익아파트)",36.581494627637895,127.09459712829668,민방위대피시설
화영빌딩(우리홈마트) 지하주차장 2층,서울특별시 강동구 강동대로53길 80 (성내동),36.62247528364489,127.13058554402964,민방위대피시설
인왕산현대아파트 제1주차장 지하1~3층,"서울특별시 서대문구 통일로34길 46 (홍제동, 인왕산현대아파트)",36.681718471275786,126.95062305223485,민방위대피시설
한스빌딩 지하주차장 1층,서울특별시 강동구 암사길 51 (암사동),36.648244801633886,127.13264498237147,민방위대피시설
예성그린캐슬3차아파트 주차장 지하1층,"서울특별시 관악구 남현길 141, 지하1층 (남현동, 예성그린캐슬3차아파트)",36.56737994545239,126.9733921041755,민방위대피시설
천록빌딩 지하1층,"서울특별시 영등포구 여의대방로61길 2, 천록빌딩 (신길동)",36.61049076916197,126.92610923576876,민방위대피시설
기쁜우리복지관 지하 1층,"서울특별시 강서구 허준로 65 (가양동, 기쁜우리복지관,체육센터)",36.665414509824,126.8499085513754,민방위대피시설
송파시그니처롯데캐슬 지하주차장 지하1층,"서울특별시 송파구 거마로 56 (거여동, 송파시그니처롯데캐슬)",36.59163761371055,127.1469459392047,민방위대피시설
e편한세상 송파파크센트럴 지하주차장 지하1층,"서울특별시 송파구 오금로 551 (거여동, e편한세상 송파 파크센트럴)",36.59000715371779,127.14769136697844,민방위대피시설
에셀비전21 지하1~2층,"서울특별시 관악구 남부순환로166길 90 (신림동, 에셀비전21아파트)",36.57577849472293,126.92376618283085,민방위대피시설
목동금호베스트빌 105동 지하1층 주차장,"서울특별시 양천구 목동중앙북로8길 111, 105동 (목동, 금호베스트빌아파트)",36.64118025739734,126.86914721938834,민방위대피시설
목동금호베스트빌103동 지하1층 주차장,"서울특별시 양천구 목동중앙북로8길 111, 103동 (목동, 금호베스트빌아파트)",36.64118025739734,126.86914721938834,민방위대피시설
신동아아파트 지하주차장 1층,"서울특별시 강남구 광평로47길 17 (수서동, 신동아아파트)",36.58324551498767,127.09650448130697,민방위대피시설
가락삼익아파트 전체 동의 지하1층,"서울특별시 송파구 오금로32길 5(송파동, 가락삼익맨숀)",36.60034121395928,127.11910565703964,민방위대피시설
정릉 힐스테이트 1차 지하주차장 1층~4층,"서울특별시 성북구 북악산로 831 (정릉동, 정릉 힐스테이트1차)",36.69639129028393,127.01653832429344,민방위대피시설
정릉 e편한세상 2차 지하주차장 1층~2층,"서울특별시 성북구 북악산로 851 (정릉동, 정릉2차 e-편한세상)",36.69618562689353,127.01842609918208,민방위대피시설
한신휴아파트(122동~124동) 지하2층주차장,서울특별시 성북구 동소문로15길 99 (동소문동7가),36.69136439720554,127.01320251625026,민방위대피시설
태웅빌딩 지하2층 주차장,"서울특별시 노원구 노해로 447, 태웅빌딩 (상계동)",36.75018650606598,127.05629299610376,민방위대피시설
한양2차아파트 지하1층,"서울특별시 송파구 가락로 192 (송파동, 2차한양아파트)",36.6012640618936,127.114030105537,민방위대피시설
정오빌딩 지하1층,서울특별시 영등포구 영등포로 422(신길동),36.60851392975225,126.92490857272496,민방위대피시설
두산위브파빌리온 지하2~3층,"서울특별시 종로구 삼봉로 81 (수송동, 두산위브파빌리온)",36.66875009018975,126.9812593334596,민방위대피시설
성현동자치회관 지하주차장 (지하1층),서울특별시 관악구 관악로 255-7 (봉천동),36.583390246658695,126.95633801747904,민방위대피시설
두산빌딩 지하주차장 2층~4층,"서울특별시 강남구 언주로 726 (논현동, 두산빌딩)",36.615252517135495,127.03410291880644,민방위대피시설
안암래미안아파트 101동 지하주차장 1층,"서울특별시 성북구 고려대로17가길 64 (안암동1가, 래미안안암)",36.685495013837496,127.02268999268276,민방위대피시설
이화여자대학교 지하주차장(이화캠퍼스복합단지 지하5~6층,"서울특별시 서대문구 이화여대길 52 (대현동, 이화여자대학교)",36.658746125689575,126.9472950972464,민방위대피시설
우성상가 지하주차장(지하1층),"서울특별시 구로구 도림천로 344 (구로동, 대림2차우성아파트)",36.59026066455529,126.8943037590027,민방위대피시설
동국대사대부여고 지하1층,서울특별시 광진구 광나루로36길 47 (구의동),36.63881255608432,127.0850219226029,민방위대피시설
현대종합상가 지하1층,서울특별시 강동구 상암로 210 (명일동),36.6424881231937,127.14328777150784,민방위대피시설
헬리오시티 전체 동의 지하주차장 2층 ~ 3층,"서울특별시 송파구 송파대로 345, 103동 (가락동, 헬리오시티)",36.59369412998544,127.10518413384996,민방위대피시설
"전농동신성미소지움아파트 지하주차장 지하 1,2층","서울특별시 동대문구 서울시립대로 75 (전농동, 전농동신성미소지움아파트)",36.67449867054996,127.04717534166232,민방위대피시설
구파발9단지아파트(916~928동)917동지하1층,"서울특별시 은평구 진관3로 77 (진관동, 은평뉴타운구파발)",,,민방위대피시설
구암아파트 지하주차장 1층,"서울특별시 은평구 증산로17길 6-46 (신사동, 구암아파트)",36.687665285289405,126.91336634809316,민방위대피시설
서초롯데캐슬프레지던트아파트 지하1~3층주차장,"서울특별시 서초구 서초중앙로24길 57 (서초동, 서초롯데캐슬프레지던트)",36.59303694589175,127.01866242558673,민방위대피시설
갈현베르빌아파트(지하1층),"서울특별시 은평구 연서로 149 (갈현동, 동광갈현베르빌)",36.70842304634476,126.9170142808989,민방위대피시설
구의1동 주민센터 주차장 지하1층,"서울특별시 광진구 광나루로36길 56 (구의동, 구의제1동주민센터)",36.638616154921536,127.08390193404604,민방위대피시설
"제기서울한방진흥센터공영 지하주차장 1,2층","서울특별시 동대문구 약령중앙로 26 (제기동, 서울한방진흥센터)",36.67684253383948,127.0364035904539,민방위대피시설
"SK북한산시티아파트(P201, 102동)(지하3~5층)","서울특별시 강북구 솔샘로 174 (미아동, SK북한산시티아파트)",36.71416924820895,127.01170324035328,민방위대피시설
백련산 힐스테이트4차APT(401동~413동지하4층),"서울특별시 은평구 백련산로 37 (응암동, 힐스테이트백련산4차아파트)",36.686354330476114,126.92174021759928,민방위대피시설
수유역두산위브아파트2 지하1층 주차장(번1동),"서울특별시 강북구 덕릉로41길 15 (번동, 수유역 두산위브 아파트 2)",36.731866347073215,127.02976803739864,민방위대피시설
강동구청 본청사 및 제2청사 지하1층,"서울특별시 강동구 성내로 25, 강동구청 지하1층 (성내동)",36.62627482592942,127.12144835602584,민방위대피시설
서울특별시교육청학생교육원글로벌문화언어체험교육원(지하1층,"경기도 가평군 가평읍 불기산길 88, 서울특별시학생교육원가평교육원",36.89863072399482,127.46381901687054,민방위대피시설
대한적십자사 동부혈액원 지하1층 기관실,"서울특별시 노원구 동일로 1329, 대한적십자사 (상계동)",36.7432811261006,127.06067182613828,민방위대피시설
이마트 지하3층~지하7층,"서울특별시 은평구 은평로 111 (응암동, 은평이마트)",36.69654939184832,126.92035774651298,민방위대피시설
상림마을6단지아파트(622~629동)629동지하1층,"서울특별시 은평구 진관4로 87 (진관동, 은평뉴타운상림마을)",36.74415969461768,126.92891201974294,민방위대피시설
영광빌딩 지하1~2층 주차장,서울특별시 관악구 신림로 158 (신림동),36.569099101158194,126.93386822455948,민방위대피시설
길음지하보도(지하1층),서울특별시 성북구 동소문로 지하234 (길음동),36.69874201292019,127.02134203556646,민방위대피시설
왕십리역이스타빌 지하1층~지하5층,"서울특별시 성동구 왕십리로 309 (행당동, 왕십리역이스타빌)",36.65738253035188,127.03342263615092,민방위대피시설
제각말5단지아파트(501~513동)509동옆지하1층,"서울특별시 은평구 연서로48길 12 (진관동, 은평뉴타운제각말)",36.72462634861069,126.93215323350256,민방위대피시설
시립서북병원,"서울특별시 은평구 갈현로7길 49 (역촌동, 서울서북병원)",36.69946254639227,126.92041908973864,민방위대피시설
박석고개1단지아파트(101~111동)110동 지하1층,"서울특별시 은평구 진관1로 21-9 (진관동, 은평뉴타운박석고개)",36.728090453620055,126.92027735357352,민방위대피시설
북한산힐스테이트 3차아파트 전체동의 지하주차장1~3층,"서울특별시 은평구 불광로 122-10 (불광동, 북한산현대힐스테이트3차아파트)",36.71467440887937,126.93489640302865,민방위대피시설
북한산힐스테이트 7차아파트 전체동의 지하주차장1~3층,"서울특별시 은평구 통일로 796 (불광동, 북한산힐스테이트7차)",36.71272583260883,126.92677519032893,민방위대피시설
행운빌딩 지하2층 주차장,"서울특별시 관악구 남부순환로 2040, 행운빌딩 지하1~2층 (남현동)",36.57235764835407,126.97510567136034,민방위대피시설
신논현역 지하 1~3층,서울특별시 강남구 봉은사로 지하 102 (역삼동),36.60283737398546,127.03084814361736,민방위대피시설
프라이어팰리스아파트 지하1층주차장,"서울특별시 강동구 고덕로 130 (암사동, 프라이어팰리스)",36.64971173940318,127.13707538644844,민방위대피시설
녹번역 3호선 지하1층~2층,"서울특별시 은평구 통일로 지하 602-1 (녹번동, 지하철3호선 녹번역)",36.69726199909383,126.93573724009578,민방위대피시설
명지전문대학 지하1층 주차장,"서울특별시 서대문구 가좌로 134 (홍은동, 명지전문대학)",36.68068735963861,126.925160642009,민방위대피시설
한국우진학교(지하1층주차장),"서울특별시 마포구 월드컵북로38길 21 (중동, 한국우진학교)",36.66778502898307,126.90367829278884,민방위대피시설
어린이회관 지하 1층,"서울특별시 광진구 광나루로 441 (능동, 육영재단어린이회관)",36.64298403070403,127.07613633956326,민방위대피시설
상림마을3단지아파트(706~708동)706동지하1층,"서울특별시 은평구 진관4로 47 (진관동, 은평뉴타운상림마을)",36.742262619713465,126.92634959687794,민방위대피시설
응암푸르지오 지하1층~지하3층,"서울특별시 은평구 백련산로 146 (응암동, 응암푸르지오)",36.69360665897196,126.92624307113245,민방위대피시설
연신내역 3호선 지하1층,"서울특별시 은평구 통일로 지하 849 (갈현동, 3,6호선 연신내역사무소)",36.7151274371744,126.92101131698055,민방위대피시설
올림픽체육센터 지하1층,"서울특별시 강서구 화곡로65길 62 (등촌동, 강서구민올림픽체육센터)",36.65587681207381,126.8515553204666,민방위대피시설
DMC 청구아파트 101동 B1 외 2개소,"서울특별시 은평구 증산로1길 26 (수색동, 수색동청구아파트)",36.67691135796005,126.90142699185589,민방위대피시설
은평노인종합복지관(지하1층),"서울특별시 은평구 연서로 415 (진관동, 은평노인종합복지관)",36.728197882666926,126.9302649532964,민방위대피시설
구파발10단지제1관리(1011~13동사이)지하1층주차장,"서울특별시 은평구 진관3로 15-45 (진관동, 은평뉴타운구파발)",,,민방위대피시설
대림빌딩 지하1~2층,"서울특별시 종로구 종로1길 36 (수송동, 대림빌딩)",36.6696787780709,126.97860808563787,민방위대피시설
매헌초등학교 지하 1층 주차장,"서울특별시 서초구 언남길 8 (양재동, 매헌초등학교)",36.56730525917897,127.04079814635988,민방위대피시설
폭포동4단지아파트(401~407동)403동옆지하1층,"서울특별시 은평구 진관1로 77-8 (진관동, 은평뉴타운폭포동)",,,민방위대피시설
"경남아파트(101동, 102동 지하주차장 1층)","서울특별시 은평구 가좌로7나길 35 (응암동, 경남아파트)",36.679462603980106,126.92052723305406,민방위대피시설
남청파인힐아파트(지하주차장 1층),"서울특별시 은평구 응암로 142-32 (응암동, 남청파인힐아파트)",36.680219810107324,126.9162188790784,민방위대피시설
마고정2단지아파트(323~335동)334동 지하1층,"서울특별시 은평구 진관2로 60 (진관동, 은평뉴타운마고정)",36.72962130561066,126.92409633834482,민방위대피시설
주공4단지 상가 지하1층 주차장,"서울특별시 노원구 동일로 1362 (상계동, 상계주공4단지아파트)",36.7462640961532,127.0607026859818,민방위대피시설
DMC문영퀸즈파크아파트 지하주차장 1~2층,"서울특별시 은평구 증산로13길 44-5 (증산동, 문영마운틴1차아파트)",36.683763498880296,126.90805893991772,민방위대피시설
우물골2단지아파트(209동~222동)211동지하1층,"서울특별시 은평구 진관2로 111-7 (진관동, 은평뉴타운우물골)",36.73249569007423,126.9315382817884,민방위대피시설
롯데몰 은평점(지하1층),"서울특별시 은평구 통일로 1050 (진관동, 롯데몰은평점)",36.73368057497211,126.91821560971393,민방위대피시설
길음역(지하1~3층),"서울특별시 성북구 동소문로 지하 248 (길음동, 길음역)",,,민방위대피시설
풍양빌딩(송중동)(지하1~3층),"서울특별시 강북구 도봉로 136, 풍양빌딩 (미아동)",36.71729604022903,127.02759166187651,민방위대피시설
일이삼전자타운(2동 지하1~4층),"서울특별시 구로구 경인로 393-7 (고척동, 일이삼전자타운)",36.59363354071796,126.86395982200864,민방위대피시설
"신성수정아파트 지하주차장 1,2층","서울특별시 은평구 은평터널로7길 2 (신사동, 신성수정아파트)",36.688932992041615,126.90664695513036,민방위대피시설
리더스파크아파트 지하주차장 1-4층,"서울특별시 은평구 연서로 1 (역촌동, 리더스파크)",36.69548071822428,126.91555763315073,민방위대피시설
센타폴리스아파트 지하주차장 1-3층,"서울특별시 은평구 연서로 9 (역촌동, 센타폴리스)",36.69633675636589,126.91575683670656,민방위대피시설
태화빌딩 지하1~3층,"서울특별시 종로구 인사동5길 29 (인사동, 태화빌딩)",36.66819344700245,126.98425670531977,민방위대피시설
백련산 힐스테이트1차APT(101동~115동 지하3층),"서울특별시 은평구 백련산로2길 19 (응암동, 백련산힐스테이트1차)",36.68860423861822,126.92533189655732,민방위대피시설
강남역 2호선 지하1~3층,서울특별시 강남구 강남대로 지하 396 (역삼동),36.59323013388886,127.02706923186636,민방위대피시설
센츄리아파트(지하1층 주차장),"서울특별시 구로구 중앙로12길 12 (고척동, 센츄리아파트)",36.60063082087927,126.86314465363138,민방위대피시설
은평구립도서관 지하 1층,"서울특별시 은평구 통일로78가길 13-84 (불광동, 은평구립도서관)",36.715121267391694,126.9281120339204,민방위대피시설
서울숲SK V1센터 지하 1~4층,"서울특별시 성동구 성수일로8길 5, 서울숲 SK V1 TOWER (성수동2가)",36.64308384431862,127.050272301463,민방위대피시설
응암에스에이치빌 지하1층~지하2층,"서울특별시 은평구 백련산로 146-30 (응암동, 응암SH-VILLE)",36.69421057867842,126.92696032299946,민방위대피시설
현대테라스타워 지식산업센터 지하 1~4층,"서울특별시 성동구 연무장5가길 7, 성수역 현대테라스타워 (성수동2가)",36.6402187002934,127.0522174082476,민방위대피시설
상계백병원 지하1층 주차장,"서울특별시 노원구 동일로 1342, 상계백병원 (상계동)",36.74486483752309,127.06146039025808,민방위대피시설
동양메이저아파트 지하1층 주차장,"서울특별시 노원구 상계로5길 12 (상계동, 동양메이저아파트)",36.75383616549619,127.06243980105889,민방위대피시설
대한적십자사 서울지사 지하주차장(지하1층),"서울특별시 성동구 고산자로 356, 대한적십자 지하1층 (마장동)",36.66766063189818,127.03728135444094,민방위대피시설
구산역(6호선 3번출구 지하1층),"서울특별시 은평구 연서로 지하 137-1 (구산동, 6호선 구산역사무소)",,,민방위대피시설
래미안 옥수리버젠아파트(지하1~2층),"서울특별시 성동구 매봉길 15 (옥수동, 래미안 옥수 리버젠)",36.64114152008777,127.0129039967552,민방위대피시설
우성현대아파트(지하1층 주차장),"서울특별시 구로구 중앙로1길 18-19 (고척동, 우성현대아파트)",36.59502046316947,126.86363136971131,민방위대피시설
백련산 힐스테이트2차APT(201동~212동지하3층),"서울특별시 은평구 백련산로 38 (응암동, 백련산 힐스테이트 2차)",36.687017121259125,126.92367193850744,민방위대피시설
우물골2단지C5블럭@(204~208동)206동지하1층,"서울특별시 은평구 진관2로 77 (진관동, 은평뉴타운우물골)",36.7307608398904,126.92764755347388,민방위대피시설
성수SKV1 지식산업센터(지하1층~ 5층),"서울특별시 성동구 연무장5가길 25, 성수역 SK V1 Tower (성수동2가)",36.6397620155801,127.05420837948148,민방위대피시설
중구회현체육센터 지하1층,"서울특별시 중구 퇴계로12길 78 (회현동1가, 중구회현체육센터)",36.6523925173794,126.98102025550833,민방위대피시설
우성꿈동산아파트(지하1층 주차장),"서울특별시 구로구 경인로47다길 34-7 (고척동, 우성꿈동산아파트)",36.59933656655564,126.86710844164196,민방위대피시설
SC제일은행본점 지하2~4층,"서울특별시 종로구 종로 47 (공평동, SC제일은행본점)",36.667300897623456,126.98182610422936,민방위대피시설
성신여대역(4호선) 지하1층,"서울특별시 성북구 동소문로 지하 102 (동선동4가, 성신여대입구역)",36.68928779429209,127.01580417777076,민방위대피시설
지하철1호선 동묘앞역 대합실 승강장 지하1층,"서울특별시 종로구 종로 359, 동묘앞역 지하1층 (숭인동)",36.66978274193794,127.0161582647842,민방위대피시설
동십자각지하도 지하1층,"서울특별시 종로구 삼청로 1 (세종로, 동십자각)",36.67224789089704,126.9773762250912,민방위대피시설
남산타운아파트1 (분양동)지하1층,"서울특별시 중구 다산로 32 (신당동, 남산타운)",36.645195720443226,127.00839214266097,민방위대피시설
칸타빌 수유팰리스(지하1~3층)-수유3동,"서울특별시 강북구 한천로148길 12-13 (수유동, 칸타빌 수유팰리스)",36.73839611069765,127.02438584038843,민방위대피시설
현대2차아파트 210동 지하1층,"서울특별시 강남구 언주로 107 (개포동, 현대2차아파트)",36.5786490459517,127.0498699950418,민방위대피시설
성락성결교회(지하1층 ~ 4층),"서울특별시 성동구 성수일로10길 33, 기독교대한성결교회 (성수동2가)",36.64277407052843,127.05245577675696,민방위대피시설
성수롯데캐슬파크 (지하 1~2층),"서울특별시 성동구 성수일로8길 47(성수동2가, 성수동 롯데캐슬파크)",36.64223010059597,127.05451943921082,민방위대피시설
신월코아루1단지아파트(지하1층) 주차장,"서울특별시 양천구 남부순환로56길 9 (신월동, 코아루1단지)",36.627909689028414,126.8308222126375,민방위대피시설
구파발9단지아파트(901~915동)904동지하1층,"서울특별시 은평구 진관3로 67 (진관동, 은평뉴타운구파발)",,,민방위대피시설
경남아너스빌아파트 전동 지하 1층,"서울특별시 은평구 갈현로11길 46 (구산동, 경남아너스빌)",36.701752895990296,126.9057232416996,민방위대피시설
씨드큐브 창동 지하주차장 1층~7층,"서울특별시 도봉구 마들로13길 61, 씨드큐브 창동 (창동)",36.75069981227848,127.04830725325677,민방위대피시설
코오롱하늘채아파트 지하주차장 1층,"서울특별시 은평구 갈현로29길 62 (갈현동, 코오롱하늘채아파트)",36.71933489262485,126.91168175395326,민방위대피시설
건영아파트 지하주차장 1~2층,"서울특별시 은평구 갈현로45길 57 (갈현동, 갈현동건영아파트)",36.725147757831856,126.91364668045216,민방위대피시설
백련산 힐스테이트3차 APT(301~311동 지하3층),"서울특별시 은평구 백련산로 36 (응암동, 백련산 힐스테이트 3차)",36.68417163116647,126.92421657393292,민방위대피시설
9호선여의도역,"서울특별시 영등포구 여의나루로 지하40, 여의도역 지하1층 (여의도동)",36.61942835383113,126.92701802347992,민방위대피시설
9호선샛강역,"서울특별시 영등포구 의사당대로 지하166, 샛강역 지하1층 (여의도동)",36.61331829323271,126.9301736922118,민방위대피시설
지하철9호선선유도역,"서울특별시 영등포구 양평로 지하124, 선유도역 (양평동5가)",36.634705011540966,126.8943450454664,민방위대피시설
은천2단지아파트 지하1층주차장,"서울특별시 관악구 인헌12길 46-1, 지하1층 (봉천동, 은천아파트)",36.56614411343023,126.96419901660605,민방위대피시설
신림현대아파트 110동 지하1층 주차장,"서울특별시 관악구 신림로29길 8 (신림동, 신림현대아파트)",36.57127381363221,126.9324977313004,민방위대피시설
6호선 망원역(지하1~2층),"서울특별시 마포구 월드컵로 지하77, 망원역 (망원동)",,,민방위대피시설
성현동아아파트 103-5동 지하주차장 (지하1층),서울특별시 관악구 관악로 285 (봉천동),36.58576529892314,126.9552986161192,민방위대피시설
서울시 북부기술 교육원 지하1층 식당,"서울특별시 노원구 덕릉로70가길 81, 서울특별시북부기술교육원 (상계동)",36.73851750142239,127.05662692303238,민방위대피시설
장석교회 지하2층 주차장,"서울특별시 노원구 월계로44길 23 (월계동, 대한예수교장로회장석교회)",36.720269950287474,127.05033325746165,민방위대피시설
문래자이아파트 지하1~2층 주차장,"서울특별시 영등포구 당산로4길 12 (문래동3가, 문래자이)",36.61232259586439,126.89721522494504,민방위대피시설
에드가 쌍문 아파트 지하주차장 1~2층,"서울특별시 도봉구 삼양로 602 (쌍문동, 에드가쌍문)",36.75277272730647,127.01292580789028,민방위대피시설
답십리역 지하 1~3층,"서울특별시 성동구 천호대로 지하300, 답십리역 (용답동)",,,민방위대피시설
창제3동 제1공영주차장 지하1층,"서울특별시 도봉구 우이천로4길 24-11, 창제3동 제1공영주차장 (창동)",36.72928193581416,127.04018644777912,민방위대피시설
우암센스뷰(지하2층) (수유3동),"서울특별시 강북구 노해로8길 16 (수유동, 우암쎈스뷰)",36.73397983717844,127.0229776248419,민방위대피시설
도봉투웨니퍼스트2단지 지하주차장 1층,"서울특별시 도봉구 도봉로180길 28, 도봉투웨니퍼스트2단지 (도봉동)",36.77874812411529,127.04616373222044,민방위대피시설
e편한세상아파트 전동 지하 1층,"서울특별시 은평구 서오릉로21길 47 (구산동, 갈현1단지e-편한세상아파트)",36.708071840127175,126.9065341512255,민방위대피시설
하계장미6단지아파트 종합상가 지하1층,"서울특별시 노원구 섬밭로 196 (하계동, 장미아파트)",36.72989814625984,127.06628419528158,민방위대피시설
수색에코포레A104~105 B1 외 지하주차장 7개소,"서울특별시 은평구 은평터널로 65 (수색동, e편한세상수색에코포레)",36.6830346082104,126.9004253408334,민방위대피시설
북한산힐스테이트1차아파트 전체동의 지하주차장 1층~2층,"서울특별시 은평구 불광로2길 33 (불광동, 북한산힐스테이트1차아파트)",36.70884010887119,126.93697641955586,민방위대피시설
천왕연지마을1단지 지하1층 주차장,"서울특별시 구로구 오류로 36-13(천왕동, 천왕연지마을1단지)",36.58432879278532,126.8419357670234,민방위대피시설
명동지하쇼핑센터,"서울특별시 중구 남대문로 지하 72 (남대문로2가, 명동지하쇼핑센터)",36.66025176868059,126.98159099351348,민방위대피시설
지하철3호선 무악재역 지하1~3층,"서울특별시 서대문구 통일로 지하 361 (홍제동, 무악재역)",36.6786111153042,126.9503718608855,민방위대피시설
도봉투웨니퍼스트1단지 지하주차장 1층,"서울특별시 도봉구 도봉로180길 20, 도봉투웨니퍼스트1단지 (도봉동)",36.77886016322919,127.04572019375246,민방위대피시설
하계2동주민센터 지하1층,"서울특별시 노원구 공릉로55길 88 (하계동, 하계2동 주민센터)",36.728194623817416,127.0662771387746,민방위대피시설
"수유동 이테크벨리오피스텔 지하2,3층 주차장-수유1동","서울특별시 강북구 도봉로77길 6 (수유동, 수유동 이테크밸리 오피스텔)",36.72996602952171,127.02175049014926,민방위대피시설
서울가든아파트 지하 1층,서울특별시 도봉구 도봉산길 35 (도봉동),36.7827569244285,127.04035989043015,민방위대피시설
진로아파트 지하1층~2층,"서울특별시 은평구 통일로 586-19 (녹번동, 녹번JR아파트)",36.69626518441179,126.93787686554258,민방위대피시설
군자동 복합청사 지하주차장 지하1~2층,"서울특별시 광진구 면목로 13, 군자동 복합청사 (군자동)",36.65165945610152,127.0736722046463,민방위대피시설
"응암역 6호선 지하1, 2층","서울특별시 은평구 증산로 지하 477 (역촌동, 6호선 응암역사무소)",36.69548071822428,126.91555763315073,민방위대피시설
"새절역 6호선 지하 1, 2층","서울특별시 은평구 증산로 지하 400 (신사동, 6호선 새절역사무소)",36.68735040694789,126.91353175911463,민방위대피시설
"갈현현대1차아파트 101동,102동 지하주차장 1층","서울특별시 은평구 갈현로33길 24 (갈현동, 갈현동현대아파트)",36.71836609303792,126.91442525037444,민방위대피시설
이수역리가아파트 지하주차장 1~3층,"서울특별시 동작구 사당로27길 130 (사당동, 이수역리가아파트)",36.58566268669581,126.97338178209728,민방위대피시설
가리봉교회(지하 식당),"서울특별시 구로구 우마2길 34 (가리봉동, 가리봉교회)",36.578338959402,126.89056547028412,민방위대피시설
대진고등학교 지하1층 창고,"서울특별시 노원구 공릉로62가길 47, 대진고등학교 (하계동)",36.73394728048847,127.07317798790928,민방위대피시설
경기기계공업고등학교 지하1층 창고,서울특별시 노원구 공릉로 264 (경기기계공업고등학교),36.72923327861994,127.072807463576,민방위대피시설
서초포레스타 2단지아파트 지하1~2층 주차장,"서울특별시 서초구 헌릉로8길 45 (내곡동, 서초포레스타2단지)",36.55148291609356,127.05952704574648,민방위대피시설
삼성아파트(지하2층 주차장)(번1동),"서울특별시 강북구 도봉로98길 33 (번동, 삼성아파트)",36.73763506783786,127.03072743279324,민방위대피시설
우리은행 종로4가금융센터 지하1층,"서울특별시 종로구 종로 186 (종로4가, 우리은행)",36.66659861191081,126.99773033840437,민방위대피시설
광화문우체국 지하1층,"서울특별시 종로구 종로 6 (서린동, 광화문우체국)",36.66597608046967,126.97757503264246,민방위대피시설
래미안장위퍼스트하이아파트 지하주차장(지하 1층~2층),"서울특별시 성북구 한천로 713 (장위동, 래미안장위퍼스트하이)",36.716268838477085,127.05014218995716,민방위대피시설
LG사이언스파크 동측 1 지하주차장 1~4층,"서울특별시 강서구 마곡중앙10로 30 (마곡동, 엘지사이언스파크)",36.658837608173805,126.83338061046604,민방위대피시설
미주진로아파트 지하주차장 1층,"서울특별시 강서구 공항대로 351-21 (등촌동, 미주진로아파트)",36.65602659527631,126.84805583838444,민방위대피시설
부영아파트 지하주차장 1층,"서울특별시 강서구 강서로56나길 110 (등촌동, 부영아파트)",36.65974672597244,126.844708458351,민방위대피시설
이대서울병원 지하주차장 1~6층,"서울특별시 강서구 공항대로 260 (마곡동, 이화의대부속서울병원)",36.65378464175237,126.83733099348808,민방위대피시설
서초포레스타 6단지아파트 지하1층 주차장,"서울특별시 서초구 청계산로9길 1-12 (신원동, 서초포레스타6단지)",36.54614701521479,127.05420802440284,민방위대피시설
서초포레스타 5단지아파트 지하1~2층 주차장,"서울특별시 서초구 청계산로7길 43 (신원동, 서초포레스타5단지)",36.54787103475658,127.05567080943102,민방위대피시설
서초포레스타 7단지아파트 지하1~2층 주차장,"서울특별시 서초구 청계산로11길 7-12 (신원동, 서초포레스타7단지)",36.5447316064144,127.0554446333055,민방위대피시설
구산e편한세상2단지아파트 전동 지하 1층,"서울특별시 은평구 서오릉로21길 48 (구산동, e-편한세상2단지아파트)",36.70863060428468,126.90614320982137,민방위대피시설
북한산래미안아파트 전체동의 지하주차장 1층~3층,"서울특별시 은평구 진흥로 267 (불광동, 북한산래미안아파트)",36.70773913697247,126.93852892146856,민방위대피시설
"현대2차아파트 지하주차장 1, 2층","서울특별시 은평구 가좌로 344 (신사동, 현대아파트)",36.6941175832512,126.90742752206252,민방위대피시설
서초더샵포레아파트 지하1~2층 주차장,"서울특별시 서초구 헌릉로8길 58 (내곡동, 서초더샵포레)",36.54847313602189,127.06221118938596,민방위대피시설
신길센트럴아이파크아파트 지하1~2층,"서울특별시 영등포구 가마산로 426(신길동, 신길센트럴아이파크)",36.60030402129665,126.9049956225336,민방위대피시설
대덕트윈빌 102동 지하주차장 1층,"서울특별시 금천구 시흥대로112길 6 (독산동, 대덕트윈빌)",36.56348525576264,126.89951397070404,민방위대피시설
센트레빌레우스 1단지(지하주차장 1층~2층),"서울특별시 구로구 경인로 302(개봉동, 센트레빌 레우스 1단지)",36.592349602146136,126.85521492742768,민방위대피시설
삼성아파트 지하주차장 1~2층,"서울특별시 종로구 평창문화로 172 (평창동, 삼성아파트)",36.707119980701286,126.97814706140008,민방위대피시설
창진파크팰리스 지하1층(공사 중 진입 불가),"서울특별시 종로구 평창문화로 87, 창진파크팰리스 지하1층 (평창동)",36.7034954254595,126.97033412885489,민방위대피시설
지하철1호선 종각역 대합실 승강장 지하1~2층,"서울특별시 종로구 종로 지하 55 (종로1가, 종각지하철역사)",36.6664183185413,126.98085670635818,민방위대피시설
와이하우스 지하주차장 (지하1~3층),서울특별시 성동구 자동차시장3길 93 (용답동),36.65492699261955,127.06567391267316,민방위대피시설
9호선 삼전역 역사 지하 1~2층,"서울특별시 송파구 백제고분로 지하 189 (잠실동, 삼전역)",36.60086724028668,127.08581755314852,민방위대피시설
한화꿈에그린아파트  지하1~2층 주차장,"서울특별시 노원구 중계로8길 29 (중계동, 한화꿈에그린아파트)",36.7435293398645,127.081536197478,민방위대피시설
성수문화복지회관 지하1~2층,"서울특별시 성동구 뚝섬로1길 43, 성수문화복지회관 (성수동1가)",36.64159762341408,127.0456396719114,민방위대피시설
서울숲 ITCT 지식산업센터 지하 1~5층,"서울특별시 성동구 성수일로 10, 서울숲 ITCT 지식산업센터 (성수동1가)",36.63747947522836,127.0474570455324,민방위대피시설
FORHU 지하 1~5층,"서울특별시 성동구 왕십리로 58, FORHU (성수동1가)",36.638844240340525,127.04388642654786,민방위대피시설
갈현현대아파트 전동 지하 1층,"서울특별시 은평구 서오릉로21길 36 (구산동, 갈현현대아파트)",36.70917565085383,126.90587715419568,민방위대피시설
마장동현대아파트 지하주차장(지하1~2층),"서울특별시 성동구 살곶이길 50, 지하1~2층 (마장동, 마장동 현대아파트)",36.665644968573375,127.04126695034508,민방위대피시설
행당두산위브(지하1층 주창장),"서울특별시 성동구 행당로8길 8 (행당동, 행당두산위브)",36.65288792905909,127.03037893810956,민방위대피시설
희훈리치파크아파트 지하주차장 1층,"서울특별시 강서구 강서로45다길 30-17 (화곡동, 희훈리치파크아파트)",36.64256628265008,126.83519460930049,민방위대피시설
중계2.3동 주민센터 지하1층,서울특별시 노원구 노원로17길 56 (중계동),36.73831314447713,127.06711666932216,민방위대피시설
북한산현대홈타운아파트 전체동의 지하주차장1~3층,"서울특별시 은평구 불광로2길 7 (불광동, 북한산현대홈타운아파트)",36.708409200184335,126.9327646907152,민방위대피시설
이랜드타운아파트 지하주차장 1층,"서울특별시 은평구 은평터널로 121-6 (신사동, 이랜드타운아파트)",36.686785885128266,126.90423672844248,민방위대피시설
서울숲행당푸르지오(지하1층~지하3층),"서울특별시 성동구 고산자로 177 (행당동, 서울숲행당푸르지오아파트)",36.65138334868487,127.0313060647651,민방위대피시설
행당브라운스톤(지하1층 주차장),"서울특별시 성동구 행당로 99 (행당동, 행당브라운스톤)",36.654733609050304,127.02870391084709,민방위대피시설
서울숲한신더휴아파트 지하2층~지하4층,"서울특별시 성동구 고산자로 164 (행당동, 서울숲한신더휴)",36.65131272786011,127.03504726024684,민방위대피시설
도봉중흥S클래스 지하주차장 1층,"서울특별시 도봉구 도봉로180가길 32 (도봉동, 중흥에스 클래스)",36.780993188793566,127.04581328601772,민방위대피시설
성우현대아파트(도봉2동) 지하주차장 1층~2층,"서울특별시 도봉구 마들로 735-8 (도봉동, 현대성우아파트)",36.7724658781222,127.04632126116807,민방위대피시설
창동대동아파트 지하주차장 1층~2층,"서울특별시 도봉구 도봉로 642-30 (창동, 대동아파트)",36.757856119293045,127.04275846136248,민방위대피시설
브라운스톤 아파트 지하 1층 주차장,"서울특별시 영등포구 버드나루로12가길 13(영등포동7가, 브라운스톤 영등포아파트)",36.620435692117006,126.91154163618336,민방위대피시설
창동신도브래뉴아파트(창5동) 지하주차장 1층~2층,"서울특별시 도봉구 도봉로136나길 40 (창동, 창동신도브래뉴1차아파트)",36.752394302267376,127.04390856438886,민방위대피시설
꿈의숲코오롱하늘채아파트 지하주차장(지하 1층~3층),"서울특별시 성북구 돌곶이로 220 (장위동, 꿈의숲코오롱하늘채아파트)",36.71586501850365,127.0448328454382,민방위대피시설
신안네트빌1단지 지하주차장 1층,"서울특별시 강서구 양천로14길 37 (방화동, 신안네트빌1단지)",36.66725066436526,126.81163781537047,민방위대피시설
도봉산역 광역환승센터 지하주차장 1층~2층,서울특별시 도봉구 도봉산4나길 43 (도봉동),36.78504267330475,127.0431515450431,민방위대피시설
래미안장위포레카운티아파트 지하주차장(지하 1층~2층),"서울특별시 성북구 장월로 160 (장위동, 래미안장위포레카운티)",36.71424916636006,127.05193007083813,민방위대피시설
미미아파트(지하1층),"서울특별시 은평구 갈현로29길 11 (갈현동, 미미아파트)",36.71516523807304,126.9137726546847,민방위대피시설
도봉산리베니움 지하주차장 1층,"서울특별시 도봉구 도봉로181길 74-30 (도봉동, 도봉산 리베니움 아파트)",36.78184613471644,127.04185072083948,민방위대피시설
가인지하보도 지하1층,"서울특별시 도봉구 도봉로136길 61, 가인지하차보도 (창동)",36.75634145722664,127.0429072872678,민방위대피시설
구파발역 3호선(지하),"서울특별시 은평구 진관2로 지하 15-25 (진관동, 3호선 구파발역사무소)",,,민방위대피시설
무악청구2차아파트 지하주차장 지하1~2층,"서울특별시 서대문구 통일로 344 (홍제동, 무악청구아파트)",36.6774476465798,126.9513007087943,민방위대피시설
창동지하보도 지하 1층,"서울특별시 도봉구 노해로67길 26, 창동지하보도 (창동)",36.74856947014006,127.04970928356806,민방위대피시설
성원상가 지하1층 체육관,"서울특별시 노원구 마들로3길 37 (월계동, 성원아파트)",36.725610975713295,127.06099602955672,민방위대피시설
은평구민체육센터(지하1~2층),"서울특별시 은평구 진관1로 40 (진관동, 은평구민체육센터)",36.72692121689769,126.9234983788574,민방위대피시설
수락리버시티 4단지 지하주차장 1층,"서울특별시 노원구 누원로 18 (상계동, 수락리버시티4단지)",36.78225614599553,127.05215678987972,민방위대피시설
새절역현대아파트 지하주차장 1층,"서울특별시 은평구 은평터널로 164(신사동, 새절역현대아파트)",36.68969970804218,126.9089158406102,민방위대피시설
녹천지하차도 지하1층,"서울특별시 도봉구 덕릉로 376, 녹천지하차보도 (창동)",36.74183290900301,127.0495611427572,민방위대피시설
은평문화예술회관 지하2층,"서울특별시 은평구 녹번로 16 (녹번동, 은평문화예술회관)",36.70010822356381,126.928432310767,민방위대피시설
신림현대아파트 108동 지하1층 주차장,"서울특별시 관악구 신림로29길 8 (신림동, 신림현대아파트)",36.57127381363221,126.9324977313004,민방위대피시설
도봉한양수자인아파트 지하주차장 1층~3층,"서울특별시 도봉구 마들로 724 (도봉동, 도봉한양수자인)",36.77075250159248,127.04633365270064,민방위대피시설
코리안리재보험빌딩 지하1~3층,"서울특별시 종로구 종로5길 68 (수송동, 코리안리재보험빌딩)",36.66961112963409,126.97990122706328,민방위대피시설
구파발10단지2관리(1001~1010)1009지하1층,"서울특별시 은평구 진관3로 15-35 (진관동, 은평뉴타운구파발)",36.74115443258703,126.92384109040444,민방위대피시설
현대2차아파트 204동 지하1층,"서울특별시 강남구 언주로 107 (개포동, 현대2차아파트)",36.5786490459517,127.0498699950418,민방위대피시설
상림마을8단지APT(810~820동)811동지하1층,"서울특별시 은평구 진관4로 17 (진관동, 은평뉴타운상림마을)",36.737755329462665,126.92289492244112,민방위대피시설
부영빌딩 지하3층,"서울특별시 중구 세종대로9길 42 (서소문동, 부영빌딩)",36.657755177161896,126.97332046437502,민방위대피시설
송학 휴스테이 아파트 지하주차장 1층,"서울특별시 도봉구 도당로15길 36 (방학동, 송학휴스테이)",36.76319749692309,127.03492443665829,민방위대피시설
북한산코오롱하늘채아파트 지하주차장 1층,"서울특별시 도봉구 우이천로 367 (쌍문동, 북한산코오롱하늘채아파트)",36.74444652685677,127.02214317412344,민방위대피시설
원불교 개포교당 지하1층,서울특별시 강남구 논현로 10 (개포동),36.56856002286695,127.04914550268988,민방위대피시설
종로세무서 지하1층,"서울특별시 종로구 삼일대로30길 22 (낙원동, 종로세무서)",36.67004808217434,126.98830766351452,민방위대피시설
DMC월드빌아파트 지하주차장 1층,"서울특별시 은평구 증산로 333 (증산동, 증산동월드빌)",36.68247081402423,126.91175267728951,민방위대피시설
쌍용플래티넘시티1단지 지하1~2층,"서울특별시 영등포구 도영로7길 15(도림동, 쌍용플래티넘시티1단지)",36.60560834187831,126.8948365171452,민방위대피시설
데님관광호텔 지하1~4층,"서울특별시 강남구 논현로 66 (개포동, 데님관광호텔)",36.57236033505984,127.04528769752667,민방위대피시설
서울북부지방검찰청 지하주차장 1층,"서울특별시 도봉구 마들로 747 (도봉동, 서울북부지방검찰청)",36.77261990449528,127.0449392915688,민방위대피시설
방학동 ESA2단지 아파트 지하주차장 1층~3층,서울특별시 도봉구 도봉로150길 43 (방학동),36.76266888969505,127.0442820234975,민방위대피시설
군자동 공영주차장 지하1층,서울특별시 광진구 능동로27길 12 (군자동),36.6503140252601,127.07506343781444,민방위대피시설
신동아아파트 지하1층,"서울특별시 노원구 한글비석로52길 66 (상계동, 신동아아파트)",36.76360339515258,127.06594139093656,민방위대피시설
노원문화원 지하1층,서울특별시 노원구 동일로197길 24 (공릉동),36.72506088609457,127.06827609888028,민방위대피시설
낙성대동원아파트 지하1층주차장,"서울특별시 관악구 낙성대역길 19, 지하1층 (봉천동, 동원낙성대아파트)",36.57262363471948,126.96175856236792,민방위대피시설
방학동 ESA1단지 아파트 지하주차장 1층~3층,서울특별시 도봉구 마들로 657 (방학동),36.76486106208196,127.04419799749031,민방위대피시설
방학동 ESA3단지아파트 지하주차장 1층~3층,서울특별시 도봉구 도봉로150길 31 (방학동),36.76276040700268,127.04357267063216,민방위대피시설
지하철3호선 안국역 지하1~3층 대합실 승강장,"서울특별시 종로구 율곡로 지하62, 3호선 안국역 (안국동)",36.67313851680471,126.98392614176082,민방위대피시설
삼성아파트 101~102동 지하주차장 지하1~2층,"서울특별시 은평구 서오릉로 94 (대조동, 삼성타운아파트)",36.70522274435191,126.92187716239752,민방위대피시설
해주드림빌아파트 지하1층,"서울특별시 은평구 응암로 366 (녹번동, 해주드림빌)",36.69999552747367,126.9232131461035,민방위대피시설
서울북부지방법원 지하주차장 1층,"서울특별시 도봉구 마들로 749 (도봉동, 서울북부지방법원)",36.77358002021192,127.04564440229495,민방위대피시설
"홍익아파트 지하주차장 1층, 2층","서울특별시 은평구 가좌로 342 (신사동, 홍익아파트)",36.69369815437415,126.90840524987374,민방위대피시설
보라매갑을아파트 지하1~2층 주차장,"서울특별시 관악구 관천로24길 3-0 (신림동, 보라매갑을아파트)",36.58529587783852,126.922062323701,민방위대피시설
한솔아파트(지하1층),"서울특별시 은평구 갈현로23길 41 (갈현동, 한솔아파트)",36.71422811323369,126.91022325757912,민방위대피시설
해오름2차아파트(지하1층주차장),"서울특별시 마포구 월드컵로17길 67(망원동, 해오름 아파트)",36.65057540416531,126.90792949570265,민방위대피시설
대주파크빌아파트 지하주차장 1층,"서울특별시 은평구 증산로15길 50 (신사동, 대주파크빌)",36.68688196512737,126.9084257005279,민방위대피시설
길음뉴타운위브7단지아파트 지하주차장(지하1~4층),서울특별시 성북구 길음로13길 22 (길음동),36.70596827938655,127.01782801985703,민방위대피시설
신림동공영주차장 지하1층,"서울특별시 관악구 관천로 98 (신림동, 신림동공영주차장)",36.58353636211263,126.92360748834211,민방위대피시설
동도센트리움아파트 지하주차장 1층~2층,서울특별시 도봉구 마들로 579-19 (창동),36.75786843335021,127.04402879688236,민방위대피시설
"금강아파트 지하1,2층 주차장",서울특별시 양천구 남부순환로64길 23-0 (신월동),36.62311525404547,126.83469516566296,민방위대피시설
양천해누리복지관 신월센터 지하1층,서울특별시 양천구 가로공원로 101 (신월동),36.63210788414504,126.8285086756842,민방위대피시설
양지대림2차아파트 지하1층 주차장,"서울특별시 노원구 덕릉로73길 28 (중계동, 양지대림아파트)",36.749631731469925,127.07067668385852,민방위대피시설
극동문제연구소 통일관 지하2층 주차장,"서울특별시 종로구 북촌로15길 2, 극동문제연구소/통일관 지하2층 (삼청동)",36.68249204182412,126.98286357771612,민방위대피시설
세브란스병원 지하1층~지하3층,"서울특별시 서대문구 연세로 50-1 (신촌동, 연세의료원)",36.66088524930325,126.93943273737062,민방위대피시설
비트플렉스 지하1층,서울특별시 성동구 왕십리광장로 17 (행당동),36.65747309753152,127.0371500558862,민방위대피시설
현재트윈빌아파트(지하1층),"서울특별시 은평구 서오릉로20길 5-10 (갈현동, 현재트윈빌아파트)",36.71289076382461,126.90880094866164,민방위대피시설
우남아파트(지하1층),"서울특별시 은평구 서오릉로 258 (갈현동, 우남아파트)",36.71414126364481,126.90708954377676,민방위대피시설
연신내역 6호선 지하 2층~3층,"서울특별시 은평구 통일로 지하 849 (갈현동, 3,6호선 연신내역사무소)",36.7151274371744,126.92101131698055,민방위대피시설
무악현대아파트 지하1층,"서울특별시 종로구 통일로 246-20, 110동 지하1층 (무악동, 무악현대아파트)",36.671568453623,126.9604888188853,민방위대피시설
성수동 동양아파트 지하 1층,"서울특별시 성동구 둘레길 21 (성수동1가, 성수동동양아파트)",36.63387163955922,127.04498921157614,민방위대피시설
신림현대아파트 103동 지하1층 주차장,"서울특별시 관악구 신림로29길 8 (신림동, 신림현대아파트)",36.57127381363221,126.9324977313004,민방위대피시설
서울숲현대아이파크(지하1 ~ 2층 주차장),"서울특별시 성동구 동일로 237 (송정동, 서울숲아이파크)",36.64909110746238,127.06761159044228,민방위대피시설
방학동 도깨비시장 지하주차장 1층~2층,"서울특별시 도봉구 방학로10길 51 (방학동, 방학동도깨비시장주차장)",36.76082870058093,127.0327072318724,민방위대피시설
대림1차아파트(지하1층),"서울특별시 성동구 독서당로62길 43 (응봉동, 대림아파트)",36.6481133489781,127.03209315953735,민방위대피시설
방아골종합사회복지관 지하주차장 1~2층,"서울특별시 도봉구 시루봉로17길 42 (방학동, 도봉방아골종합사회복지관)",36.76552215045527,127.03147577878664,민방위대피시설
우장산한화꿈에그린아파트 지하주차장 2~3층,"서울특별시 강서구 우장산로 103 (화곡동, 우장산한화꿈에그린아파트)",36.6501946884972,126.84841486924356,민방위대피시설
동원베네스트아파트 전동 지하1~2층,"서울특별시 서대문구 홍은중앙로1길 65 (홍은동, 동원베네스트아파트)",36.69515376452763,126.94385892809574,민방위대피시설
역삼2문화센터(지하1층),"서울특별시 강남구 도곡로43길 25 (역삼동, 역삼2문화센터)",36.5921785931,127.04548570115116,민방위대피시설
영등포역지하도 지하1층,"서울특별시 영등포구 경인로 846, 영등포 민자역사 (영등포동)",36.61210183250672,126.9076851282646,민방위대피시설
영등포역지하도 지하1층,"서울특별시 영등포구 경인로 846, 영등포 민자역사 (영등포동)",36.61210183250672,126.9076851282646,민방위대피시설
"장안힐스테이트아파트 지하주차장 지하1,2층","서울특별시 동대문구 장안벚꽃로1길 7 (장안동, 장안힐스테이트)",36.67215142172837,127.07368158804168,민방위대피시설
리버그린동아아파트(지하 1층),"서울특별시 성동구 고산자로4길 34 (응봉동, 응봉동리버그린동아아파트)",36.649248740717375,127.03603393488096,민방위대피시설
신안네트빌2단지 201동 지하주차장 1층,"서울특별시 강서구 양천로14길 61 (방화동, 신안2단지아파트)",36.66643223506149,126.8110844131317,민방위대피시설
양평2동 한신아파트 지하주차장(지하 1층~2층),"서울특별시 영등포구 양평로24길 9(양평동5가, 양평동한신아파트)",36.63629756231414,126.89259738952002,민방위대피시설
한강미디어고등학교 지하1층,"서울특별시 영등포구 선유로55길 22, 한강미디어고등학교 (양평동4가)",36.63520086744656,126.8979450541761,민방위대피시설
영등포아트자이아파트 지하1~3층,"서울특별시 영등포구 도영로 66(도림동, 영등포아트자이아파트)",36.606373722684936,126.90066934527408,민방위대피시설
신동아아파트 지하1층,"서울특별시 영등포구 가마산로 312, 3동 (대림동, 신동아아파트)",36.59323706491259,126.89513378295275,민방위대피시설
지하철5호선 서대문역 대합실 승강장,"서울특별시 종로구 통일로 지하126, 서대문역 2층 (평동)",36.66235616625868,126.9664990121424,민방위대피시설
강북삼성병원 지하2층,"서울특별시 종로구 새문안로 29, 강북삼성병원 지하2층 (평동)",36.66445446775575,126.96769587073574,민방위대피시설
삼호종합상가 지하1층 마트,"서울특별시 노원구 마들로 111 (월계동, 월계미륭아파트,월계삼호아파트)",36.72078511873979,127.06386374177166,민방위대피시설
무악현대임대아파트 지하2층,"서울특별시 종로구 통일로 246-11, 113동 지하2층 (무악동, 무악현대아파트)",36.67159897989085,126.95855707418497,민방위대피시설
"신동아파밀리에아파트(103동,104동) 지하3~지하2층","서울특별시 성북구 화랑로 210-26 (석관동, 석관동 신동아 파밀리에)",36.70371744416336,127.05215108615488,민방위대피시설
DMC래미안클라시스 제2주차장 지하1~4층,"서울특별시 서대문구 증가로 191 (남가좌동, DMC래미안클라시스)",36.67412213515826,126.91676924869226,민방위대피시설
초안산신도브래뉴아파트(창3동) 지하주차장 1층,"서울특별시 도봉구 우이천로4라길 11-14 (창동, 초안산신도브래뉴)",36.72962870809115,127.04127380130276,민방위대피시설
한승미메이드아파트 지하주차장 1층,"서울특별시 도봉구 덕릉로60길 164-13 (창동, 창동한승미메이드아파트)",36.72913555174199,127.04153904592718,민방위대피시설
화곡판타지아 지하주차장 2~3층,"서울특별시 강서구 강서로 52 (화곡동, 화곡판타지아)",36.62866884857706,126.84772323813092,민방위대피시설
신풍두산위브센티움(지하 1~3층),"서울특별시 영등포구 대방천로 155(신길동, 신풍두산위브센티움)",36.59578760322443,126.908528669076,민방위대피시설
신길1동 신길자이아파트 지하주차장 지하1층 ~ 지하2층,"서울특별시 영등포구 가마산로79길 19(신길동, 신길자이)",36.6026299872534,126.91679048034908,민방위대피시설
삼성래미안 프레비뉴 아파트 지하1~2층,"서울특별시 영등포구 가마산로 442(신길동, 래미안프레비뉴)",36.60109718133943,126.9084690740203,민방위대피시설
성동구청 지하1층~지하2층,"서울특별시 성동구 고산자로 270 (행당동, 성동구청)",36.65940011364857,127.035533835489,민방위대피시설
무학빌딩 지하1층~지하2층,"서울특별시 성동구 고산자로 202, 무학빌딩 (행당동)",36.654403677999056,127.03327562344352,민방위대피시설
서울교통공사(인재개발원) 지하주차장 (지하1층),"서울특별시 성동구 천호대로78길 15-48 (용답동, 서울시투자기관교육복지센터)",36.657746269390216,127.0551881562263,민방위대피시설
강변청구아파트(지하2층),"서울특별시 성동구 둘레15길 7(성수동2가, 청구강변아파트)",36.631512545441815,127.053432640747,민방위대피시설
우장산롯데아파트 지하주차장 1층,"서울특별시 강서구 우장산로 92 (화곡동, 우장산롯데아파트)",36.64864778025776,126.84752011424489,민방위대피시설
창신성결교회 지하1층,"서울특별시 종로구 창신5길 22 (창신동, 창신성결교회)",36.66988534689589,127.01121607181672,민방위대피시설
서울숲푸르지오1차 지하1~3층 주차장,"서울특별시 성동구 금호로 15, 지하1~3층 (금호동4가, 서울숲푸르지오아파트)",36.640937302899815,127.02141292261072,민방위대피시설
서울숲삼부아파트 지하1층,"서울특별시 성동구 왕십리로 280(행당동, 서울숲삼부아파트)",36.65618293998551,127.03622731751062,민방위대피시설
YM프라젠아파트 지하주차장 (지하1층),"서울특별시 성동구 자동차시장1길 14 (용답동, 와이엠프라젠아파트)",36.6575040692392,127.05720507514134,민방위대피시설
지하철1호선 동대문역 대합실 승강장,"서울특별시 종로구 종로 지하 302 (창신동, 1호선 동대문역)",36.66795281086405,127.01034573323057,민방위대피시설
대우파크힐아파트 지하주차장 1층,"서울특별시 도봉구 시루봉로 8 (쌍문동, 대우파크힐아파트)",36.74778239154648,127.02806045700528,민방위대피시설
도봉파크빌3단지아파트 지하주차장 1층~2층,"서울특별시 도봉구 마들로 895 (도봉동, 도봉파크빌3단지아파트)",36.78383762865361,127.0473036010838,민방위대피시설
북한산아이파크아파트 지하주차장 1층~2층,"서울특별시 도봉구 도봉로136길 28 (창동, 북한산 아이파크)",36.7541094441755,127.0423390489566,민방위대피시설
DMC래미안클라시스 제4주차장 지하1~3층,"서울특별시 서대문구 증가로 191 (남가좌동, DMC래미안클라시스)",36.67412213515826,126.91676924869226,민방위대피시설
금호벽산아파트(지하1층~지하2층 주차장),"서울특별시 성동구 금호로 100 (금호동1가, 벽산아파트)",36.64803949208983,127.02601726954713,민방위대피시설
금호삼성래미안아파트(지하1층 주차장),"서울특별시 성동구 독서당로 343 (금호동1가, 금호삼성래미안아파트)",36.64528260401105,127.02626300927692,민방위대피시설
NC백화점 지하1~8층,"서울특별시 은평구 불광로 20, NC백화점 (대조동)",36.70591448967514,126.92906510369592,민방위대피시설
서울남부고용노동지청(지하주차장 1층),"서울특별시 영등포구 선유로 120 (양평동1가, 노동부 남부지청)",36.62075036633944,126.8918075933445,민방위대피시설
래미안에스티움 지하1층,"서울특별시 영등포구 신풍로 77(신길동, 래미안에스티움)",36.597083602678325,126.91380180258504,민방위대피시설
교보생명빌딩 지하2~3층,"서울특별시 종로구 종로 1 (종로1가, 교보생명빌딩)",36.66676827584544,126.97756010274944,민방위대피시설
우리들병원(지하1층~2층 주차장)-수유3동,"서울특별시 강북구 한천로 1083 (수유동, 광산타워)",36.738750704692166,127.02161746769607,민방위대피시설
한성아파트 지하1층,"서울특별시 영등포구 가마산로 575(신길동, 한성아파트)",36.60085262543369,126.91949769038408,민방위대피시설
서초트라팰리스 지하1~3층 주차장,"서울특별시 서초구 효령로72길 57 (서초동, 서초트라팰리스)",36.58299462989465,127.02726870539242,민방위대피시설
양평2동 거성아파트 지하1~2층,"서울특별시 영등포구 선유로43가길 24(양평동3가, 거성파스텔아파트)",36.6276802127431,126.89237491092712,민방위대피시설
문영칸타빌레아파트 지하1~2층 주차장,"서울특별시 영등포구 도림천로 391(대림동, 대림동문영칸타빌레아파트)",36.58593968430016,126.89754114989285,민방위대피시설
DMC래미안클라시스 제3주차장 지하1~3층,"서울특별시 서대문구 증가로 191 (남가좌동, DMC래미안클라시스)",36.67412213515826,126.91676924869226,민방위대피시설
포레나신길아파트(지하 1층),"서울특별시 영등포구 신길로 119 (신길동, 포레나 신길)",36.59913988861268,126.9098934180022,민방위대피시설
삼정아파트 지하주차장 2~3층,"서울특별시 강서구 방화동로 126 (방화동, 삼정아파트)",36.66816695992458,126.81336690873918,민방위대피시설
현대건설기술교육원 지하1층,서울특별시 영등포구 도림천로19길 12-2(대림동),36.583324270264825,126.90144694059362,민방위대피시설
6호선약수역지하철승강장,"서울특별시 중구 다산로 지하 115 (신당동, 약수역 6호선)",36.65094654109209,127.0095932639285,민방위대피시설
DMC래미안클라시스 제5주차장 지하1~4층,"서울특별시 서대문구 증가로 191 (남가좌동, DMC래미안클라시스)",36.67412213515826,126.91676924869226,민방위대피시설
신림현대아파트 101동 지하1~2층 주차장,"서울특별시 관악구 신림로29길 8 (신림동, 신림현대아파트)",36.57127381363221,126.9324977313004,민방위대피시설
우성1차아파트 지하1층,"서울특별시 영등포구 도신로 68(신길동, 신길우성아파트)",36.60150480327674,126.90081078514964,민방위대피시설
정목초등학교 지하1~3층 주차장,"서울특별시 양천구 목동중앙로3길 30-10 (목동, 서울정목초등학교)",36.63350016768872,126.87124105723356,민방위대피시설
삼성 래미안아파트(도봉2동) 지하주차장 1층~2층,"서울특별시 도봉구 도봉로170길 40 (도봉동, 래미안도봉아파트)",36.77582665283514,127.0451939977444,민방위대피시설
도봉파크빌2단지아파트 지하주차장 1층~2층,"서울특별시 도봉구 마들로 835 (도봉동, 도봉파크빌2단지)",36.78057543794201,127.04934198855815,민방위대피시설
창신2동 동대문맨션 지하1층,"서울특별시 종로구 창신길 20 (창신동, 동대문맨션)",36.66858663029961,127.0101112073398,민방위대피시설
탑건진선미아파트 지하주차장 1층,"서울특별시 강서구 초록마을로 166 (화곡동, 탑건진선미아파트)",36.63242879260234,126.84717673720245,민방위대피시설
우리은행창신동지점 지하1층,"서울특별시 종로구 종로 311 (창신동, (주)우리은행창신동지점)",36.66849491785228,127.0113228284706,민방위대피시설
불광역 6호선 지하1~4층,"서울특별시 은평구 통일로 지하723-1, 3,6호선 불광역사무소 (대조동)",36.70653862893473,126.92995808602184,민방위대피시설
서울응봉초등학교 (지하1층),"서울특별시 성동구 독서당로62길 28 (응봉동, 응봉초등학교)",36.64709946839613,127.03286925106512,민방위대피시설
도렴빌딩 지하1~2층,"서울특별시 종로구 새문안로5길 37, 도렴빌딩 지하1~2층 (도렴동)",36.66979133770401,126.97371951932554,민방위대피시설
미도파광화문빌딩 지하2층,"서울특별시 종로구 세종대로23길 47, 지하1층 (당주동)",36.66755197604615,126.97323642710975,민방위대피시설
로얄빌딩 지하2층,"서울특별시 종로구 새문안로5길 19, 로얄빌딩 지하1층 (당주동)",36.66817449241644,126.97385262586148,민방위대피시설
불광역 3호선 지하1~2층,"서울특별시 은평구 통일로 지하723-1, 3,6호선 불광역사무소 (대조동)",36.70653862893473,126.92995808602184,민방위대피시설
텐즈힐1단지 지하주차장 1~3층,"서울특별시 성동구 무학로 33 (하왕십리동, 텐즈힐)",36.66475091762912,127.02685728195034,민방위대피시설
영등포역 지하쇼핑센터 지하 1층,"서울특별시 영등포구 경인로 지하843, 영등포역지하도상가 (영등포동3가)",36.6129634173901,126.90757174732884,민방위대피시설
천호3동 공영주차장(지하1~3층),"서울특별시 강동구 진황도로29길 34 (천호동, 천호동공영주차장)",36.63509978610562,127.1308925881931,민방위대피시설
태창네스트힐아파트 지하주차장 1층,"서울특별시 강서구 초록마을로 121 (화곡동, 태창네스트힐아파트)",36.6338762601319,126.85197055945646,민방위대피시설
세종빌딩 지하1층,"서울특별시 종로구 세종대로23길 54, 세종빌딩, 세종아파트 지하1층 (당주동)",36.66805030338255,126.97285181725576,민방위대피시설
시티빌딩 지하1층,"서울특별시 종로구 새문안로 50, 한국씨티은행 본점 지하1층 (신문로2가)",36.66507507302597,126.97032062566323,민방위대피시설
금호아파트 지하1층~지하2층,"서울특별시 은평구 응암로 318 (응암동, 응암동금호아파트)",36.69540598099288,126.92237401182994,민방위대피시설
이마빌딩 지하2~3층,"서울특별시 종로구 종로1길 42 (수송동, 이마빌딩)",36.67009575957032,126.97848731555268,민방위대피시설
신길종합사회복지관 지하주차장 지하1층 ~지하2층,"서울특별시 영등포구 영등포로84길 24-5, 신길종합사회복지관 (신길동)",36.60733694235962,126.92160293229482,민방위대피시설
금호어울림아파트 주차장(102동 지하2층)-번2동,서울특별시 강북구 오현로31길 85-7 (번동),36.726801243968325,127.0342189135626,민방위대피시설
대림동1차한신아파트 지하1층,"서울특별시 영등포구 디지털로69길 13(대림동, 대림동1차한신아파트)",36.590652531940336,126.90385785458184,민방위대피시설
대림동현대아파트 지하1층,"서울특별시 영등포구 시흥대로187길 12(대림동, 대림동현대아파트)",36.58920125032043,126.90847802276214,민방위대피시설
삼환아파트 지하1층,"서울특별시 영등포구 여의대방로43나길 25(신길동, 삼환아파트)",36.6028860251192,126.91941772245214,민방위대피시설
대방지하차도 지하1층,"서울특별시 영등포구 영등포로 423, 신양치안센터 (신길동)",36.60904224202218,126.92535517419404,민방위대피시설
여의도국회앞지하보도 지하1층,"서울특별시 영등포구 의사당대로 38, 여의도더샵아일랜드파크 (여의도동)",36.62188450158928,126.91892072826982,민방위대피시설
5호선여의도역,"서울특별시 영등포구 여의나루로 지하40, 여의도역 지하1층 (여의도동)",36.61942835383113,126.92701802347992,민방위대피시설
현대2차아파트 지하1층,"서울특별시 영등포구 도신로4길 6(대림동, 현대2차아파트)",36.598943264806266,126.89507765839409,민방위대피시설
대림1동어린이집 지하1층,"서울특별시 영등포구 디지털로 441, 대림제1동사무소/대림1동복지관 (대림동)",36.59163123624913,126.90630730680016,민방위대피시설
종로2가 지하상가 지하1층,"서울특별시 종로구 종로 지하 73 (종로1가, 종각지하철역사)",36.66644247587831,126.98454048883237,민방위대피시설
명남더블레스 지하1층,"서울특별시 은평구 은평로 182-8 (응암동, 명남더블레스아파트)",36.697227981544685,126.92775145405268,민방위대피시설
63한화생명빌딩 지하3층,"서울특별시 영등포구 63로 50, 63한화생명빌딩 지하1층 (여의도동)",36.6160119781942,126.939999582844,민방위대피시설
강서구의회 지하주차장 2층,서울특별시 강서구 등촌로 185 (등촌동),36.64269328703682,126.86312886657116,민방위대피시설
석탄회관빌딩 지하2~3층,"서울특별시 종로구 종로5길 58 (수송동, 석탄회관빌딩)",36.66911591310189,126.9799189558834,민방위대피시설
대림아파트 지하주차장 1~2층,"서울특별시 강서구 등촌로 137 (등촌동, 대림아파트)",36.63832084824008,126.86346941240257,민방위대피시설
영등포제1스포츠센터(지하 1층),"서울특별시 영등포구 신풍로 1, 영등포제1스포츠센터 (신길동)",36.59676850377833,126.90684160813902,민방위대피시설
연신중학교 공영주차장 지하2층,"서울특별시 은평구 연서로33길 16-32 (불광동, 연신중학교)",36.719509502184586,126.9251926830914,민방위대피시설
신림현대아파트 106동 지하1층 주차장,"서울특별시 관악구 신림로29길 8 (신림동, 신림현대아파트)",36.57127381363221,126.9324977313004,민방위대피시설
지하철7호선신풍역,"서울특별시 영등포구 신풍로 지하27, 신풍역 (신길동)",36.59648593464405,126.90968899475313,민방위대피시설
북한산월드메르디앙 아파트 지하주차장 1층,"서울특별시 도봉구 삼양로 566 (쌍문동, 북한산월드메르디앙)",36.749991154612026,127.01265553361398,민방위대피시설
숭인상가아파트 지하1층,"서울특별시 종로구 청계천로 391, 지하1층 (숭인동, 숭인상가아파트)",36.66831702142704,127.01954642365033,민방위대피시설
명수대한양아파트 지하주차장 1층,"서울특별시 동작구 현충로10길 42 (흑석동, 명수대 한양아파트(흑석동))",36.60106851636967,126.9661739457316,민방위대피시설
한솔솔파크아파트 지하 1층 주차장,"서울특별시 영등포구 도림천로 431(대림동, 新 대림 한솔 솔파크)",36.583524586078056,126.89990611191494,민방위대피시설
대림역 7호선 지하1층,"서울특별시 영등포구 도림로 지하137, 대림역 (대림동)",36.58902526747615,126.8972318682134,민방위대피시설
건영아파트 지하1층,"서울특별시 영등포구 도림로 313(신길동, 건영아파트)",36.60192089712106,126.90167242506486,민방위대피시설
신림현대아파트 104동 지하1~2층 주차장(A/B),"서울특별시 관악구 신림로29길 8 (신림동, 신림현대아파트)",36.57127381363221,126.9324977313004,민방위대피시설
안말어린이공원 공영주차장(지하1~3층),"서울특별시 강동구 풍성로45길 11 (성내동, 안말어린이공원 공영주차장)",36.62768734660681,127.1276358556381,민방위대피시설
강서센트레빌4차아파트 지하주차장 1층,"서울특별시 강서구 남부순환로 11 (공항동, 강서센트레빌4차)",36.65678253719614,126.80960992941723,민방위대피시설
신방화역 지하 1층,"서울특별시 강서구 방화대로 지하 301 (방화동, 신방화역)",36.663542713892106,126.8177718646233,민방위대피시설
KT행당빌딩 지하1층,"서울특별시 성동구 고산자로 212 (행당동, 행당전화국)",36.65515963409351,127.03324282338237,민방위대피시설
"대림2차아파트 (관리사무소, 지하 1층)","서울특별시 성동구 독서당로 431 (응봉동, 대림2차아파트)",36.64907675150532,127.03135714861578,민방위대피시설
현대아파트(지하 1층),"서울특별시 성동구 독서당로 377 (응봉동, 금호현대아파트)",36.64722934222467,127.02980996165968,민방위대피시설
신동아아파트(지하 1층),"서울특별시 성동구 독서당로 375 (응봉동, 신동아아파트)",36.6464344014465,127.02837452818986,민방위대피시설
대림강변타운아파트(지하 1층),"서울특별시 성동구 고산자로 160 (응봉동, 대림강변타운)",36.64961274529288,127.03454060764768,민방위대피시설
용답초등학교 지하1층,"서울특별시 성동구 용답25길 1 (용답동, 용답초등학교)",36.657013521395086,127.0521439625492,민방위대피시설
방학동 동부센트레빌아파트 지하주차장 1층~2층,"서울특별시 도봉구 방학로 120 (방학동, 방학동부센트레빌)",36.75949293161919,127.03828619619654,민방위대피시설
금광포란재아파트 지하주차장 1층~2층,서울특별시 도봉구 도봉로150바길 26 (방학동),36.760860135457015,127.04375968914088,민방위대피시설
쌍문e편한세상 아파트 지하주차장 1층,"서울특별시 도봉구 노해로41가길 16 (쌍문동, 쌍문e-편한세상)",36.74598846624038,127.0261623714646,민방위대피시설
홍제원현대아파트 제7주차장 지하1~2층,"서울특별시 서대문구 통일로34길 43 (홍제동, 홍제원현대아파트)",36.68384840106469,126.94940539795893,민방위대피시설
강변건영아파트 지하 1층,"서울특별시 성동구 왕십리로 36 (성수동1가, 강변건영아파트)",36.6365486102419,127.04379381506082,민방위대피시설
서울숲대림아파트 지하 1층,"서울특별시 성동구 뚝섬로 311(성수동1가, 서울숲 대림)",36.63824000693194,127.04400707257662,민방위대피시설
"리센츠아파트 전체 동의 지하주차장 지하 1,2층","서울특별시 송파구 올림픽로 135 (잠실동, 리센츠)",36.61023623528075,127.08663265056876,민방위대피시설
지하철5호선여의나루역,"서울특별시 영등포구 여의동로 지하343, 여의나루역 지하1층 (여의도동)",36.62435244004679,126.93252759584256,민방위대피시설
극동아파트(지하주차장 1층~2층),"서울특별시 중랑구 동일로 941 (묵동, 극동늘푸른아파트)",36.71080747769391,127.07445053825856,민방위대피시설
문래힐스테이트 지하1층 주차장,"서울특별시 영등포구 문래로 82(문래동3가, 문래힐스테이트)",36.61453926247238,126.8913710086483,민방위대피시설
"회기힐스테이트아파트지하주차장 1층, 104동앞","서울특별시 동대문구 회기로26길 15 (회기동, 회기힐스테이트)",36.686234893543975,127.05224855753964,민방위대피시설
영등포뉴타운지하쇼핑몰 지하 1층,"서울특별시 영등포구 영중로 지하40, 영등포뉴타운지하쇼핑몰 (영등포동3가)",36.61527640646093,126.90626548982578,민방위대피시설
양지대림1차아파트 지하1층 주차장,"서울특별시 노원구 덕릉로71길 30 (중계동, 양지대림아파트)",36.747383294236826,127.0689106175766,민방위대피시설
신림현대아파트 105동 지하1층 주차장,"서울특별시 관악구 신림로29길 8 (신림동, 신림현대아파트)",36.57127381363221,126.9324977313004,민방위대피시설
신길역 1호선 환승통로(지하1층),"서울특별시 영등포구 영등포로 327, 신길역 (신길동)",36.61249679638188,126.91721869486356,민방위대피시설
5호선 왕십리역 지하1층,"서울특별시 성동구 왕십리로 지하 300 (행당동, 왕십리역)",,,민방위대피시설
대성유니드아파트(지하 1층),"서울특별시 영등포구 가마산로50길 27(신길동, 신길동 대성 유니드 아파트)",36.597919161578936,126.90341359943513,민방위대피시설
소월아트홀 지하1층,"서울특별시 성동구 왕십리로 281, 소월아트홀 (행당동)",36.65554841807931,127.03491693715442,민방위대피시설
신대림자이아파트 지하1~3층 주차장,"서울특별시 영등포구 시흥대로173길 13(대림동, 신대림자이)",36.58272388159197,126.90280420394384,민방위대피시설
현대3차아파트 지하1층 주차장,"서울특별시 영등포구 선유서로 6(문래동5가, 현대3차아파트)",36.61228526776732,126.8850231145472,민방위대피시설
신길1동 경남아파트 지하주차장 지하1층~지하2층,"서울특별시 영등포구 영등포로 351 (신길동, 신길동경남아파트)",36.611872640876726,126.91867122594527,민방위대피시설
쌍문브라운스톤아파트 지하주차장 1층,"서울특별시 도봉구 노해로40길 71-0 (쌍문동, 브라운스톤쌍문)",36.74351542688215,127.0280765736175,민방위대피시설
포이초등학교 공영주차장 지하1층,"서울특별시 강남구 개포로22길 87 (개포동, 포이초등학교)",36.57177035686029,127.05092835899242,민방위대피시설
양평동우림이비지센터(지하주차장 1층),"서울특별시 영등포구 양산로 43, 양평동우림 이 비지센타 (양평동3가)",36.62197033131886,126.88849968206856,민방위대피시설
보라매코오롱하늘채아파트 지하주차장,"서울특별시 동작구 여의대방로24다길 40 (대방동, 보라매코오롱하늘채아파트)",36.59470663904298,126.92324658746011,민방위대피시설
서울교통공사 본사 지하주차장 (지하1~3층),서울특별시 성동구 천호대로 346 (용답동),36.658779057248736,127.05578436058248,민방위대피시설
지하철2호선문래역,"서울특별시 영등포구 당산로 지하28, 문래역 (문래동3가)",36.61445058808237,126.89504370981142,민방위대피시설
북한산대창센시티아파트 102동 지하주차장 1층~2층,"서울특별시 은평구 불광로 208 (불광동, 북한산대창센시티)",36.72158879024057,126.92948257887448,민방위대피시설
엔지니어링공제빌딩 지하1~4층,"서울특별시 강남구 테헤란로 335, 엔지니어링공제빌딩 (역삼동)",36.60082820166567,127.04694364416224,민방위대피시설
성원(창4동) 아파트 지하주차장 1층~2층,서울특별시 도봉구 마들로16길 56,36.75700438067312,127.04841008294666,민방위대피시설
금호동대우아파트 지하 1~2층 주차장,"서울특별시 성동구 독서당로 272, 지하1~2층 (금호동4가, 금호동 대우아파트)",36.64215436333739,127.01867224064564,민방위대피시설
럭키아파트 지하주차장 1층,"서울특별시 도봉구 도봉로169길 31 (도봉동, 럭키아파트)",36.77543127786882,127.04311250579664,민방위대피시설
중앙하이츠아파트단지 지하주차장 (지하1층),"서울특별시 성동구 용답중앙27길 8 (용답동, 중앙하이츠아파트)",36.65934013343072,127.05399228738705,민방위대피시설
동양크레오 아파트 지하주차장 1층~2층,"서울특별시 도봉구 시루봉로 166 (방학동, 동양크레오아파트)",36.76063675994369,127.0291406541831,민방위대피시설
여선교회전국연합회관(지하1~2층),서울특별시 용산구 독서당로 98 (한남동),36.631282905113466,127.01050204851629,민방위대피시설
송파여성문화회관 지하주차장 1~2층,"서울특별시 송파구 백제고분로42길 5 (송파동, 송파여성문화회관)",36.60207436391913,127.10770708046768,민방위대피시설
도봉구청 지하주차장 1층~2층,서울특별시 도봉구 마들로 656 (방학동),36.76490734865244,127.04576415633804,민방위대피시설
한솔솔파크 더리버 아파트(지하 1층 주차장),"서울특별시 강동구 선사로 120 (암사동, 한솔 솔파크 더 리버)",36.64581712286277,127.12133216889016,민방위대피시설
강변현대아파트(지하1~2층),"서울특별시 성동구 둘레11길 1 (성수동2가, 강변현대아파트)",36.632593884679736,127.049613329886,민방위대피시설
현대2차 아파트(창4동) 지하주차장 1층~2층,서울특별시 도봉구 도봉로136길 111 (창동),36.757233892305365,127.0447655957447,민방위대피시설
사평역 지하1~3층,"서울특별시 서초구 사평대로 지하 285 (반포동, 사평역)",36.6005793777664,127.01287174464764,민방위대피시설
현대3차 아파트(창4동) 지하주차장 1층~2층,"서울특별시 도봉구 도봉로136길 111 (창동, 창동2,3차현대아파트)",36.756332030513946,127.04475931184037,민방위대피시설
현대4차 아파트(창4동) 지하주차장 1층~2층,서울특별시 도봉구 노해로69가길 54,36.75515598477988,127.04497399599173,민방위대피시설
역삼1문화센터 지하 1~2층,"서울특별시 강남구 역삼로7길 16 (역삼동, 역삼1문화센터)",36.591528350982855,127.0320786441093,민방위대피시설
DMC쌍용스윗닷홈아파트 지하주차장 지하1층,"서울특별시 서대문구 거북골로 91-6 (남가좌동, DMC쌍용스윗닷홈)",36.67154060857106,126.91926036893835,민방위대피시설
동아에코빌아파트 지하주차장 1층~2층,"서울특별시 도봉구 도봉로180길 6-25 (도봉동, 동아에코빌아파트)",36.77771985014944,127.04556593885046,민방위대피시설
오동공원 현대홈타운 아파트(지하2층)-번2동,서울특별시 강북구 오현로31길 89 (번동),36.727701476891866,127.0343304052598,민방위대피시설
프린스빌딩 지하1층,서울특별시 관악구 난우길 2 (신림동),36.56939754913196,126.91934559431648,민방위대피시설
이수아파트 지하주차장 1층~2층,"서울특별시 도봉구 도봉로146길 36 (방학동, 브라운스톤방학아파트)",36.760051815943854,127.04371199070307,민방위대피시설
증미역 지하1~3층,"서울특별시 강서구 양천로 지하 560 (등촌동, 증미역 9호선)",36.653732982558175,126.86243715585094,민방위대피시설
금호브라운스톤아파트1차 지하1~3층,"서울특별시 성동구 매봉길 24, 지하1~3층 (금호동4가, 브라운스톤금호)",36.6429256748888,127.01469627761554,민방위대피시설
금호동롯데아파트 지하1~2층 주차장,"서울특별시 성동구 동호로 84, 지하1~2층 (금호동4가, 롯데아파트)",36.64324468741577,127.01638229189714,민방위대피시설
현대2차아파트 지하1층 주차장,"서울특별시 영등포구 문래로4길 4, 현대아파트 (문래동6가)",36.61662239093107,126.8834625923342,민방위대피시설
지하철7호선보라매역,"서울특별시 동작구 상도로 지하2, 7호선 보라매역 (대방동)",36.59574441495911,126.9207286288121,민방위대피시설
학여울역 (지하1~5층),"서울특별시 강남구 남부순환로 지하 3104 (대치동, 학여울역)",36.59290774159508,127.07021471557336,민방위대피시설
래미안대치하이스턴 모든 동 지하 (지하1층),"서울특별시 강남구 도곡로93길 12 (대치동, 래미안 대치 하이스턴)",36.59721984499759,127.06393638405504,민방위대피시설
반도유보라팰리스아파트 지하1~2층 주차장,"서울특별시 영등포구 국회대로 597(당산동4가, 당산동 반도유보라팰리스)",36.6234941801455,126.90167062070545,민방위대피시설
대치2주민센터 (지하1~2층),"서울특별시 강남구 영동대로65길 24 (대치동, 대치2동주민센터)",36.59843176532272,127.0626321354918,민방위대피시설
두산아파트 지하1층,"서울특별시 성동구 동호로 100 (금호동3가, 두산아파트)",36.64614531583464,127.0154661808942,민방위대피시설
금호초등학교 지하1층,"서울특별시 성동구 무수막길 69 (금호동2가, 금호초등학교)",36.6487277842326,127.01908033591349,민방위대피시설
군자메가박스 지하주차장 지하1층,서울특별시 광진구 능동로 289 (군자동),36.65197346775453,127.0766348619371,민방위대피시설
옥수삼성아파트 지하1~2층,"서울특별시 성동구 독서당로 218(옥수동, 옥수삼성아파트)",36.63854320616432,127.01309341584545,민방위대피시설
현대2차아파트 208동 지하1층,"서울특별시 강남구 언주로 107 (개포동, 현대2차아파트)",36.5786490459517,127.0498699950418,민방위대피시설
천주교난곡성당 지하1층,서울특별시 관악구 난곡로26길 43 (신림동),36.56656097960168,126.92228705965022,민방위대피시설
반포자이아파트 지하1층 주차장,"서울특별시 서초구 신반포로 270 (반포동, 반포자이아파트)",36.60278936787576,127.0130711717127,민방위대피시설
대우이안아파트(지하주차장 1층),"서울특별시 영등포구 선유로33길 18(양평동3가, 양평동 대우이안2)",36.62320975568828,126.8898986378844,민방위대피시설
보라매 경남아너스빌 아파트 지하 1~2층 주차장,"서울특별시 영등포구 여의대방로 25(신길동, 보라매 경남아너스빌)",36.59113506349399,126.91040761064028,민방위대피시설
해성빌딩 지하1층,서울특별시 관악구 난곡로 180 (신림동),36.56732095365174,126.92026635368896,민방위대피시설
관악드림타운임대(아) 지하주차장16 (지하1~4층),"서울특별시 관악구 구암길 106 (봉천동, 관악드림타운아파트)",36.58782402840036,126.94798692274487,민방위대피시설
신동아하이팰리스(지하주차장 1층),"서울특별시 영등포구 선유서로 67, 신동아하이팰리스 (양평동2가)",36.618065429214056,126.88524435704564,민방위대피시설
현대3차아파트 지하1층,"서울특별시 영등포구 도신로 31(대림동, 현대3차아파트)",36.601709970857655,126.8960640113298,민방위대피시설
9호선국회의사당역,"서울특별시 영등포구 국회대로 지하758, 국회의사당역 지하1층 (여의도동)",36.62357110175623,126.91874049104028,민방위대피시설
코오롱아파트 지하1층,"서울특별시 영등포구 도영로 2-5(대림동, 대림동코오롱아파트)",36.60314209228659,126.89537279780365,민방위대피시설
글라스타워 (지하2~7층),"서울특별시 강남구 테헤란로 534 (대치동, 글라스타워빌딩)",36.60442604108453,127.06087735075556,민방위대피시설
대림쇼핑아파트(수유주상복합) 지하2층 주차장(수유1동),"서울특별시 강북구 도봉로71가길 11 (수유동, 수유대림쇼핑아파트)",36.72811631552919,127.02118174772804,민방위대피시설
삼성래미안4차아파트 지하주차장 지하1층~지하2층,"서울특별시 영등포구 당산로 214(당산동5가, 당산 삼성 래미안)",36.62813771032026,126.90342903115612,민방위대피시설
봉천벽산타워2차(아) 지하 1~2층 주차장,서울특별시 관악구 구암5가길 49 (봉천동),36.58868525804584,126.94589674643744,민방위대피시설
김포공항역 9호선 지하 1~4층,"서울특별시 강서구 하늘길 지하 77 (방화동, 김포공항역)",36.66125089882004,126.80453922673648,민방위대피시설
한국해운조합 지하 1~2층,"서울특별시 강서구 공항대로 379 (등촌동, 한국해운조합)",36.65330085424164,126.85088443535196,민방위대피시설
공항시장역 지하1~4층,"서울특별시 강서구 방화동로 지하30, 공항시장역(9호선) (공항동)",36.659796258691536,126.8120431309718,민방위대피시설
삼양동 경남아너스빌아파트 주차장(지하2층),서울특별시 강북구 삼양로74길 8 (미아동),36.72509028503561,127.01768551334013,민방위대피시설
영등포역사 내부 지상1층,"서울특별시 영등포구 경인로 846, 영등포 민자역사 (영등포동)",36.61210183250672,126.9076851282646,민방위대피시설
중소기업중앙회 지하2~3층,"서울특별시 영등포구 은행로 30, 중소기업중앙회 지하1층 (여의도동)",36.62436936902332,126.92285500235894,민방위대피시설
"성원아파트 지하1,2층 주차장","서울특별시 노원구 노원로34길 34 (상계동, 성원아파트)",36.75656974504517,127.06429412515932,민방위대피시설
미원아파트 지하1층 주차장,"서울특별시 영등포구 문래로8길 5(문래동6가, 문래동미원아파트)",36.616065428014345,126.88696193268156,민방위대피시설
동아에코빌 지하1~2층,"서울특별시 영등포구 도림로 365(도림동, 동아에코빌)",36.60534747146124,126.89914722017956,민방위대피시설
삼양동벽산아파트 107동 P4 주차장(지하2~3층),"서울특별시 강북구 솔샘로 159, 지하2~지하3층 (미아동, 벽산라이브파크)",36.71734338067888,127.00992089880437,민방위대피시설
은빛1단지아파트 지하주차장 1층,"서울특별시 노원구 동일로245길 162 (상계동, 은빛1단지아파트)",36.77772066311718,127.05242861618366,민방위대피시설
삼성아파트 지하 1~2층 주차장,"서울특별시 노원구 중계로14나길 25 (중계동, 삼성아파트)",36.74515169306949,127.0815486831982,민방위대피시설
피카디리플러스 지하5~7층,"서울특별시 종로구 돈화문로5가길 1 (돈의동, 피카디리플러스)",36.66722208614091,126.9905539894216,민방위대피시설
현대1차아파트 지하1층,"서울특별시 영등포구 도신로4길 14(대림동, 현대아파트)",36.59831868817039,126.895357348411,민방위대피시설
두산위브아파트 지하1층 주차장,"서울특별시 영등포구 신길로60나길 9(영등포동, 두산위브)",36.6110336743257,126.9129759836546,민방위대피시설
영등포푸르지오아파트 지하1층 주차장,"서울특별시 영등포구 도신로29길 28(영등포동, 영등포푸르지오)",36.60771157247709,126.90276098017677,민방위대피시설
삼양동벽산아파트 112동 P7 주차장(지하2 ~ 3층),"서울특별시 강북구 솔샘로 159, 112동 지하2~지하3층 (미아동, 벽산라이브파크)",36.71734338067888,127.00992089880437,민방위대피시설
한라아파트 지하1~2층,"서울특별시 영등포구 도신로15라길 5-7(도림동, 한라아파트)",36.603725130021004,126.8979253739796,민방위대피시설
동원빌딩 (지하2층),"서울특별시 강남구 영동대로 333 (대치동, 동원빌딩)",36.6002925641744,127.06331775793676,민방위대피시설
화곡4동주민센터 지하주차장 1~2층,"서울특별시 강서구 곰달래로57가길 26 (화곡동, 시립청소년수련관및화곡4동주민자치센터)",36.630744953779406,126.8616539861898,민방위대피시설
방신서광아파트 101동 지하주차장 1층,"서울특별시 강서구 양천로14길 17, 101동 (방화동, 방신서광아파트)",36.66821352807591,126.812137583344,민방위대피시설
