대피소명,주소,위도,경도,유형
청운효자동주민센터,서울특별시 종로구 자하문로 92,37.5840952,126.9706558,한파쉼터
세종마을경로당,서울특별시 종로구 자하문로11길 33,37.5803712,126.9699155,한파쉼터
사직동주민센터,서울특별시 종로구 경희궁1길 15,37.571394,126.9706517,한파쉼터
사직경로당,서울특별시 종로구 사직로9길 15-25 ,37.5764535,126.9655864,한파쉼터
삼청동주민센터,서울특별시 종로구 삼청로 107,37.5849943,126.9817601,한파쉼터
복정경로당,서울특별시 종로구 삼청로4길 22,37.5823969,126.9821249,한파쉼터
부암동주민센터,서울특별시 종로구 창의문로 145,37.5924354,126.9640763,한파쉼터
신영경로당,서울특별시 종로구 세검정로6길 76-19 ,37.601291,126.9636445,한파쉼터
평창동주민센터,서울특별시 종로구 평창문화로 65,37.6063867,126.9683786,한파쉼터
평창경로당,서울특별시 종로구 평창문화로 48,37.6053178,126.9669154,한파쉼터
무악동주민센터,서울특별시 종로구 통일로14길 36,37.5760029,126.9582278,한파쉼터
무악제2경로당,서울특별시 종로구 통일로 246-11 ,37.575735,126.9583283,한파쉼터
교남동주민센터,서울특별시 종로구 송월길 154,37.571916,126.961963,한파쉼터
행촌경로당,서울특별시 종로구 인왕산로1길 58,37.5753864,126.9630088,한파쉼터
가회동주민센터,서울특별시 종로구 북촌로 35,37.5800566,126.9848044,한파쉼터
북촌경로당,서울특별시 종로구 북촌로 20-27 ,37.5789115,126.9858728,한파쉼터
구청사,서울특별시 종로구 종로1길 36,37.573505,126.9789867,한파쉼터
종로1234가동주민센터,서울특별시 종로구 삼일대로30길 47,37.5744316,126.9902611,한파쉼터
운니경로당,서울특별시 종로구 삼일대로32길 51,37.5756351,126.9898416,한파쉼터
종로56가동주민센터,서울특별시 종로구 종로35가길 19,37.5720325,127.0050427,한파쉼터
종로56가경로당,서울특별시 종로구 종로35가길 19,37.5720368,127.0050402,한파쉼터
이화동주민센터,서울특별시 종로구 이화장길 33,37.5769944,127.0043569,한파쉼터
이화경로당,서울특별시 종로구 이화장1나길 15,37.5777353,127.0067503,한파쉼터
혜화동주민센터,서울특별시 종로구 혜화로 12,37.5869073,127.000608,한파쉼터
유림경로당,서울특별시 종로구 성균관로5길 25-13 ,37.5844736,126.996928,한파쉼터
창신1동주민센터,서울특별시 종로구 지봉로 8-6 ,37.5707222,127.016374,한파쉼터
당고개경로당,서울특별시 종로구 종로53길 29,37.5736793,127.0132278,한파쉼터
창신2동주민센터,서울특별시 종로구 창신길 62,37.5744319,127.0108835,한파쉼터
창인경로당,서울특별시 종로구 낙산성곽동길 70-3 ,37.5786855,127.0089349,한파쉼터
창신3동주민센터,서울특별시 종로구 지봉로 87,37.577933,127.0146842,한파쉼터
온고회경로당,서울특별시 종로구 지봉로13길 14,37.578978,127.014694,한파쉼터
숭인1동주민센터,서울특별시 종로구 지봉로 86,37.5778352,127.0156364,한파쉼터
숭인상록경로당,서울특별시 종로구 지봉로 86,37.5778544,127.0155814,한파쉼터
흥인경로당,서울특별시 종로구 숭인동길 78-8 ,37.578254,127.0222011,한파쉼터
숭인2동주민센터,서울특별시 종로구 종로65길 10,37.5748698,127.0199896,한파쉼터
소공동 주민센터,서울특별시 중구 남대문로1길 31-5 ,37.5624004,126.977013,한파쉼터
회현체육센터,서울특별시 중구 퇴계로12길 78,37.5561479,126.9816295,한파쉼터
회현동 주민센터,서울특별시 중구 퇴계로8길 46,37.5572999,126.9794086,한파쉼터
회현경로당,서울특별시 중구 퇴계로12길 89,37.5558275,126.9819701,한파쉼터
명동 주민센터,서울특별시 중구 퇴계로20길 3,37.5600544,126.9858025,한파쉼터
명동경로당,서울특별시 중구 퇴계로20길 25-26 ,37.558995,126.9863726,한파쉼터
필동주민센터,서울특별시 중구 퇴계로36길 42,37.5601546,126.9955807,한파쉼터
필동경로당,서울특별시 중구 필동로 11,37.5605451,126.9962394,한파쉼터
장충경로당,서울특별시 중구 동호로25길 38,37.5594476,127.0015723,한파쉼터
공원장충경로당,서울특별시 중구 동호로 257-8 ,37.558511,127.003887,한파쉼터
장충동 주민센터,서울특별시 중구 장충단로8길 22,37.5619114,127.0078704,한파쉼터
중구 구민회관,서울특별시 중구 을지로39길 40,37.5686023,127.0061091,한파쉼터
중구청 ,서울특별시 중구 창경궁로 17,37.5637821,126.9980697,한파쉼터
묵정경로당,서울특별시 중구 퇴계로45길 32-12 ,37.56388,126.999734,한파쉼터
광희경로당,서울특별시 중구 퇴계로 303-9 ,37.5644485,127.0050323,한파쉼터
광희동 주민센터,서울특별시 중구 퇴계로 303-9 ,37.5644512,127.004986,한파쉼터
을지경로당,서울특별시 중구 을지로 186-14 ,37.5660523,126.9987873,한파쉼터
을지로동 주민센터,서울특별시 중구 충무로9길 20,37.5670184,126.99137,한파쉼터
충무스포츠센터,서울특별시 중구 퇴계로 387,37.5658373,127.0147874,한파쉼터
충무아트센터,서울특별시 중구 퇴계로 387,37.5658373,127.0147874,한파쉼터
신당누리도서관,서울특별시 중구 다산로33길 3,37.5620989,127.0145763,한파쉼터
신당동 주민센터,서울특별시 중구 다산로33길 3,37.562105,127.0145515,한파쉼터
신당경로당,서울특별시 중구 다산로29길 10,37.5610295,127.0134947,한파쉼터
신일경로당,서울특별시 중구 청구로 121,37.5626078,127.0101967,한파쉼터
가온도서관,서울특별시 중구 동호로14길 18,37.5563698,127.0108465,한파쉼터
다산성곽도서관,서울특별시 중구 동호로17길 173,37.5517319,127.0043243,한파쉼터
신당종합사회복지관,서울특별시 중구 동호로11길 22,37.5544522,127.0095547,한파쉼터
다산경로당,서울특별시 중구 동호로12길 97,37.5595449,127.0120608,한파쉼터
장수경로당,서울특별시 중구 동호로11다길 18,37.5519585,127.007057,한파쉼터
충현경로당,서울특별시 중구 동호로17나길 5-4 ,37.5544732,127.0056789,한파쉼터
다산동 주민센터,서울특별시 중구 동호로15길 50,37.5542653,127.0083084,한파쉼터
약수동 커뮤니티센터(악수터),서울특별시 중구 다산로 94,37.5526038,127.0090792,한파쉼터
"중구시설관리공단 , 2층 출입구 휴게공간",서울특별시 중구 동호로8다길 22,37.5522,127.0133663,한파쉼터
남산타운어린이도서관,서울특별시 중구 다산로 32,37.5496,127.0119,한파쉼터
약수노인종합복지관,서울특별시 중구 다산로6길 11,37.5524799,127.0092108,한파쉼터
약수경로당,서울특별시 중구 다산로10길 10-12 ,37.5531516,127.0101447,한파쉼터
동호경로당,서울특별시 중구 동호로8길 42-22 ,37.5524119,127.013025,한파쉼터
약수동주민센터,서울특별시 중구 다산로 92,37.5524756,127.0089583,한파쉼터
청송경로당,서울특별시 중구 청구로1길 23,37.5595366,127.0180876,한파쉼터
삼성경로당,서울특별시 중구 청구로1길 23,37.5581449,127.0178868,한파쉼터
대양경로당,서울특별시 중구 동호로10길 30,37.5548532,127.0147545,한파쉼터
청구동주민센터,서울특별시 중구 청구로3길 55,37.5571022,127.0146791,한파쉼터
청구경로당,서울특별시 중구 청구로3길 69,37.556536,127.0143731,한파쉼터
유락종합사회복지관,서울특별시 중구 퇴계로 460,37.5651315,127.022827,한파쉼터
신당5동주민센터,서울특별시 중구 다산로44길 85,37.5651172,127.0218667,한파쉼터
유락경로당,서울특별시 중구 퇴계로90길 42,37.5634445,127.0216395,한파쉼터
신당5동경로당,서울특별시 중구 다산로42길 53,37.5643603,127.0192147,한파쉼터
어울림도서관,서울특별시 중구 다산로38길 66-35 ,37.5617067,127.0189662,한파쉼터
동화동주민센터,서울특별시 중구 다산로36길 100,37.5599648,127.019399,한파쉼터
동화경로당,서울특별시 중구 청구로 64,37.5604892,127.0166912,한파쉼터
현대아파트경로당,서울특별시 중구 다산로36길 109,37.5599543,127.0213758,한파쉼터
푸르지오경로당,서울특별시 중구 다산로36길 110,37.5592014,127.0195265,한파쉼터
청구e편한세상경로당,서울특별시 중구 청구로 64,37.5604011,127.0166611,한파쉼터
동화동구립경로당,서울특별시 중구 퇴계로80길 52,37.5632367,127.0172988,한파쉼터
황학동주민센터,서울특별시 중구 난계로11길 52,37.5674378,127.0213668,한파쉼터
SH황학롯데캐슬경로당,서울특별시 중구 청계천로 400,37.5710252,127.0212143,한파쉼터
황중경로당,서울특별시 중구 난계로11길 37,37.5666637,127.0217758,한파쉼터
손기정문화체육센터,서울특별시 중구 손기정로 101,37.5559233,126.964559,한파쉼터
손기정어린이도서관,서울특별시 중구 손기정로 101,37.5551649,126.9647557,한파쉼터
손기정문화도서관,서울특별시 중구 손기정로 101,37.5559233,126.964559,한파쉼터
중림종합사회복지관,서울특별시 중구 서소문로6길 16,37.5594606,126.9660708,한파쉼터
중림동주민센터,서울특별시 중구 중림로8길 24,37.5576533,126.9662713,한파쉼터
충정경로당(임대),서울특별시 중구 중림로4길 41,37.5571804,126.9646435,한파쉼터
삼성사이버경로당,서울특별시 중구 중림로 10,37.5582144,126.9652972,한파쉼터
중림경로당,서울특별시 중구 손기정로 101-5 ,37.5568741,126.9660121,한파쉼터
후암동 주민센터,서울특별시 용산구 후암로 32-6 ,37.5486923,126.9781405,한파쉼터
양짓말 경로당,서울특별시 용산구 후암로13가길 25,37.5481297,126.976385,한파쉼터
용산2가동 주민센터,서울특별시 용산구 신흥로 90,37.5459639,126.9855058,한파쉼터
용암 경로당,서울특별시 용산구 신흥로3가길 21-7 ,37.5410043,126.984648,한파쉼터
남영동 주민센터,서울특별시 용산구 두텁바위로 25,37.5457597,126.9748896,한파쉼터
뉴월드호텔(야간 한파쉼터),서울특별시 용산구 한강대로84길 21-13 ,37.5443051,126.9734976,한파쉼터
남영경로당,서울특별시 용산구 한강대로72길 21-15 ,37.5412825,126.9743835,한파쉼터
청파동 주민센터,서울특별시 용산구 청파로49길 6,37.545479,126.9698846,한파쉼터
청파2동 경로당,서울특별시 용산구 청파로49길 34,37.5454608,126.968465,한파쉼터
원효1동 경로당,서울특별시 용산구 백범로 329,37.5387661,126.9655096,한파쉼터
원효로제1동 주민센터,서울특별시 용산구 백범로 350,37.5372357,126.9676262,한파쉼터
원효로제2동 주민센터,서울특별시 용산구 효창원로8길 3,37.5343006,126.9515491,한파쉼터
원효로 경로당,서울특별시 용산구 원효로41가길 14-19 ,37.5347983,126.956884,한파쉼터
효창동 주민센터,서울특별시 용산구 효창원로 161,37.5424761,126.9618058,한파쉼터
효창제2경로당,서울특별시 용산구 효창원로 146-12 ,37.5412335,126.962956,한파쉼터
용문동 주민센터,서울특별시 용산구 새창로12길 13,37.5389627,126.9574499,한파쉼터
송학당 경로당,서울특별시 용산구 효창원로37라길 11,37.537888,126.9581749,한파쉼터
한강로동 주민센터,서울특별시 용산구 한강대로38길 28,37.5281193,126.9692892,한파쉼터
한강로3가 경로당,서울특별시 용산구 한강대로7길 17-16 ,37.5239798,126.961256,한파쉼터
이촌1동 주민센터,서울특별시 용산구 이촌로71길 24,37.5212994,126.9733286,한파쉼터
이촌1동구립경로당,서울특별시 용산구 이촌로75길 12-12 ,37.5202528,126.974667,한파쉼터
이촌2동 주민센터,서울특별시 용산구 이촌로18길 20,37.5262772,126.954647,한파쉼터
이촌2동할머니 경로당,,37.5250477,126.9556636,한파쉼터
용산구청(응급대피소 겸용),서울특별시 용산구 녹사평대로 150,37.5324884,126.9902372,한파쉼터
이태원1동 주민센터,서울특별시 용산구 보광로 104-6 ,37.5325054,126.9950223,한파쉼터
이태원1동 경로당,서울특별시 용산구 이태원로23길 19,37.5352909,126.9924493,한파쉼터
이태원2동 주민센터,서울특별시 용산구 회나무로13길 58,37.5419147,126.9901192,한파쉼터
이태원 북부경로당,서울특별시 용산구 회나무로13길 32,37.5407394,126.98975,한파쉼터
한남동 주민센터,서울특별시 용산구 대사관로5길 1,37.5346068,127.000553,한파쉼터
한남동제1 경로당,서울특별시 용산구 한남대로 48-3 ,37.5333933,127.0083151,한파쉼터
서빙고동 주민센터,서울특별시 용산구 서빙고로 279,37.5204145,126.9947219,한파쉼터
동빙고 경로당,서울특별시 용산구 서빙고로75가길 23,37.522893,126.9963558,한파쉼터
보광동 주민센터,서울특별시 용산구 장문로 95,37.5262602,127.0001292,한파쉼터
보광제1 경로당,서울특별시 용산구 보광로7길 9,37.5258369,127.000553,한파쉼터
코스모타워.서울신용보증재단성동지점 (상왕십리역) 스마트쉼터,서울특별시 성동구 왕십리로 357-1 ,37.5630218,127.0328414,한파쉼터
상왕십리역 (왕십리2동주민센터) 스마트쉼터,,37.5643591,127.0290408,한파쉼터
왕십리제2동주민센터,서울특별시 성동구 무학봉15길 6,37.5617588,127.0309773,한파쉼터
상왕십리역.센트라스아파트 (상왕십리역방면) 스마트쉼터,서울특별시 성동구 마장로 206-1 ,37.565909,127.0299929,한파쉼터
청계벽산아파트.텐즈힐아파트 (동아제약앞방면) 스마트쉼터,,37.56876,127.0303389,한파쉼터
황학교.텐즈힐몰 스마트쉼터,서울특별시 성동구 마장로 137,37.570042,127.0236415,한파쉼터
청계벽산아파트.텐즈힐아파트 (상왕십리역.센트라스아파트방면) 스마트쉼터,,37.5679628,127.0300439,한파쉼터
왕십리센트라스아파트 (성동고등학교) 스마트쉼터,,37.5647142,127.0287162,한파쉼터
상왕십리역 (왕십리센트라스아파트) 스마트쉼터,,37.5647142,127.0287189,한파쉼터
왕십리도선동주민센터,서울특별시 성동구 마장로 141,37.5678526,127.025458,한파쉼터
성동구도시관리공단 스마트쉼터,서울특별시 성동구 청계천로 546,37.5718362,127.0368326,한파쉼터
성동노인복지관 스마트쉼터,서울특별시 성동구 마조로 77,37.5649501,127.0415801,한파쉼터
성동사회복지관.청계천박물관 스마트쉼터,,37.5718596,127.0368513,한파쉼터
마장역 스마트쉼터,,37.565605,127.0424116,한파쉼터
마장축산물시장 (도선사거리) 스마트쉼터,서울특별시 성동구 고산자로 344-1 ,37.5702886,127.0375139,한파쉼터
마장축산물시장 (동대문구청.용두역3번출구) 스마트쉼터,서울특별시 성동구 고산자로 344-1 ,37.5709837,127.0380101,한파쉼터
마장동주민센터,서울특별시 성동구 마장로42길 11,37.5663242,127.045289,한파쉼터
한양대정문앞 (서울숲삼부아파트) 스마트쉼터,,37.5568855,127.0431948,한파쉼터
사근동주민센터,서울특별시 성동구 사근동길 37,37.561498,127.045311,한파쉼터
왕십리광장.왕십리역4번출구 (무학여고) 스마트쉼터,,37.5614101,127.0370713,한파쉼터
성동구청 (성동교육청앞) 스마트쉼터,서울특별시 성동구 고산자로 280,37.5640466,127.0364222,한파쉼터
왕십리광장.왕십리역7번출구 (왕십리민자역사방면) 스마트쉼터,,37.5611061,127.0366234,한파쉼터
응봉사거리 (무학여고앞) 스마트쉼터,서울특별시 성동구 고산자로 164,37.5553417,127.0344695,한파쉼터
행당1동주민센터,서울특별시 성동구 고산자로10길 18,37.5585157,127.036117,한파쉼터
성동구청(책마루),서울특별시 성동구 고산자로 270,37.563319,127.036734,한파쉼터
한양대앞.한양시장 스마트쉼터,,37.5585503,127.0409873,한파쉼터
논골신협대림아파트후문 스마트쉼터,서울특별시 성동구 행당로 79,37.5576042,127.0247573,한파쉼터
행당역 (행당2동주민센터) 스마트쉼터,,37.5569429,127.0289281,한파쉼터
행당역 (대림아파트후문) 스마트쉼터,,37.557147,127.0287564,한파쉼터
무학여고 (행당신동아.행당푸르지오아파트) 스마트쉼터,,37.5578891,127.033866,한파쉼터
행당2동주민센터,서울특별시 성동구 행당로9길 9,37.5582382,127.02936,한파쉼터
광희중학교.응봉역 스마트쉼터,,37.5518374,127.0350194,한파쉼터
응봉현대아파트 (삼성래미안아파트앞) 스마트쉼터,서울특별시 성동구 독서당로 381-1 ,37.5502553,127.0310551,한파쉼터
응봉동주민센터 (응봉사거리방면) 스마트쉼터,,37.5532685,127.0333377,한파쉼터
응봉동주민센터,서울특별시 성동구 독서당로 424,37.5531556,127.033421,한파쉼터
삼성래미안아파트앞 스마트쉼터,서울특별시 성동구 독서당로 343,37.548401,127.0274475,한파쉼터
금호1가동주민센터,서울특별시 성동구 행당로 15,37.5547709,127.021754,한파쉼터
신금호역 (금호고등학교.금호자이1차아파트입구) 스마트쉼터,서울특별시 성동구 금호로 173,37.5556394,127.0198059,한파쉼터
금호역 (현대아파트) 스마트쉼터,,37.548552,127.0152783,한파쉼터
금호2-3가동주민센터,서울특별시 성동구 무수막18길 1,37.5531853,127.020916,한파쉼터
무쇠막 스마트쉼터,서울특별시 성동구 금호로 20,37.545496,127.024827,한파쉼터
금호역 (약수역4번출구.금호터널입구방면) 스마트쉼터,,37.5478927,127.0162064,한파쉼터
힐스테이트서울숲리버아파트 스마트쉼터,서울특별시 성동구 독서당로 342,37.5479119,127.0270291,한파쉼터
금호역 스마트쉼터,,37.5485435,127.0164451,한파쉼터
금호4가동주민센터,서울특별시 성동구 독서당로46길 26,37.5471484,127.022351,한파쉼터
금호독서당(책마루),서울특별시 성동구 금호로 30,37.5456162,127.025146,한파쉼터
옥수삼성아파트.래미안옥수리버젠 (극동그린아파트앞) 스마트쉼터,,37.5438351,127.0146292,한파쉼터
옥수동주민센터,서울특별시 성동구 독서당로 203,37.5436331,127.0135188,한파쉼터
서울숲역3번출구 (뚝도아리수정수센터방면) 스마트쉼터,,37.5431142,127.044383,한파쉼터
서울숲역2번출구 (성동구민종합체육센터) 스마트쉼터,,37.5428845,127.0446566,한파쉼터
성수1가1동주민센터,서울특별시 성동구 뚝섬로3길 18,37.5419777,127.049631,한파쉼터
뚝섬역8번출구 스마트쉼터,서울특별시 성동구 아차산로 12-1 ,37.5476886,127.0455283,한파쉼터
상원 (리버하우스방면) 스마트쉼터,서울특별시 성동구 광나루로 142-1 ,37.5513866,127.0460969,한파쉼터
뚝섬역4번출구 스마트쉼터,서울특별시 성동구 아차산로 39-1 ,37.5467507,127.0492512,한파쉼터
뚝섬역2번출구 스마트쉼터,서울특별시 성동구 아차산로 12-3 ,37.5475397,127.0468882,한파쉼터
성동구민종합체육센터 (서울숲) 스마트쉼터,서울특별시 성동구 왕십리로5길 10,37.5465849,127.04456,한파쉼터
성동교남단 (한양대정문앞) 스마트쉼터,서울특별시 성동구 아차산로 2-1 ,37.5495791,127.0444715,한파쉼터
뚝섬역3번5번출구 (성수역) 스마트쉼터,,37.5464658,127.0492968,한파쉼터
성수1가2동주민센터,서울특별시 성동구 왕십리로5길 3,37.5462505,127.044372,한파쉼터
성수아트홀(책마루),서울특별시 성동구 뚝섬로1길 43,37.545396,127.0469622,한파쉼터
성수2가1동주민센터,서울특별시 성동구 뚝섬로 385-19 ,37.5395071,127.054065,한파쉼터
성수역4번출구 스마트쉼터,서울특별시 성동구 아차산로 96-1 ,37.5448134,127.0548168,한파쉼터
성동세무서 맞은편 스마트쉼터,서울특별시 성동구 광나루로 334-1 ,37.5480288,127.0620266,한파쉼터
성수사거리 스마트쉼터,서울특별시 성동구 아차산로 167,37.5428398,127.062394,한파쉼터
화양사거리 (성수초등학교) 스마트쉼터,서울특별시 성동구 광나루로8길 31,37.54731,127.0666614,한파쉼터
성수2가3동주민센터,서울특별시 성동구 광나루로2길 35,37.5482283,127.055112,한파쉼터
제인병원 스마트쉼터,서울특별시 성동구 광나루로 243,37.5493345,127.056874,한파쉼터
군자교남단 스마트쉼터,,37.5575127,127.0724282,한파쉼터
송정동현대아이파크아파트 (송정동자치회관) 스마트쉼터,,37.5521862,127.0686784,한파쉼터
송정동건영아파트 (송정동서울숲아이파크) 스마트쉼터,서울특별시 성동구 동일로 265,37.5552907,127.0712024,한파쉼터
성동세무서 (제인병원) 스마트쉼터,,37.5482734,127.064175,한파쉼터
송정동주민센터,서울특별시 성동구 동일로43길 13,37.5545908,127.069546,한파쉼터
신답역 스마트쉼터,,37.5701653,127.0476955,한파쉼터
용답동.로데오거리.답십리역 스마트쉼터,,37.5657198,127.0537519,한파쉼터
용답동주민센터,서울특별시 성동구 용답중앙23길 20,37.5641757,127.055384,한파쉼터
화양장수경로당,서울특별시 광진구 군자로 34,37.5463339,127.0704892,한파쉼터
현대아파트 경로당,서울특별시 광진구 동일로24길 5,37.5443732,127.0656413,한파쉼터
화양경로당,서울특별시 광진구 능동로17길 39,37.5465376,127.0713179,한파쉼터
모진경로당,서울특별시 광진구 광나루로24길 53,37.5450517,127.0780555,한파쉼터
화양동주민센터,서울특별시 광진구 능동로17길 39,37.546478,127.071293,한파쉼터
일성파크아파트 경로당,서울특별시 광진구 군자로12길 46,37.5513455,127.0726955,한파쉼터
복조리경로당,서울특별시 광진구 광나루로17길 28,37.5488597,127.0724033,한파쉼터
군자경로당,서울특별시 광진구 동일로52길 27,37.554418,127.072768,한파쉼터
양마경로당,서울특별시 광진구 동일로42길 2,37.552876,127.070286,한파쉼터
양마제2경로당,서울특별시 광진구 군자로13길 35,37.5517694,127.0705721,한파쉼터
군자동주민센터,서울특별시 광진구 면목로 13,37.555586,127.0754651,한파쉼터
광진노인종합복지관,서울특별시 광진구 군자로 88,37.551075,127.071497,한파쉼터
중곡1동경로당,서울특별시 광진구 긴고랑로5길 10,37.5645561,127.0791404,한파쉼터
중곡1동제2경로당,서울특별시 광진구 긴고랑로8길 51,37.5611728,127.0779688,한파쉼터
중곡1동주민센터,서울특별시 광진구 긴고랑로12길 49,37.560566,127.080038,한파쉼터
한마음경로당,서울특별시 광진구 긴고랑로22길 39-4 ,37.559217,127.083744,한파쉼터
장수경로당,서울특별시 광진구 긴고랑로31길 44,37.56171,127.086883,한파쉼터
중곡2동주민센터,서울특별시 광진구 능동로 346,37.5602523,127.0814064,한파쉼터
중곡종합사회복지관,서울특별시 광진구 용마산로3길 62,37.556657,127.084817,한파쉼터
용마경로당,서울특별시 광진구 용마산로31길 38-8 ,37.5692617,127.0840609,한파쉼터
중곡3동경로당,서울특별시 광진구 동일로80길 20,37.570052,127.080895,한파쉼터
중곡3동주민센터,서울특별시 광진구 용마산로 117,37.5640178,127.086549,한파쉼터
중곡4동경로당,서울특별시 광진구 긴고랑로39길 57,37.559388,127.093102,한파쉼터
용곡경로당,서울특별시 광진구 용마산로28길 31,37.567656,127.087908,한파쉼터
대원경로당,서울특별시 광진구 긴고랑로36길 57-27 ,37.557602,127.091653,한파쉼터
중곡4동주민센터,서울특별시 광진구 긴고랑로 131,37.5590837,127.0894508,한파쉼터
능동경로당,서울특별시 광진구 천호대로112길 70,37.5531677,127.0801892,한파쉼터
능동주민센터,서울특별시 광진구 천호대로112길 55,37.5537961,127.080446,한파쉼터
광장제1경로당,서울특별시 광진구 아차산로73길 15,37.545883,127.104005,한파쉼터
광장제2경로당,서울특별시 광진구 아차산로78길 67,37.551709,127.110602,한파쉼터
광장동주민센터,서울특별시 광진구 광장로 52,37.5469114,127.1029332,한파쉼터
광진구노인회관,서울특별시 광진구 광장로 62,37.547154,127.104024,한파쉼터
광장종합사회복지관,서울특별시 광진구 아차산로66길 8,37.541028,127.097127,한파쉼터
광진구청 한파 응급대피소,서울특별시 광진구 자양로 117,37.538129,127.0826823,한파쉼터
래미안 시니어클럽 경로당,서울특별시 광진구 아차산로 345,37.5379914,127.081351,한파쉼터
청아경로당,서울특별시 광진구 아차산로 317,37.5380417,127.0782972,한파쉼터
중앙경로당,서울특별시 광진구 뚝섬로57가길 48-3 ,37.532386,127.0811893,한파쉼터
자마장경로당,서울특별시 광진구 자양로13길 37,37.5345191,127.0824159,한파쉼터
자양1동주민센터,서울특별시 광진구 자양로13길 37,37.534445,127.082384,한파쉼터
자양1동경로당,서울특별시 광진구 아차산로40길 46,37.5356682,127.0778435,한파쉼터
현대강변아파트 경로당,서울특별시 광진구 자양로3가길 43,37.5284285,127.0859474,한파쉼터
자양경남아파트 경로당,서울특별시 광진구 뚝섬로52길 71,37.5289369,127.078962,한파쉼터
자양2현대2차아파트 경로당,서울특별시 광진구 뚝섬로56길 72,37.5280541,127.0824069,한파쉼터
로얄동아아파트경로당,서울특별시 광진구 뚝섬로52마길 56,37.5282243,127.0813984,한파쉼터
경남아너스빌 경로당,서울특별시 광진구 자양로3길 49,37.5295176,127.0839518,한파쉼터
구립자양노인복지관,서울특별시 광진구 뚝섬로56길 20,37.5305421,127.0824757,한파쉼터
자양 구립제1경로당,서울특별시 광진구 뚝섬로56길 28,37.530283,127.082446,한파쉼터
유수지경로당,서울특별시 광진구 뚝섬로48길 46,37.5299959,127.0768171,한파쉼터
자양 구립제2경로당,서울특별시 광진구 뚝섬로62길 17,37.532535,127.088155,한파쉼터
자양2동주민센터,서울특별시 광진구 자양로3가길 26,37.528785,127.084456,한파쉼터
신양경로당,서울특별시 광진구 뚝섬로 543,37.534821,127.070567,한파쉼터
마실경로당,서울특별시 광진구 자양번영로7길 16-9 ,37.5362583,127.0754691,한파쉼터
자양종합사회복지관,서울특별시 광진구 자양번영로 35,37.532894,127.075196,한파쉼터
자양제3동경로당,서울특별시 광진구 자양번영로3길 16,37.5318992,127.0743003,한파쉼터
자양3동주민센터,서울특별시 광진구 뚝섬로 568,37.5338326,127.0728868,한파쉼터
한화꿈에그린아파트 경로당,서울특별시 광진구 뚝섬로24길 74,37.5333845,127.0619461,한파쉼터
한강우성아파트 경로당,서울특별시 광진구 능동로1길 15,37.5327268,127.0660018,한파쉼터
자양4동 제1경로당,서울특별시 광진구 동일로12길 24,37.5396209,127.0635531,한파쉼터
자양4동제4경로당,서울특별시 광진구 뚝섬로30가길 18,37.535113,127.065268,한파쉼터
노유산경로당,서울특별시 광진구 동일로10가길 15-2 ,37.5387394,127.0638371,한파쉼터
자양4동주민센터,서울특별시 광진구 뚝섬로26길 58,37.534057,127.066231,한파쉼터
자양4동제2경로당,서울특별시 광진구 동일로2길 17,37.5351173,127.0613158,한파쉼터
구의1동경로당,서울특별시 광진구 광나루로40길 6,37.5445034,127.0893848,한파쉼터
구의1동제2경로당,서울특별시 광진구 광나루로30가길 27,37.5439311,127.0835362,한파쉼터
구의1동주민센터,서울특별시 광진구 광나루로36길 56,37.5425184,127.0857555,한파쉼터
명성경로당,서울특별시 광진구 자양로26길 20-5 ,37.5413809,127.0851535,한파쉼터
래미안파크스위트경로당,서울특별시 광진구 광나루로 545,37.5460957,127.0906833,한파쉼터
구의2동주민센터,서울특별시 광진구 천호대로136길 55,37.5472462,127.0898911,한파쉼터
구의2동경로당,서울특별시 광진구 자양로38길 17-5 ,37.54722,127.089051,한파쉼터
소능경로당,서울특별시 광진구 자양로37길 85,37.547628,127.085923,한파쉼터
아차산경로당,서울특별시 광진구 자양로47길 9-4 ,37.552141,127.091617,한파쉼터
구의3동주민센터,서울특별시 광진구 강변역로 17,37.5379926,127.091984,한파쉼터
구의새마을경로당,서울특별시 광진구 구의강변로3길 39,37.5362965,127.0901399,한파쉼터
산의마을경로당,서울특별시 광진구 아차산로63길 21,37.5403134,127.0922674,한파쉼터
다사랑행복센터,서울특별시 동대문구 청계천로 521,37.5718669,127.0340822,한파쉼터
용두문화복지센터,서울특별시 동대문구 고산자로28길 13,37.5752871,127.0391486,한파쉼터
동대문장애인종합복지관,서울특별시 동대문구 청계천로 521,37.571805,127.034109,한파쉼터
동대문구청,서울특별시 동대문구 천호대로 145,37.5744234,127.0395657,한파쉼터
명성 경로당,서울특별시 동대문구 무학로28길 22-2 ,37.5743617,127.0319456,한파쉼터
동대문종합사회복지관,서울특별시 동대문구 약령시로5길 22,37.5840579,127.0341177,한파쉼터
제기경로당,서울특별시 동대문구 경동시장로23길 14,37.5857446,127.0395014,한파쉼터
전일청소년독서실,서울특별시 동대문구 전농로37길 17,37.5845526,127.0517103,한파쉼터
화목경로당,서울특별시 동대문구 전농로31길 33,37.5829304,127.0516303,한파쉼터
배봉산숲속도서관,서울특별시 동대문구 사가정로 191-1 ,37.578514,127.0625936,한파쉼터
성너머경로당,서울특별시 동대문구 사가정로 191-1 ,37.5787238,127.0656529,한파쉼터
답십리청소년독서실,서울특별시 동대문구 천호대로65길 17,37.5709693,127.04904,한파쉼터
동대문구답십리도서관,서울특별시 동대문구 서울시립대로4길 75,37.5731943,127.0504079,한파쉼터
답십리3동경로당,서울특별시 동대문구 황물로 30,37.5741917,127.0452064,한파쉼터
답십리2청소년독서실,서울특별시 동대문구 답십리로56길 15,37.5721054,127.0594947,한파쉼터
동대문구체육관,서울특별시 동대문구 답십리로 210-3 ,37.5722968,127.0639799,한파쉼터
중산경로당,서울특별시 동대문구 답십리로48길 54,37.570363,127.0576411,한파쉼터
동대문구 구민체육센터,서울특별시 동대문구 장안벚꽃로 67,37.5664574,127.0734928,한파쉼터
장안종합사회복지관,서울특별시 동대문구 한천로18길 48,37.5679618,127.0661585,한파쉼터
미나리경로당(장안3동경로당),서울특별시 동대문구 천호대로87길 43,37.563674,127.06794,한파쉼터
늘봄경로당,서울특별시 동대문구 장한로26나길 6,37.571309,127.072576,한파쉼터
동대문구정보화도서관,서울특별시 동대문구 회기로10길 60,37.5896924,127.0470868,한파쉼터
시립동대문노인종합복지관,서울특별시 동대문구 제기로33길 25,37.587182,127.049906,한파쉼터
청량 경로당,서울특별시 동대문구 왕산로43다길 5,37.5862632,127.0472583,한파쉼터
회기구립경로당,서울특별시 동대문구 이문로3길 54,37.590711,127.052038,한파쉼터
아름경로당,서울특별시 동대문구 휘경로 78,37.593623,127.068243,한파쉼터
휘경어린이도서관,서울특별시 동대문구 망우로18가길 38,37.5886807,127.0606123,한파쉼터
수복 경로당,서울특별시 동대문구 망우로6길 24,37.586663,127.055552,한파쉼터
이문청소년독서실,서울특별시 동대문구 이문로9길 52,37.594523,127.0565234,한파쉼터
고황경로당,서울특별시 동대문구 이문로9길 52,37.5945033,127.0565388,한파쉼터
이문체육문화센터,서울특별시 동대문구 한천로58길 81-49 ,37.6022207,127.0687036,한파쉼터
신이문 경로당,서울특별시 동대문구 신이문로8길 32,37.601511,127.063361,한파쉼터
면목2동주민센터,서울특별시 중랑구 동일로101길 20-15 ,37.5897681,127.0789293,한파쉼터
면목2동구립서부경로당,서울특별시 중랑구 겸재로3길 50,37.5881,127.0769,한파쉼터
면목2동구립동부경로당,서울특별시 중랑구 겸재로27가길 18-4 ,37.5882257,127.0829168,한파쉼터
면목4동주민센터,서울특별시 중랑구 면목로 246,37.5747586,127.0854597,한파쉼터
샘터경로당,서울특별시 중랑구 면목로21길 28,37.5725872,127.0822783,한파쉼터
대성경로당,서울특별시 중랑구 면목로31길 60,37.5760862,127.0819087,한파쉼터
용마폭포공원경로당,서울특별시 중랑구 용마산로 250-12 ,37.5733439,127.0900972,한파쉼터
면목5동주민센터,서울특별시 중랑구 동일로 619,37.5858452,127.0794645,한파쉼터
면목5동제1구립경로당,서울특별시 중랑구 동일로95길 29,37.5845229,127.0779563,한파쉼터
면목5동제2구립경로당,서울특별시 중랑구 동일로92길 17-7 ,37.5838638,127.0808109,한파쉼터
면목본동주민센터,서울특별시 중랑구 면목로 397,37.5873114,127.087529,한파쉼터
안수경로당,서울특별시 중랑구 면목로63길 36,37.586346,127.086252,한파쉼터
면목본동경로당,서울특별시 중랑구 면목로64길 37-4 ,37.5861403,127.0911689,한파쉼터
섬들경로당,서울특별시 중랑구 면목로76길 42,37.5901158,127.0903185,한파쉼터
은행길경로당,서울특별시 중랑구 겸재로 212-7 ,37.5888388,127.091476,한파쉼터
면목7동주민센터,서울특별시 중랑구 사가정로52길 13,37.5801119,127.0874244,한파쉼터
면목7동구립경로당,서울특별시 중랑구 사가정로50길 91,37.5771136,127.0844458,한파쉼터
용마경로당,서울특별시 중랑구 면목로40길 23,37.5788183,127.0884689,한파쉼터
"면목3,8동주민센터",서울특별시 중랑구 사가정로51길 48,37.5830178,127.0880672,한파쉼터
까치공원경로당,서울특별시 중랑구 사가정로49길 56,37.5836103,127.0870547,한파쉼터
용마통합경로당,서울특별시 중랑구 용마산로94길 98,37.5873568,127.1017576,한파쉼터
용마산경로당,서울특별시 중랑구 용마산로 327,37.5811555,127.0931053,한파쉼터
상봉1동주민센터,서울특별시 중랑구 상봉중앙로1길 6,37.5999239,127.087143,한파쉼터
구립중랑경로당,서울특별시 중랑구 봉화산로43길 9,37.6036901,127.0873439,한파쉼터
청운경로당,서울특별시 중랑구 봉화산로30길 69-3 ,37.5990904,127.0853559,한파쉼터
상봉1동구립경로당,서울특별시 중랑구 봉화산로42길 20,37.6022371,127.0874935,한파쉼터
서촌경로당,서울특별시 중랑구 신내로7가길 71,37.6021535,127.092096,한파쉼터
상봉2동주민센터,서울특별시 중랑구 동일로114길 10,37.5930666,127.0809308,한파쉼터
상봉2동구립경로당,서울특별시 중랑구 동일로112길 27,37.5931305,127.0824785,한파쉼터
봉황경로당,서울특별시 중랑구 봉우재로33길 55-10 ,37.5952586,127.0882556,한파쉼터
중화1동주민센터,서울특별시 중랑구 동일로134길 17,37.6011345,127.080715,한파쉼터
중화1동통합경로당,서울특별시 중랑구 동일로138길 28,37.6033033,127.0812117,한파쉼터
중화2동주민센터,,37.6020302,127.0774804,한파쉼터
봉화경로당,서울특별시 중랑구 봉화산로3길 40-5 ,37.6035243,127.0760238,한파쉼터
학구경로당,서울특별시 중랑구 동일로123길 69-5 ,37.5983096,127.0761238,한파쉼터
백학경로당,서울특별시 중랑구 중랑천로20길 6-14 ,37.5957535,127.0727723,한파쉼터
묵1동주민센터,서울특별시 중랑구 공릉로2가길 5,37.6124007,127.0785496,한파쉼터
화랑마을경로당,,37.6090802,127.0803131,한파쉼터
묵1동구립경로당,서울특별시 중랑구 공릉로2라길 26,37.6132902,127.0816952,한파쉼터
묵2동주민센터,서울특별시 중랑구 중랑역로 181,37.6095807,127.0759754,한파쉼터
구립학수경로당,서울특별시 중랑구 중랑천로 252-1 ,37.6072264,127.0735087,한파쉼터
한양경로당,서울특별시 중랑구 중랑역로 209-3 ,37.6121576,127.0753948,한파쉼터
망우본동주민센터,서울특별시 중랑구 망우로67길 10,37.6005733,127.1014534,한파쉼터
우림경로당,서울특별시 중랑구 용마산로115나길 8,37.5976509,127.0966015,한파쉼터
망우경로당,서울특별시 중랑구 망우로72길 15-3 ,37.5993859,127.1028261,한파쉼터
안산경로당,서울특별시 중랑구 봉우재로65가길 18,37.5957888,127.0980949,한파쉼터
망우본동경로당,서울특별시 중랑구 망우로73길 24-8 ,37.6016091,127.103646,한파쉼터
망우3동주민센터,서울특별시 중랑구 겸재로61길 40,37.5918934,127.0948702,한파쉼터
햇님경로당,서울특별시 중랑구 봉우재로58길 16-5 ,37.5936192,127.0952625,한파쉼터
샛별경로당,서울특별시 중랑구 용마공원로5가길 36,37.5930306,127.1021975,한파쉼터
신내1동주민센터,서울특별시 중랑구 용마산로129나길 35,37.6058859,127.099488,한파쉼터
새우개경로당,서울특별시 중랑구 용마산로139나길 47,37.6178316,127.1023936,한파쉼터
신내구립경로당,서울특별시 중랑구 망우로65길 20,37.6012589,127.0999623,한파쉼터
피울경로당,서울특별시 중랑구 용마산로129나길 25,37.6061887,127.0996758,한파쉼터
중랑구청 지하상황실,서울특별시 중랑구 봉화산로 179,37.6066787,127.0926557,한파쉼터
신내2동주민센터,서울특별시 중랑구 봉화산로 190,37.6062938,127.0941612,한파쉼터
성북동 주민센터,서울특별시 성북구 성북로 37,37.591027,127.003228,한파쉼터
성북구청,서울특별시 성북구 보문로 168,37.589445,127.0168716,한파쉼터
삼선실버복지센터,서울특별시 성북구 삼선교로18길 41,37.589148,127.014055,한파쉼터
삼선동 주민센터,서울특별시 성북구 보문로 190,37.590897,127.0145,한파쉼터
동선동 주민센터,서울특별시 성북구 동소문로26길 27,37.593941,127.020394,한파쉼터
돈암1동 주민센터,서울특별시 성북구 정릉로48길 35,37.6025405,127.027764,한파쉼터
아리랑 도서관,서울특별시 성북구 아리랑로 82,37.5998502,127.0139802,한파쉼터
아리랑 시네미디어센터,서울특별시 성북구 아리랑로 82,37.5999288,127.0138514,한파쉼터
돈암2동 주민센터,서울특별시 성북구 흥천사길 7,37.5980523,127.0105121,한파쉼터
안암동 주민센터,서울특별시 성북구 고려대로 16,37.5858009,127.0213469,한파쉼터
보문동 주민센터,서울특별시 성북구 안암로3길 35,37.5804183,127.0228304,한파쉼터
정릉1동 주민센터,서울특별시 성북구 정릉로38마길 33,37.6014404,127.0166532,한파쉼터
정릉2동 주민센터,서울특별시 성북구 정릉로 236,37.6050774,127.0100139,한파쉼터
정릉3동 주민센터,서울특별시 성북구 솔샘로1길 6-3 ,37.6089311,127.0041665,한파쉼터
정릉종합사회복지관,서울특별시 성북구 솔샘로5길 92,37.6112518,127.0011384,한파쉼터
정릉실버복지센터,서울특별시 성북구 솔샘로 8,37.608211,127.0045422,한파쉼터
성북 청수도서관,서울특별시 성북구 보국문로16가길 20,37.6117476,127.0107669,한파쉼터
정릉4동 주민센터,서울특별시 성북구 보국문로 106-1 ,37.613347,127.0069976,한파쉼터
길음1동 주민센터,서울특별시 성북구 길음로 92,37.6104983,127.0193799,한파쉼터
길음2동 주민센터,서울특별시 성북구 삼양로2길 70,37.6067637,127.0272712,한파쉼터
길음종합사회복지관,서울특별시 성북구 삼양로2길 55,37.6066692,127.0267766,한파쉼터
성북노인종합복지관,서울특별시 성북구 종암로15길 10,37.5977879,127.0343942,한파쉼터
종암동 주민센터,서울특별시 성북구 종암로 98-8 ,37.5990299,127.0351991,한파쉼터
생명의전화 종합사회복지관,서울특별시 성북구 오패산로 21,37.6042277,127.036854,한파쉼터
월곡종합사회복지관,서울특별시 성북구 오패산로16길 23,37.608929,127.037481,한파쉼터
월곡1동 주민센터,서울특별시 성북구 오패산로 96,37.6106159,127.0357877,한파쉼터
성북구 보건소,서울특별시 성북구 화랑로 63,37.6026857,127.0395539,한파쉼터
성북정보도서관,서울특별시 성북구 화랑로18자길 13,37.6049353,127.0505729,한파쉼터
상월곡실버복지센터,서울특별시 성북구 화랑로18길 6,37.605864,127.0480919,한파쉼터
월곡2동 주민센터,서울특별시 성북구 화랑로 152,37.6057652,127.04796,한파쉼터
장위1동 주민센터,서울특별시 성북구 장위로 61,37.6140351,127.0438185,한파쉼터
장위종합사회복지관,서울특별시 성북구 화랑로 237,37.6104451,127.0555651,한파쉼터
장위2동 주민센터,서울특별시 성북구 돌곶이로27길 12,37.612438,127.0544177,한파쉼터
장위실버복지센터,서울특별시 성북구 한천로 708,37.6201187,127.053532,한파쉼터
장위3동주민센터,,37.6150498,127.0554624,한파쉼터
돌곶이생활예술문화센터,서울특별시 성북구 화랑로32길 100-1 ,37.6062826,127.0587623,한파쉼터
석관실버복지센터,서울특별시 성북구 화랑로32길 88,37.6066924,127.0582638,한파쉼터
석관동 주민센터,서울특별시 성북구 화랑로 296,37.6129713,127.061374,한파쉼터
미양할머니경로당,서울특별시 강북구 삼양로35가길 7-4 ,37.6206923,127.0193915,한파쉼터
삼양동주민센터,서울특별시 강북구 솔매로 69,37.6249773,127.0199065,한파쉼터
팔팔경로당,서울특별시 강북구 인수봉로 36,37.623229,127.0132726,한파쉼터
청암경로당,서울특별시 강북구 솔매로22길 11,37.624735,127.016998,한파쉼터
구세군강북종합사회복지관,서울특별시 강북구 인수봉로20가길 24,37.6257196,127.0133722,한파쉼터
실개울경로당,서울특별시 강북구 삼양로47길 37,37.6226723,127.0169319,한파쉼터
삼일경로당,서울특별시 강북구 삼양로41길 61,37.6215081,127.0167817,한파쉼터
미아동주민센터,서울특별시 강북구 솔매로49길 14,37.627043,127.026937,한파쉼터
미아 경로당,서울특별시 강북구 솔매로 147-11 ,37.6274542,127.0285432,한파쉼터
요한경로당,서울특별시 강북구 도봉로49길 62,37.624712,127.022968,한파쉼터
운산경로당,서울특별시 강북구 도봉로72길 14-4 ,37.6319109,127.0250429,한파쉼터
율곡경로당,서울특별시 강북구 오패산로52아길 11,37.62704,127.0311905,한파쉼터
한빛경로당,서울특별시 강북구 솔매로43길 25,37.6269019,127.0237313,한파쉼터
원송경로당,서울특별시 강북구 오패산로 156-3 ,37.6157505,127.0338298,한파쉼터
오패산 경로당,서울특별시 강북구 오패산로52다길 55,37.6224067,127.0332572,한파쉼터
꿈의숲해링턴플레이스(아)경로당,서울특별시 강북구 오현로 45,37.61718,127.03478,한파쉼터
벽오산경로당,서울특별시 강북구 월계로21나길 30,37.6155997,127.0381214,한파쉼터
송중경로당,서울특별시 강북구 도봉로34길 25-3 ,37.6223791,127.0294927,한파쉼터
송중동주민센터,서울특별시 강북구 오패산로 162,37.616097,127.033751,한파쉼터
한일유앤아이(아)경로당,서울특별시 강북구 월계로21가길 41,37.614641,127.036443,한파쉼터
경남아너스빌(아)경로당,서울특별시 강북구 오패산로30길 30,37.615185,127.035654,한파쉼터
구봉 경로당,서울특별시 강북구 오현로9길 97,37.6209111,127.03293,한파쉼터
방천경로당,서울특별시 강북구 월계로7길 39-9 ,37.612419,127.0331566,한파쉼터
꿈의숲롯데캐슬(아)경로당,서울특별시 강북구 오현로 56,37.6171825,127.0356095,한파쉼터
송천동주민센터,서울특별시 강북구 솔샘로 284,37.618268,127.023834,한파쉼터
송암경로당,서울특별시 강북구 삼양로24길 4-6 ,37.6163306,127.0224841,한파쉼터
송천경로당,서울특별시 강북구 솔샘로60길 18-12 ,37.6180387,127.0243348,한파쉼터
숭인경로당,서울특별시 강북구 삼양로16길 25,37.6130543,127.0235704,한파쉼터
큰마을효심경로당,서울특별시 강북구 삼양로54길 60,37.6232608,127.0213522,한파쉼터
건양경로당,서울특별시 강북구 삼양로40길 6-6 ,37.6215527,127.0207326,한파쉼터
래미안트리베라2차(아) 경로당,서울특별시 강북구 삼양로27길 19,37.6172739,127.0203102,한파쉼터
래미안트리베라1차(아) 경로당,서울특별시 강북구 삼양로19길 25,37.6142952,127.0207071,한파쉼터
삼각산아이원(아) 경로당,서울특별시 강북구 삼양로19길 113,37.616235,127.0177621,한파쉼터
SK북한산시티(아) 제2경로당,서울특별시 강북구 솔샘로 174,37.6189693,127.0137066,한파쉼터
삼각산동주민센터,서울특별시 강북구 삼양로19길 34,37.6151481,127.0207409,한파쉼터
번남경로당,서울특별시 강북구 오패산로77길 29-7 ,37.636157,127.0257443,한파쉼터
번1동주민센터,서울특별시 강북구 덕릉로41길 74,37.637862,127.028835,한파쉼터
번1동경로당,서울특별시 강북구 덕릉로41길 92,37.638224,127.028037,한파쉼터
번동삼성(아)경로당,서울특별시 강북구 도봉로98길 33,37.641447,127.031995,한파쉼터
샛강경로당,서울특별시 강북구 도봉로96나길 9-1 ,37.6390372,127.0323882,한파쉼터
쌍용(아)경로당,서울특별시 강북구 한천로124나길 10,37.637772,127.032201,한파쉼터
두산위브(아)경로당,서울특별시 강북구 덕릉로41길 15,37.635599,127.030904,한파쉼터
교육촌경로당,서울특별시 강북구 오현로25다길 36,37.627086,127.035455,한파쉼터
번2동주민센터,서울특별시 강북구 한천로 897,37.632068,127.038756,한파쉼터
강북장애인종합사회복지관,서울특별시 강북구 오현로 189,37.628728,127.039048,한파쉼터
번오마을종합사회복지관,서울특별시 강북구 한천로115길 20,37.6329539,127.0364329,한파쉼터
장수촌경로당,서울특별시 강북구 덕릉로36길 22-4 ,37.633829,127.028185,한파쉼터
오동경로당,서울특별시 강북구 오현로25나길 92,37.6256273,127.033276,한파쉼터
샘골경로당,서울특별시 강북구 덕릉로44길 6-4 ,37.635035,127.032418,한파쉼터
샘마을 경로당,서울특별시 강북구 오현로31길 125-14 ,37.6326416,127.0341852,한파쉼터
번동주공3단지경로당,서울특별시 강북구 한천로109길 16,37.6287819,127.0427012,한파쉼터
번동주공2단지아파트경로당,서울특별시 강북구 한천로105길 24,37.626783,127.0454907,한파쉼터
100세 건강플러스,서울특별시 강북구 한천로109길 16,37.6289158,127.0424974,한파쉼터
번3동주민센터,서울특별시 강북구 한천로105길 21,37.625825,127.046596,한파쉼터
골말경로당,서울특별시 강북구 한천로109길 57-12 ,37.626881,127.041326,한파쉼터
북서울종합사회복지관,서울특별시 강북구 한천로105길 24,37.626401,127.045445,한파쉼터
꿈의숲종합사회복지관,서울특별시 강북구 오현로 208,37.6291813,127.0419824,한파쉼터
수유1동주민센터,서울특별시 강북구 삼양로 299,37.630001,127.017529,한파쉼터
큰무네미경로당,서울특별시 강북구 도봉로71가길 30-9 ,37.632566,127.022639,한파쉼터
수유경로당,서울특별시 강북구 인수봉로20길 32-9 ,37.626678,127.012373,한파쉼터
수유장수경로당,서울특별시 강북구 삼양로80나길 56,37.633316,127.020612,한파쉼터
화계경로당,서울특별시 강북구 인수봉로38가길 28,37.631436,127.015663,한파쉼터
물댐길경로당,서울특별시 강북구 한천로170가길 4,37.648147,127.017426,한파쉼터
장미원 경로당,서울특별시 강북구 삼양로124길 29-8 ,37.6460948,127.0167133,한파쉼터
수유2동 주민센터,서울특별시 강북구 한천로 1117,37.644617,127.019875,한파쉼터
수유2동경로당,서울특별시 강북구 노해로23길 94,37.646798,127.018826,한파쉼터
강북구청,서울특별시 강북구 도봉로89길 13,37.639685,127.0255727,한파쉼터
수유3동주민센터,서울특별시 강북구 노해로 36,37.638689,127.023136,한파쉼터
상산경로당,서울특별시 강북구 노해로8길 23,37.6383065,127.0239151,한파쉼터
수삼경로당,서울특별시 강북구 삼양로98길 22,37.6386718,127.0184192,한파쉼터
은모루경로당,서울특별시 강북구 도봉로95길 38-1 ,37.6422337,127.0270318,한파쉼터
우이동주민센터,서울특별시 강북구 삼양로139길 49,37.647866,127.011843,한파쉼터
대우(아)경로당,서울특별시 강북구 삼양로149길 33,37.655339,127.011155,한파쉼터
백운경로당,서울특별시 강북구 삼양로159길 9,37.6574242,127.0129502,한파쉼터
우이경로당,서울특별시 강북구 삼양로170길 23,37.661865,127.013863,한파쉼터
삼각산경로당,서울특별시 강북구 삼양로 515-21 ,37.648824,127.013315,한파쉼터
소귓골경로당,서울특별시 강북구 삼양로173가길 55,37.661471,127.009657,한파쉼터
인수동 주민센터,서울특별시 강북구 인수봉로 255,37.641458,127.01058,한파쉼터
무너미 경로당,서울특별시 강북구 인수봉로55가길 21,37.6358172,127.0099542,한파쉼터
삼산 경로당,서울특별시 강북구 인수봉로79길 62-4 ,37.643277,127.008289,한파쉼터
인수 경로당,서울특별시 강북구 인수봉로72길 15-12 ,37.64275,127.012103,한파쉼터
한신 경로당,서울특별시 강북구 인수봉로48길 5-6 ,37.634314,127.01396,한파쉼터
가오경로당,서울특별시 강북구 삼양로111길 56,37.641941,127.013406,한파쉼터
극동(아)경로당,서울특별시 강북구 인수봉로72길 4,37.642143,127.012689,한파쉼터
강북노인복지관(휴게실),서울특별시 강북구 삼양로92길 40,37.635661,127.018735,한파쉼터
창동종합사회복지관,서울특별시 도봉구 덕릉로 329,37.6448276,127.0455373,한파쉼터
창1동 주민센터,서울특별시 도봉구 해등로 46,37.6483916,127.0438153,한파쉼터
창2동 주민센터,서울특별시 도봉구 덕릉로59길 73-3 ,37.6414117,127.0356792,한파쉼터
장수 경로당,서울특별시 도봉구 도봉로104길 101,37.6440198,127.0374763,한파쉼터
초안 경로당,서울특별시 도봉구 덕릉로59차길 14,37.6412673,127.0357329,한파쉼터
창동어르신복지관,,37.6367172,127.0413734,한파쉼터
초헌약수 경로당,서울특별시 도봉구 덕릉로60바길 31,37.6393112,127.0415238,한파쉼터
창3동 주민센터,서울특별시 도봉구 덕릉로62길 89,37.638092,127.0429158,한파쉼터
창3동 경로당,서울특별시 도봉구 우이천로4나길 24,37.6348231,127.0402309,한파쉼터
창4동 주민센터,서울특별시 도봉구 노해로 390,37.652249,127.0515364,한파쉼터
유만 경로당,서울특별시 도봉구 노해로61길 22,37.6524191,127.03812,한파쉼터
창5동 주민센터,서울특별시 도봉구 도봉로136나길 20,37.6563328,127.04364,한파쉼터
창5동 경로당,서울특별시 도봉구 노해로63가길 34,37.6541179,127.0453486,한파쉼터
도봉 럭스(야간 한파쉼터),서울특별시 도봉구 도봉로 739,37.6705226,127.0433906,한파쉼터
도봉산 경로당,서울특별시 도봉구 도봉산4길 28-3 ,37.6889061,127.0427871,한파쉼터
서원 경로당,서울특별시 도봉구 도봉로181길 34-7 ,37.6846364,127.0441927,한파쉼터
도봉동 어르신복지관,서울특별시 도봉구 도봉로169가길 52,37.6821275,127.0436106,한파쉼터
성황당 경로당,서울특별시 도봉구 도봉로165길 28-8 ,37.6774923,127.0434308,한파쉼터
오봉 경로당,서울특별시 도봉구 도봉로157길 35-4 ,37.6733716,127.0418677,한파쉼터
도봉1동 주민센터,서울특별시 도봉구 도봉로169나길 22,37.6787002,127.0434201,한파쉼터
도봉2동 주민센터,서울특별시 도봉구 마들로 668,37.6697776,127.0465365,한파쉼터
도봉 경로당,서울특별시 도봉구 도봉로162길 12-9 ,37.6745563,127.0456463,한파쉼터
도봉서원종합사회복지관,서울특별시 도봉구 마들로 668,37.6697378,127.0465185,한파쉼터
한신A 경로당,서울특별시 도봉구 마들로 859-19 ,37.6852807,127.0474756,한파쉼터
쌍문1동 주민센터,서울특별시 도봉구 노해로 147,37.6479934,127.026034,한파쉼터
쌍문1동 경로당,,37.6499557,127.0228127,한파쉼터
쌍우 경로당,서울특별시 도봉구 우이천로45길 22-4 ,37.6545044,127.0149511,한파쉼터
쌍문동 어르신복지관,서울특별시 도봉구 우이천로 363,37.6482461,127.0237997,한파쉼터
쌍문2동 주민센터,서울특별시 도봉구 도봉로137길 21,37.6599555,127.0397685,한파쉼터
쌍문2동 경로당,서울특별시 도봉구 방학로3가길 7-3 ,37.658518,127.0382,한파쉼터
삼익A 경로당,서울특별시 도봉구 해등로 195,37.6576474,127.0344923,한파쉼터
백운 경로당,서울특별시 도봉구 노해로57길 62,37.6537994,127.034601,한파쉼터
쌍문3동구립경로당,서울특별시 도봉구 노해로48길 67-6 ,37.6504917,127.0322288,한파쉼터
인터넷모텔(야간 한파쉼터),서울특별시 도봉구 우이천로24길 65,37.6462158,127.0320904,한파쉼터
효문 경로당,서울특별시 도봉구 노해로42길 60-3 ,37.6486687,127.0299098,한파쉼터
쌍문3동 주민센터,서울특별시 도봉구 노해로44길 9,37.6489915,127.0279706,한파쉼터
쌍문4동 주민센터,서울특별시 도봉구 시루봉로 62-7 ,37.6565048,127.0284668,한파쉼터
도봉구청 응급대피소,서울특별시 도봉구 마들로 656,37.6685142,127.0470572,한파쉼터
도봉구청,서울특별시 도봉구 마들로 656,37.6687265,127.0471269,한파쉼터
모텔세화(야간 한파쉼터),서울특별시 도봉구 방학로6길 17,37.6637539,127.0368943,한파쉼터
윗들 경로당,서울특별시 도봉구 도봉로150마길 37,37.6677711,127.0448953,한파쉼터
방학1동 주민센터,서울특별시 도봉구 방학로2길 27,37.6642465,127.0406735,한파쉼터
방학1동 경로당,서울특별시 도봉구 방학로 130-9 ,37.663376,127.0375997,한파쉼터
방아골종합사회복지관,서울특별시 도봉구 시루봉로17길 42,37.6693592,127.0326966,한파쉼터
청학 경로당,서울특별시 도봉구 도당로13라길 104-4 ,37.6691214,127.0389837,한파쉼터
신우 경로당,서울특별시 도봉구 도당로13다길 39,37.6652827,127.0326912,한파쉼터
방학동 어르신복지관,서울특별시 도봉구 시루봉로15라길 59-9 ,37.6705863,127.0322084,한파쉼터
방학2동 경로당,서울특별시 도봉구 시루봉로17길 64,37.6693634,127.0314172,한파쉼터
방학2동 주민센터,서울특별시 도봉구 시루봉로 226,37.668219,127.0350462,한파쉼터
송학 경로당,서울특별시 도봉구 도당로13라길 14-3 ,37.6668623,127.0351267,한파쉼터
성삼경로당,서울특별시 도봉구 도당로15길 36,37.66703,127.036087,한파쉼터
방학3동 주민센터,서울특별시 도봉구 시루봉로 94,37.6591803,127.0279437,한파쉼터
원당 경로당,서울특별시 도봉구 해등로32가길 16,37.660252,127.022242,한파쉼터
세심천 경로당,서울특별시 도봉구 시루봉로 65-59 ,37.6565154,127.0244783,한파쉼터
장은하이빌아파트 경로당,서울특별시 노원구 석계로13길 6-9 ,37.6206392,127.0617878,한파쉼터
세양청마루아파트경로당,서울특별시 노원구 광운로 20,37.6206477,127.0606613,한파쉼터
월계1동주민센터,서울특별시 노원구 석계로 59,37.6198913,127.0629734,한파쉼터
광운경로당,서울특별시 노원구 광운로19가길 53,37.6252768,127.0591271,한파쉼터
벼루마을경로당,서울특별시 노원구 월계로44길 62,37.6225767,127.0525235,한파쉼터
월성경로당,서울특별시 노원구 광운로13길 9,37.6212999,127.0587409,한파쉼터
선곡경로당,서울특별시 노원구 광운로2길 15-6 ,37.6176181,127.0582983,한파쉼터
연촌경로당,서울특별시 노원구 광운로15길 35-2 ,37.6213594,127.0571986,한파쉼터
청백1단지경로당,서울특별시 노원구 초안산로 89,37.6356281,127.051692,한파쉼터
월계종합복지관경로당,서울특별시 노원구 월계로 325,37.6286269,127.0521212,한파쉼터
월계2동주민센터,서울특별시 노원구 초안산로5길 28,37.6324674,127.0507586,한파쉼터
인덕마을 경로당,서울특별시 노원구 초안산로2길 94-14 ,37.6324101,127.0580515,한파쉼터
사슴1단지경로당,서울특별시 노원구 월계로 372,37.6301053,127.0599747,한파쉼터
사슴2단지경로당,서울특별시 노원구 월계로55길 16,37.6322465,127.0607686,한파쉼터
월계우남아파트경로당,서울특별시 노원구 화랑로 355,37.6159226,127.0671201,한파쉼터
건양노블레스아파트경로당,서울특별시 노원구 화랑로45길 42-18 ,37.6172994,127.066471,한파쉼터
월계3동주민센터,서울특별시 노원구 마들로 55,37.6209663,127.0692873,한파쉼터
공릉1단지아파트경로당,서울특별시 노원구 동일로 1127,37.6307171,127.0698881,한파쉼터
공릉1동경로당,서울특별시 노원구 동일로179길 22,37.6219861,127.07286,한파쉼터
공릉1동현대아파트경로당,서울특별시 노원구 동일로176길 39-12 ,37.6211533,127.0772159,한파쉼터
공릉행복경로당,서울특별시 노원구 동일로192나길 16-15 ,37.6278387,127.0755824,한파쉼터
신도2차브래뉴아파트경로당,서울특별시 노원구 동일로193길 7,37.6258504,127.071889,한파쉼터
공릉1동주민센터,서울특별시 노원구 동일로186길 3-24 ,37.6247924,127.073839,한파쉼터
한마음경로당,서울특별시 노원구 동일로178길 25-5 ,37.6216313,127.0759311,한파쉼터
공덕경로당,서울특별시 노원구 동일로184길 33,37.6243485,127.075392,한파쉼터
공릉1동대아아파트경로당,서울특별시 노원구 공릉로 157,37.6239448,127.0790318,한파쉼터
공노회경로당,서울특별시 노원구 공릉로32길 35-2 ,37.6221051,127.0812151,한파쉼터
공릉2동경로당,서울특별시 노원구 공릉로 129,37.6217503,127.0789781,한파쉼터
공릉경로당,서울특별시 노원구 공릉로 169-9 ,37.6252534,127.0791498,한파쉼터
공릉아파트경로당,서울특별시 노원구 화랑로51길 81,37.6251387,127.0878482,한파쉼터
공릉2동주민센터,서울특별시 노원구 노원로1길 68,37.6212893,127.083385,한파쉼터
에너지제로주택경로당,서울특별시 노원구 한글비석로 97,37.6382587,127.0730606,한파쉼터
하계경로당,서울특별시 노원구 공릉로58마길 7,37.63679,127.0765936,한파쉼터
중계9단지아파트경로당,서울특별시 노원구 노원로16길 15,37.6424758,127.0736647,한파쉼터
하계1동주민센터,서울특별시 노원구 노원로 261,37.6405685,127.0725918,한파쉼터
하계5단지경로당,서울특별시 노원구 섬밭로 201,37.633436,127.0655859,한파쉼터
학여울청구B단지아파트경로당,서울특별시 노원구 동일로207길 186,37.6328668,127.0643896,한파쉼터
하계2동주민센터,서울특별시 노원구 공릉로55길 88,37.6319895,127.0679435,한파쉼터
학여울청구117동경로당,서울특별시 노원구 동일로207길 186,37.6323655,127.0646417,한파쉼터
천보경로당,서울특별시 노원구 중계로14길 39-4 ,37.6502573,127.0822129,한파쉼터
은행경로당,서울특별시 노원구 중계로8길 124,37.6482716,127.0835754,한파쉼터
현대2차아파트경로당,서울특별시 노원구 중계로8길 103,37.6478278,127.0846671,한파쉼터
중계본동주민센터,서울특별시 노원구 중계로 143,37.6477704,127.080346,한파쉼터
편백경로당,서울특별시 노원구 중계로16길 36-1 ,37.6509474,127.0823416,한파쉼터
양지대림2차209동경로당,서울특별시 노원구 덕릉로77길 27,37.6547508,127.0727929,한파쉼터
"양지대림1차106,107동경",서울특별시 노원구 덕릉로73길 31,37.6521091,127.0717013,한파쉼터
중계1동주민센터,서울특별시 노원구 한글비석로 279,37.6525911,127.077519,한파쉼터
한우리경로당,서울특별시 노원구 덕릉로92길 13-11 ,37.660586,127.0767412,한파쉼터
중계사회복지관경로당,서울특별시 노원구 덕릉로 662,37.6567808,127.0763254,한파쉼터
건영아파트경로당,서울특별시 노원구 덕릉로 718,37.6614226,127.076025,한파쉼터
대호프라자경로당,서울특별시 노원구 한글비석로 384,37.6597791,127.0729646,한파쉼터
중계4동주민센터,서울특별시 노원구 덕릉로82길 50,37.6588108,127.0779642,한파쉼터
마들사회복지관경로당,서울특별시 노원구 동일로210길 22,37.6471312,127.0651031,한파쉼터
평화사회복지관경로당,서울특별시 노원구 노원로 331,37.6464856,127.0691156,한파쉼터
"중계2,3동주민센터",서울특별시 노원구 노원로17길 56,37.6420765,127.0687455,한파쉼터
중계4단지목화아파트경로당,서울특별시 노원구 노원로 311,37.6432999,127.0698023,한파쉼터
상계수락경로당,서울특별시 노원구 동일로242라길 20,37.6759299,127.0576465,한파쉼터
우림루미아트경로당,서울특별시 노원구 동일로238길 33,37.6745903,127.0570832,한파쉼터
은빛3단지어르신방경로당,서울특별시 노원구 동일로250길 17,37.6828099,127.0566809,한파쉼터
북현경로당,서울특별시 노원구 동일로237바길 17,37.6744311,127.0504716,한파쉼터
봉산경로당,서울특별시 노원구 동일로242가길 26-23 ,37.6768639,127.0563617,한파쉼터
상계1동현대4차아파트경로당,서울특별시 노원구 동일로231다길 23,37.6731573,127.0508525,한파쉼터
상계1동주민센터,서울특별시 노원구 동일로 1697,37.6798826,127.0548999,한파쉼터
계산경로당,서울특별시 노원구 동일로230가길 15,37.6719026,127.0568097,한파쉼터
상일경로당,서울특별시 노원구 동일로237가길 10,37.6743292,127.0545298,한파쉼터
청솔경로당,서울특별시 노원구 노원로30길 73,37.6561268,127.070725,한파쉼터
노원우성아파트경로당,서울특별시 노원구 상계로7길 18,37.6579402,127.0652425,한파쉼터
불암경로당,서울특별시 노원구 한글비석로47길 99-3 ,37.6596453,127.0660526,한파쉼터
원터경로당,서울특별시 노원구 상계로10길 24-7 ,37.6562818,127.06745,한파쉼터
상계2동주민센터,서울특별시 노원구 상계로 118,37.6575021,127.0678196,한파쉼터
수암경로당,서울특별시 노원구 덕릉로115가길 21,37.667597,127.0785275,한파쉼터
상계불암대림아파트207동경로,서울특별시 노원구 덕릉로94가길 41,37.6639493,127.0779669,한파쉼터
동아불암106동경로당,서울특별시 노원구 덕릉로112길 13,37.6663783,127.0785141,한파쉼터
불암현대아파트106동경로당,서울특별시 노원구 덕릉로118길 27,37.6680895,127.0803541,한파쉼터
도암경로당,서울특별시 노원구 덕릉로126길 24,37.6707901,127.0831999,한파쉼터
덕산경로당,서울특별시 노원구 덕릉로129길 7,37.6722677,127.0823926,한파쉼터
"상계3,4동주민센터",서울특별시 노원구 덕릉로 859,37.6728813,127.0831865,한파쉼터
희망경로당,서울특별시 노원구 덕릉로130길 48,37.6720172,127.0857105,한파쉼터
양지마을경로당,서울특별시 노원구 덕릉로137길 45,37.6749788,127.0827413,한파쉼터
숲속경로당,,37.6656266,127.0730773,한파쉼터
상계5동주민센터,서울특별시 노원구 한글비석로 434,37.6629598,127.0693758,한파쉼터
복지경로당,서울특별시 노원구 한글비석로 426-12 ,37.662567,127.0705265,한파쉼터
상계5동경로당,서울특별시 노원구 한글비석로37길 22,37.6614565,127.0689601,한파쉼터
송암경로당,서울특별시 노원구 한글비석로44길 64-20 ,37.6645374,127.07194,한파쉼터
노원구청 1층,서울특별시 노원구 노해로 437,37.6541095,127.0567319,한파쉼터
상계마들아파트경로당,서울특별시 노원구 덕릉로70가길 101,37.6416475,127.0568901,한파쉼터
"상계6,7동주민센터",서울특별시 노원구 노원로 429,37.654893,127.0669752,한파쉼터
상계8동주민센터,서울특별시 노원구 동일로227길 97,37.6667498,127.0515713,한파쉼터
상계9동주민센터,서울특별시 노원구 한글비석로 487,37.6644992,127.0638853,한파쉼터
상계10동주민센터,서울특별시 노원구 노원로 530,37.6612803,127.060267,한파쉼터
은평구청(1층로비),서울특별시 은평구 은평로 195,37.6024938,126.9295013,한파쉼터
어울누리 녹번 경로당,서울특별시 은평구 녹번로7길 36,37.606,126.928,한파쉼터
일심경로당,서울특별시 은평구 은평로21길 36-2 ,37.602895,126.930686,한파쉼터
녹색경로당,서울특별시 은평구 은평로11길 21,37.602659,126.923291,한파쉼터
녹번동주민센터,서울특별시 은평구 은평로 195,37.6022069,126.9299144,한파쉼터
송암경로당,서울특별시 은평구 불광로5길 6-12 ,37.615048,126.931974,한파쉼터
대광경로당,서울특별시 은평구 진흥로15길 22-12 ,37.6114,126.9322,한파쉼터
불광1동주민센터,서울특별시 은평구 진흥로15길 10,37.6103305,126.9319864,한파쉼터
불광노인복지관,서울특별시 은평구 연서로32길 17-11 ,37.6195153,126.924845,한파쉼터
어울누리느티나무경로당,서울특별시 은평구 연서로33길 14-19 ,37.6223,126.9249,한파쉼터
새장골경로당,서울특별시 은평구 연서로37길 47,37.625418,126.927765,한파쉼터
불광2동경로당,서울특별시 은평구 불광로 175,37.622095,126.931322,한파쉼터
박석어버이경로당,서울특별시 은평구 통일로92가길 5,37.626337,126.921252,한파쉼터
불광2동주민센터,서울특별시 은평구 연서로41길 18,37.6263503,126.9272961,한파쉼터
갈현어버이경로당,서울특별시 은평구 갈현로 324-3 ,37.6255,126.9182,한파쉼터
갈현1동주민센터,서울특별시 은평구 갈현로 301,37.6237184,126.916731,한파쉼터
갈현노인복지관,서울특별시 은평구 통일로89길 12-6 ,37.6249117,126.9186895,한파쉼터
효경골경로당,서울특별시 은평구 갈현로29길 49,37.622043,126.911373,한파쉼터
갈현2동경로당,서울특별시 은평구 연서로17길 46-12 ,37.6145,126.9132,한파쉼터
갈현2동주민센터,서울특별시 은평구 연서로27길 31-6 ,37.6186022,126.9157981,한파쉼터
구산거북경로당,서울특별시 은평구 연서로13길 29-7 ,37.6098,126.9127,한파쉼터
구산경로당,서울특별시 은평구 서오릉로21길 11-8 ,37.614805,126.907903,한파쉼터
구산동주민센터,서울특별시 은평구 갈현로17길 10,37.6117509,126.9104157,한파쉼터
어울누리 대촌경로당,서울특별시 은평구 서오릉로 114-16 ,37.6105,126.9206,한파쉼터
대조경로당,서울특별시 은평구 연서로22길 9-30 ,37.615347,126.919584,한파쉼터
대조동주민센터,서울특별시 은평구 연서로20길 24-3 ,37.614167,126.9208486,한파쉼터
대조노인복지관,서울특별시 은평구 역말로9길 27,37.613451,126.921923,한파쉼터
응암제일경로당,서울특별시 은평구 백련산로 159-3 ,37.5994684,126.9255902,한파쉼터
응암1동주민센터,서울특별시 은평구 백련산로 179,37.6007832,126.9268275,한파쉼터
매바위경로당,서울특별시 은평구 응암로22길 13-9 ,37.5942,126.9198,한파쉼터
응암2동주민센터,서울특별시 은평구 백련산로 100,37.5944082,126.9231421,한파쉼터
응암노인복지관,서울특별시 은평구 응암로21가길 5-1 ,37.5945876,126.9167778,한파쉼터
덕인경로당,서울특별시 은평구 응암로21가길 5-1 ,37.5946,126.9168,한파쉼터
불광천어르신쉼터(은평춘당),서울특별시 은평구 증산로 414,37.5934,126.9145,한파쉼터
응암3동주민센터,서울특별시 은평구 불광천길 410-17 ,37.5922683,126.915622,한파쉼터
충암경로당,서울특별시 은평구 가좌로7길 9-15 ,37.586128,126.920731,한파쉼터
어울누리 해솔경로당,서울특별시 은평구 역말로 83-11 ,37.6071703,126.9186147,한파쉼터
역마을경로당,서울특별시 은평구 진흥로1길 32-23 ,37.603419,126.91995,한파쉼터
어울누리 안심마을경로당,서울특별시 은평구 진흥로7나길 12-5 ,37.605318,126.919246,한파쉼터
역촌동주민센터,서울특별시 은평구 연서로 59,37.6043975,126.9152382,한파쉼터
역촌노인복지관,서울특별시 은평구 연서로3나길 11-30 ,37.603314,126.911333,한파쉼터
신흥경로당,서울특별시 은평구 증산로21길 25,37.5959761,126.9119516,한파쉼터
신사1동경로당,서울특별시 은평구 갈현로3나길 6,37.601066,126.906592,한파쉼터
신사1동주민센터,서울특별시 은평구 은평로2길 2,37.5978039,126.9117512,한파쉼터
장수경로당,서울특별시 은평구 은평터널로 126,37.5904659,126.9050123,한파쉼터
신사제2경로당,서울특별시 은평구 은평터널로 178-1 ,37.59443,126.90864,한파쉼터
신사2동주민센터,서울특별시 은평구 증산로15길 47,37.5902675,126.9080329,한파쉼터
신사노인복지관,서울특별시 은평구 증산로15길 47,37.5903,126.9082,한파쉼터
증산할머니경로당,서울특별시 은평구 증산로9길 25,37.5859,126.908,한파쉼터
증산제2경로당,서울특별시 은평구 증산로9길 6-17 ,37.585378,126.909827,한파쉼터
증산동주민센터,서울특별시 은평구 증산서길 89,37.5843648,126.9070614,한파쉼터
구룡경로당,서울특별시 은평구 수색로 388-7 ,37.5898765,126.8846655,한파쉼터
물빛경로당,서울특별시 은평구 수색로22가길 6-8 ,37.585812,126.889994,한파쉼터
수색동주민센터,서울특별시 은평구 수색로 280,37.5835405,126.8936697,한파쉼터
여기소경로당,서울특별시 은평구 의상봉길 8,37.653125,126.939754,한파쉼터
진관동주민센터,서울특별시 은평구 진관2로 31,37.635,126.9209,한파쉼터
은평노인종합복지관,서울특별시 은평구 연서로 415,37.632046,126.930096,한파쉼터
서대문노인종합복지관,서울특별시 서대문구 독립문로8길 57,37.5679875,126.9591196,한파쉼터
천연동 분회경로당,서울특별시 서대문구 독립문로 50,37.5678988,126.962499,한파쉼터
북아현동경로당,서울특별시 서대문구 북아현로 24,37.559479,126.9570839,한파쉼터
동심경로당,서울특별시 서대문구 신촌로27길 47,37.5573979,126.9487971,한파쉼터
미근경로당(구 충정로동분회),서울특별시 서대문구 충정로6길 27,37.5626561,126.9662797,한파쉼터
능안경로당,서울특별시 서대문구 북아현로18길 47,37.563781,126.9565558,한파쉼터
창천경로당,서울특별시 서대문구 신촌로11길 35-4 ,37.5584394,126.9332446,한파쉼터
신촌경로당,서울특별시 서대문구 성산로24길 1-20 ,37.5676837,126.9480693,한파쉼터
서대문구청,서울특별시 서대문구 연희로 248,37.5791999,126.9368452,한파쉼터
연서경로당,서울특별시 서대문구 홍제천로2길 111,37.572217,126.9235601,한파쉼터
홍연경로당,서울특별시 서대문구 홍연길 70,37.5763002,126.9305252,한파쉼터
연산경로당,서울특별시 서대문구 연희로18안길 34-3 ,37.5673967,126.9356084,한파쉼터
홍제1동 분회경로당,서울특별시 서대문구 모래내로 459-6 ,37.5858358,126.9454423,한파쉼터
초원경로당,서울특별시 서대문구 홍제내2길 56,37.5868269,126.9371964,한파쉼터
홍제3동분회경로당,서울특별시 서대문구 세검정로4길 32,37.5937611,126.9497306,한파쉼터
개미마을경로당,서울특별시 서대문구 세검정로4길 129-16 ,37.590631,126.9539201,한파쉼터
은빛홍삼경로당,서울특별시 서대문구 세무서7길 21-4 ,37.5916129,126.9456267,한파쉼터
인왕경로당,서울특별시 서대문구 통일로26길 12-5 ,37.5828,126.9507,한파쉼터
인왕노인복지관,서울특별시 서대문구 통일로26길 12-5 ,37.582761,126.9506843,한파쉼터
느티나무경로당,서울특별시 서대문구 통일로36다길 2,37.5878299,126.9473128,한파쉼터
우정경로당,서울특별시 서대문구 홍은중앙로 164,37.6047802,126.949878,한파쉼터
홍은1동분회경로당,서울특별시 서대문구 세검정로1길 116,37.5954015,126.9464398,한파쉼터
포방터경로당,서울특별시 서대문구 홍은중앙로9길 43,37.6011975,126.9483921,한파쉼터
아름다운홍일경로당,서울특별시 서대문구 통일로48가길 37,37.5946,126.9424,한파쉼터
구립홍은2동경로당,서울특별시 서대문구 모래내로 334,37.5801083,126.9341521,한파쉼터
정원단지경로당,서울특별시 서대문구 연희로39나길 8,37.5866963,126.9319217,한파쉼터
홍남경로당,서울특별시 서대문구 증가로4길 38-9 ,37.5773268,126.9274815,한파쉼터
백련경로당,서울특별시 서대문구 명지대길 50,37.5823773,126.9241493,한파쉼터
상지경로당,서울특별시 서대문구 통일로 555-1 ,37.5969,126.9374,한파쉼터
논골문화원,서울특별시 서대문구 연희로41나길 1,37.5918377,126.9335302,한파쉼터
남가좌2동분회경로당,서울특별시 서대문구 가재울로8길 27-14 ,37.5763238,126.9225249,한파쉼터
삼오경로당,서울특별시 서대문구 명지대3길 36-4 ,37.5821248,126.9217631,한파쉼터
북가좌노인복지관,서울특별시 서대문구 증가로20길 43,37.5811754,126.9178709,한파쉼터
은가경로당,서울특별시 서대문구 증가로20길 43,37.5812257,126.9179249,한파쉼터
북가좌휴먼타운경로당,서울특별시 서대문구 증가로30길 45-9 ,37.5847065,126.9137128,한파쉼터
신가경로당,서울특별시 서대문구 거북골로22길 29-51 ,37.5802505,126.9083613,한파쉼터
연봉경로당,서울특별시 마포구 만리재로16길 10-5 ,37.550355,126.962178,한파쉼터
큰덕경로당,서울특별시 마포구 만리재로 106,37.5495259,126.960513,한파쉼터
아현1동경로당,서울특별시 마포구 환일길 52-1 ,37.5536279,126.9609958,한파쉼터
삼개경로당,서울특별시 마포구 삼개로5길 20,37.5378695,126.9481158,한파쉼터
대경경로당,서울특별시 마포구 백범로18길 26,37.5467938,126.9426594,한파쉼터
염리동1경로당,서울특별시 마포구 숭문4안길 5-3 ,37.547654,126.946407,한파쉼터
수복경로당,서울특별시 마포구 창전로2길 39-3 ,37.5492325,126.933412,한파쉼터
창전경로당,서울특별시 마포구 서강로1길 30,37.549148,126.930185,한파쉼터
세교경로당,서울특별시 마포구 와우산로37길 16,37.556251,126.930093,한파쉼터
양화진경로당,서울특별시 마포구 양화진길 43,37.546664,126.912393,한파쉼터
오칠경로당,서울특별시 마포구 월드컵로23길 18-5 ,37.557022,126.90746,한파쉼터
망원2동제1경로당,서울특별시 마포구 월드컵로31길 69,37.560278,126.901184,한파쉼터
연남경로당,서울특별시 마포구 동교로41길 36,37.563861,126.923445,한파쉼터
성산1동1경로당,서울특별시 마포구 월드컵북로15안길 26,37.5627432,126.9109082,한파쉼터
마포구청 지하1층 다목적체육실,서울특별시 마포구 월드컵로 212,37.5667254,126.9014239,한파쉼터
백합경로당,서울특별시 마포구 월드컵로 215,37.5645129,126.9011031,한파쉼터
무리울새마을경로당,서울특별시 마포구 월드컵북로 198-17 ,37.5689126,126.9072561,한파쉼터
오목(구립)경로당,서울특별시 양천구 오목로 313,37.5252179,126.8722495,한파쉼터
목1동주민센터,서울특별시 양천구 목동서로 192,37.5303,126.8711,한파쉼터
목동문화체육센터,서울특별시 양천구 목동중앙본로 73,37.5434217,126.8684956,한파쉼터
목2동주민센터,서울특별시 양천구 목동중앙본로 120,37.5461,126.8717,한파쉼터
용왕(구립목2동)경로당,서울특별시 양천구 목동중앙로13나길 2,37.5462425,126.8797812,한파쉼터
새말(구립)경로당,서울특별시 양천구 목동중앙본로2길 13-11 ,37.5398,126.8701,한파쉼터
양화(구립)경로당,서울특별시 양천구 목동중앙북로16길 34-4 ,37.5447,126.8736,한파쉼터
월촌(구립)경로당,서울특별시 양천구 목동중앙본로28길 37,37.5433,126.8725,한파쉼터
목3동주민센터,서울특별시 양천구 목동중앙남로16나길 55,37.5447,126.8645,한파쉼터
한두(구립)경로당,서울특별시 양천구 목동중앙북로8라길 28,37.5465764,126.8636262,한파쉼터
백석(구립)경로당,서울특별시 양천구 목동중앙북로8길 76,37.5453238,126.8649271,한파쉼터
나말(구립)경로당,서울특별시 양천구 목동중앙남로 97,37.5418,126.8642,한파쉼터
미감도서관,서울특별시 양천구 목동중앙남로 57-10 ,37.5389764,126.8654614,한파쉼터
목4동주민센터,서울특별시 양천구 목동중앙로 25,37.5324,126.8684,한파쉼터
마장(목4동구립)경로당,서울특별시 양천구 목동중앙서로8길 23,37.5316,126.8663,한파쉼터
청산(구립)경로당,서울특별시 양천구 목동중앙남로3가길 68,37.5387,126.8645,한파쉼터
정목(구립)경로당,서울특별시 양천구 목동중앙남로4길 20,37.5369,126.8683,한파쉼터
목동어르신복지관,서울특별시 양천구 목동중앙로3길 21,37.5364,126.8692,한파쉼터
목5동주민센터,서울특별시 양천구 목동서로 41,37.5372,126.8817,한파쉼터
목마교육도서관,서울특별시 양천구 목동서로 41,37.5372017,126.8817045,한파쉼터
월성경로당,서울특별시 양천구 곰달래로11길 24,37.5319396,126.8358144,한파쉼터
신월1동주민센터,서울특별시 양천구 곰달래로1길 38,37.5328,126.8315,한파쉼터
신대(구립)경로당,서울특별시 양천구 곰달래로1길 37,37.5327,126.8313,한파쉼터
곰달래(구립)경로당,서울특별시 양천구 남부순환로63길 16-4 ,37.5286,126.8348,한파쉼터
신월2동주민센터,서울특별시 양천구 중앙로53길 47,37.525,126.8446,한파쉼터
신곡(구립)경로당,서울특별시 양천구 중앙로55길 51,37.5255965,126.843617,한파쉼터
당곡(구립)경로당,서울특별시 양천구 오목로 64-27 ,37.5220823,126.8450359,한파쉼터
중앙(구립)경로당,서울특별시 양천구 오목로 64-27 ,37.5221,126.845,한파쉼터
서서울어르신복지관,서울특별시 양천구 가로공원로60가길 16,37.5344,126.8266,한파쉼터
신월3동주민센터,서울특별시 양천구 남부순환로54길 5,37.5336,126.8291,한파쉼터
경복(구립)경로당,서울특별시 양천구 남부순환로54길 55-20 ,37.5309037,126.8256381,한파쉼터
신남(구립)경로당,서울특별시 양천구 남부순환로56가길 13,37.5313,126.8302,한파쉼터
신원경로당(구립),서울특별시 양천구 남부순환로46길 12,37.534,126.8279,한파쉼터
신월음악도서관,서울특별시 양천구 오목로5길 34,37.5246669,126.8401113,한파쉼터
신월4동주민센터,서울특별시 양천구 오목로5길 34,37.5247116,126.8400362,한파쉼터
태양(신월4동구립)경로당,서울특별시 양천구 오목로3길 34,37.5243,126.8385,한파쉼터
자양(구립)경로당,서울특별시 양천구 신월로11길 13,37.5186,126.8401,한파쉼터
밝은빛(구립)경로당,서울특별시 양천구 오목로 28-9 ,37.5215,126.8414,한파쉼터
소망(구립)경로당,서울특별시 양천구 오목로1길 10,37.5221,126.8381,한파쉼터
방아다리문학도서관,서울특별시 양천구 화곡로4길 10,37.5385799,126.827167,한파쉼터
신월5동주민센터,서울특별시 양천구 화곡로4길 10,37.5385905,126.8271777,한파쉼터
수명(신월5동구립)경로당,서울특별시 양천구 화곡로5길 23,37.5416,126.8287,한파쉼터
신양(구립)경로당,서울특별시 양천구 남부순환로33길 38,37.5383,126.8314,한파쉼터
신월6동주민센터,서울특별시 양천구 남부순환로83길 53,37.518,126.8451,한파쉼터
신월문화체육센터,서울특별시 양천구 지양로 47,37.5199,126.8349,한파쉼터
해맞이역사도서관,서울특별시 양천구 지양로 37,37.5196428,126.8349443,한파쉼터
밝은내어르신복지센터,서울특별시 양천구 지양로14길 16,37.5240607,126.8332046,한파쉼터
신월7동주민센터,서울특별시 양천구 지양로14길 16,37.52405,126.8331859,한파쉼터
늘푸른(신월7동구립)경로당,서울특별시 양천구 지양로10길 5,37.5231,126.8335,한파쉼터
신월약수(구립)경로당,서울특별시 양천구 지양로11길 16-16 ,37.5218,126.8308,한파쉼터
금실(구립)경로당,서울특별시 양천구 지양로7길 27-14 ,37.5193486,126.8316758,한파쉼터
한울(구립)경로당,서울특별시 양천구 지양로7길 27-5 ,37.5199,126.8322,한파쉼터
지양(구립)경로당,서울특별시 양천구 지양로17길 15,37.5226354,126.8281969,한파쉼터
신정1동주민센터,서울특별시 양천구 중앙로32길 1,37.5185,126.8543,한파쉼터
구립양명경로당,서울특별시 양천구 중앙로36길 6,37.5193,126.8544,한파쉼터
구립남부법마을경로당,서울특별시 양천구 은행정로6길 23,37.5218,126.8622,한파쉼터
신정2동주민센터,서울특별시 양천구 목동동로 154,37.5192,126.8707,한파쉼터
단산(구립)경로당,서울특별시 양천구 신목로 58-12 ,37.5201,126.874,한파쉼터
양천중앙도서관,서울특별시 양천구 신정로7길 81,37.5136753,126.833615,한파쉼터
신정3동주민센터,서울특별시 양천구 중앙로 209,37.5151,126.8548,한파쉼터
꽃사슴(신정3동구립)경로당,서울특별시 양천구 중앙로29길 108-15 ,37.5216,126.8485,한파쉼터
다락골(구립)경로당,서울특별시 양천구 신정로 273-5 ,37.5137938,126.8480909,한파쉼터
개울건강도서관,서울특별시 양천구 중앙로52길 56,37.5259914,126.8566372,한파쉼터
신정4동주민센터,서울특별시 양천구 오목로34길 5,37.5245,126.8558,한파쉼터
양목(신정4동구립)경로당,서울특별시 양천구 오목로46길 23,37.5236309,126.8620491,한파쉼터
양정(신정4동구립)경로당,서울특별시 양천구 은행정로7길 42,37.522,126.8548,한파쉼터
양동(구립)경로당,서울특별시 양천구 신정중앙로2길 10-13 ,37.5269,126.8508,한파쉼터
청솔(구립)경로당,서울특별시 양천구 중앙로52길 73,37.5264,126.8586,한파쉼터
서부(구립)경로당,서울특별시 양천구 신정중앙로17길 15,37.5283,126.8599,한파쉼터
양천구민체육센터,서울특별시 양천구 목동동로 87,37.5164319,126.8642056,한파쉼터
신정6동주민센터,서울특별시 양천구 목동서로 353,37.517051,126.8643692,한파쉼터
영어특성화도서관,서울특별시 양천구 목동동로 81,37.5159894,126.8637698,한파쉼터
갈산도서관,서울특별시 양천구 목동남로4길 48-6 ,37.5088978,126.8673851,한파쉼터
목동2차 우성(1단지)경로당,서울특별시 양천구 목동남로4길 6-46 ,37.5065937,126.8648516,한파쉼터
양천어르신종합복지관,서울특별시 양천구 목동로3길 106,37.5104,126.8586,한파쉼터
신정7동주민센터,서울특별시 양천구 목동동로 37,37.5144,126.8597,한파쉼터
갈산(구립)경로당,서울특별시 양천구 목동남로 90,37.511,126.8685,한파쉼터
오금(구립)경로당,서울특별시 양천구 목동남로2길 50-5 ,37.5063,126.8638,한파쉼터
염창동주민센터,서울특별시 강서구 양천로67가길 63,37.5537464,126.8709109,한파쉼터
염창어르신사랑방,서울특별시 강서구 양천로73길 36,37.5517607,126.8736845,한파쉼터
염창강변어르신사랑방,서울특별시 강서구 양천로77길 58-25 ,37.5515226,126.8759032,한파쉼터
증미 어르신사랑방,서울특별시 강서구 양천로 603-7 ,37.5557013,126.8657014,한파쉼터
등촌1동 주민센터,서울특별시 강서구 공항대로53가길 55,37.5558314,126.8589082,한파쉼터
등서 어르신사랑방,서울특별시 강서구 화곡로68길 8,37.559189,126.854568,한파쉼터
등촌어르신사랑방,서울특별시 강서구 화곡로66길 186-12 ,37.5537735,126.8624119,한파쉼터
등촌2동 주민센터,서울특별시 강서구 등촌로 143,37.5426581,126.8625052,한파쉼터
두보(하이츠)빌라,서울특별시 강서구 등촌로39가길 42,37.5457389,126.8579683,한파쉼터
능안 어르신사랑방,서울특별시 강서구 등촌로39마길 3,37.5465037,126.8600937,한파쉼터
등촌3동주민센터,서울특별시 강서구 화곡로63길 96,37.5588692,126.8479216,한파쉼터
등촌11단지(아)어르신사랑방,서울특별시 강서구 공항대로43길 39,37.559206,126.849078,한파쉼터
등촌9종합사회복지관푸른경로당,서울특별시 강서구 화곡로63가길 92,37.5620466,126.8500886,한파쉼터
등촌7단지어르신사랑방,서울특별시 강서구 공항대로43길 104,37.5603662,126.8522269,한파쉼터
등촌6단지(아)어르신사랑방,서울특별시 강서구 화곡로63가길 18,37.5599827,126.8481806,한파쉼터
등촌4단지(아)경로당,서울특별시 강서구 공항대로39길 59,37.5615437,126.8431402,한파쉼터
등촌주공1단지어르신사랑방,서울특별시 강서구 강서로68길 36,37.5650614,126.8423691,한파쉼터
화곡1동 주민센터,서울특별시 강서구 곰달래로 79,37.5304289,126.8415696,한파쉼터
곰달래어르신사랑방,서울특별시 강서구 월정로20길 38,37.529633,126.8407227,한파쉼터
공원어르신사랑방,서울특별시 강서구 가로공원로77길 30,37.5380244,126.8385209,한파쉼터
구립예촌 어르신사랑방,서울특별시 강서구 곰달래로 83-1 ,37.5304029,126.842165,한파쉼터
화곡2동주민센터,서울특별시 강서구 곰달래로37길 13,37.5318516,126.854548,한파쉼터
골안말 어르신사랑방,서울특별시 강서구 곰달래로45길 17,37.5333119,126.856048,한파쉼터
하마터 어르신사랑방,서울특별시 강서구 곰달래로36길 22,37.5300881,126.8537633,한파쉼터
수명 어르신사랑방,서울특별시 강서구 화곡로15길 18,37.5408687,126.834343,한파쉼터
푸른 어르신사랑방,서울특별시 강서구 강서로45다길 74,37.5446583,126.8347482,한파쉼터
화곡4동주민센터,서울특별시 강서구 곰달래로57가길 26,37.5346082,126.8607325,한파쉼터
무지개 어르신사랑방,서울특별시 강서구 곰달래로57가길 19,37.5340486,126.8608809,한파쉼터
신곡 어르신사랑방,서울특별시 강서구 곰달래로49길 130,37.5366873,126.8544826,한파쉼터
화친 어르신사랑방,서울특별시 강서구 강서로8길 203,37.5311046,126.8594132,한파쉼터
화곡본동 주민센터,서울특별시 강서구 초록마을로5길 29,37.5440288,126.8476296,한파쉼터
거성경로당,서울특별시 강서구 초록마을로 65,37.5427671,126.8499746,한파쉼터
봉제 어르신사랑방,,37.5457427,126.8517011,한파쉼터
초록동 어르신사랑방,서울특별시 강서구 초록마을로14길 36,37.5411212,126.8484604,한파쉼터
화촌어르신사랑방,서울특별시 강서구 까치산로4길 30-21 ,37.5407,126.8445,한파쉼터
강서구청 ,서울특별시 강서구 화곡로 302,37.550889,126.8496037,한파쉼터
화곡6동주민센터,서울특별시 강서구 공항대로46길 105,37.550775,126.8509,한파쉼터
우장산 어르신사랑방,서울특별시 강서구 화곡로53길 56-10 ,37.552023,126.8464445,한파쉼터
중앙어르신사랑방,서울특별시 강서구 화곡로44가길 52-4 ,37.5497762,126.8489572,한파쉼터
연지어르신사랑방,서울특별시 강서구 화곡로58길 30-7 ,37.5524298,126.852599,한파쉼터
화곡8동 주민센터,서울특별시 강서구 곰달래로25길 45,37.5327177,126.8483058,한파쉼터
안골어르신사랑방,서울특별시 강서구 강서로18아길 15-9 ,37.5360294,126.8507451,한파쉼터
약수어르신사랑방,서울특별시 강서구 초록마을로32길 32,37.5380028,126.8475012,한파쉼터
화곡 어르신사랑방,서울특별시 강서구 강서로12길 15-10 ,37.532109,126.8477528,한파쉼터
화곡일심어르신사랑방,서울특별시 강서구 곰달래로30길 14,37.5302272,126.8514336,한파쉼터
가양1동 주민센터,서울특별시 강서구 허준로 30,37.5695181,126.8446542,한파쉼터
가양어르신사랑방,서울특별시 강서구 양천로47나길 48-6 ,37.5723268,126.8400207,한파쉼터
마곡 어르신사랑방,서울특별시 강서구 양천로30길 20,37.5723,126.8226,한파쉼터
성재정어르신사랑방,서울특별시 강서구 강서로74길 11,37.5677714,126.8419138,한파쉼터
후포어르신사랑방,서울특별시 강서구 양천로47길 104,37.574903,126.837054,한파쉼터
가양2동주민센터,서울특별시 강서구 허준로 93,37.5673814,126.8512612,한파쉼터
가양4단지어르신사랑방,서울특별시 강서구 양천로57길 37,37.5646525,126.852597,한파쉼터
가양5종합사회복지관장수경로당,서울특별시 강서구 양천로57길 36,37.5642549,126.8534714,한파쉼터
가양3동주민센터,서울특별시 강서구 허준로 202,37.561058,126.86054,한파쉼터
가양9-1단지(아)어르신사랑방,서울특별시 강서구 허준로 224,37.5600819,126.8616388,한파쉼터
가양8단지(아)어르신사랑방,서울특별시 강서구 허준로 176,37.562133,126.8569636,한파쉼터
가양7종합사회복지관정우경로당,서울특별시 강서구 허준로 209,37.561876,126.861331,한파쉼터
발산1동 주민센터,서울특별시 강서구 강서로47길 54,37.553107,126.8331316,한파쉼터
발음어르신경로당,서울특별시 강서구 강서로47길 61-21 ,37.552047,126.8331841,한파쉼터
신광명 어르신사랑방,서울특별시 강서구 남부순환로19길 105,37.546867,126.822902,한파쉼터
우장산동주민센터,서울특별시 강서구 우현로 34,37.548234,126.841791,한파쉼터
화곡3동주민센터,서울특별시 강서구 강서로33가길 17,37.5425588,126.8384421,한파쉼터
원당어르신사랑방,서울특별시 강서구 강서로52길 72,37.5574128,126.8420979,한파쉼터
봉바위어르신사랑방,서울특별시 강서구 강서로34길 34,37.543202,126.841371,한파쉼터
공항동 주민센터,서울특별시 강서구 송정로 45,37.5588443,126.8100389,한파쉼터
공항 어르신사랑방,서울특별시 강서구 공항대로2가길 5-3 ,37.5603833,126.8090426,한파쉼터
공항동부어르신사랑방,서울특별시 강서구 공항대로8길 33-9 ,37.5595668,126.8128315,한파쉼터
다솔 어르신사랑방,서울특별시 강서구 방화대로6길 24-3 ,37.5548175,126.8181688,한파쉼터
산우물어르신사랑방,서울특별시 강서구 방화대로21가길 18,37.5637265,126.8146671,한파쉼터
장미어르신사랑방,서울특별시 강서구 방화대로7다길 35-20 ,37.5568565,126.8137981,한파쉼터
방화1동 주민센터,서울특별시 강서구 방화대로 330,37.5703452,126.8170195,한파쉼터
대한항공정우회,서울특별시 강서구 양천로24길 108,37.5685206,126.8151908,한파쉼터
방화동부어르신사랑방,서울특별시 강서구 양천로28길 12-9 ,37.572525,126.8199036,한파쉼터
방화구립어르신사랑방,서울특별시 강서구 방화대로37길 47-5 ,37.5698,126.8139,한파쉼터
복종어르신사랑방,서울특별시 강서구 양천로7길 11,37.5734111,126.8077332,한파쉼터
방화일심어르신사랑방,서울특별시 강서구 방화대로 297-9 ,37.5668749,126.8160011,한파쉼터
방화2동 주민센터,서울특별시 강서구 개화동로21길 52,37.5715,126.8054,한파쉼터
방화11종합사회복지관경로당,서울특별시 강서구 개화동로21길 4,37.5694,126.806,한파쉼터
내촌어르신사랑방,서울특별시 강서구 개화동로13길 12-8 ,37.5774711,126.80158,한파쉼터
방화 어르신사랑방,서울특별시 강서구 개화동로23길 26,37.5666716,126.8070831,한파쉼터
개화어르신사랑방,서울특별시 강서구 개화동로5길 3-66 ,37.5831062,126.7987829,한파쉼터
상사어르신사랑방,서울특별시 강서구 개화길 52,37.586793,126.801554,한파쉼터
방화3동주민센터,서울특별시 강서구 금낭화로24길 5,37.5787451,126.813523,한파쉼터
방화9단지(아)어르신사랑방,서울특별시 강서구 양천로11길 57,37.574991,126.8075627,한파쉼터
방화6단지어르신사랑방,서울특별시 강서구 금낭화로23길 25,37.5778926,126.8108645,한파쉼터
방화2종합사회복지관우정경로당,서울특별시 강서구 방화대로48길 40,37.5742446,126.8201372,한파쉼터
능말어르신사랑방,서울특별시 강서구 금낭화로19길 7-3 ,37.5754732,126.8114118,한파쉼터
치현 어르신사랑방,서울특별시 강서구 금낭화로24가길 40,37.5798305,126.8152577,한파쉼터
신도림동주민센터,서울특별시 구로구 신도림로 40,37.5077837,126.880604,한파쉼터
구로1동 주민센터,서울특별시 구로구 구일로4길 57,37.493013,126.875755,한파쉼터
구로구청 한파쉼터,서울특별시 구로구 가마산로 245,37.4953504,126.8876921,한파쉼터
구로2동 주민센터,서울특별시 구로구 구로동로 141,37.4913193,126.8835711,한파쉼터
구로3동주민센터,서울특별시 구로구 디지털로31길 109,37.4874416,126.8903054,한파쉼터
구로4동 주민센터,서울특별시 구로구 구로동로28길 94,37.491563,126.889132,한파쉼터
푸른솔경로당,서울특별시 구로구 구로중앙로32나길 12,37.5016084,126.8855265,한파쉼터
구로5동 주민센터,서울특별시 구로구 구로중앙로28길 66,37.500043,126.889289,한파쉼터
가리봉동 주민센터,서울특별시 구로구 우마2길 35,37.4824503,126.8897691,한파쉼터
고척1동 주민센터,서울특별시 구로구 중앙로3길 18-8 ,37.500368,126.862775,한파쉼터
고척2동 주민센터,서울특별시 구로구 중앙로15길 22,37.506671,126.858585,한파쉼터
개봉1동 경로당,서울특별시 구로구 경인로35길 40-1 ,37.499093,126.853973,한파쉼터
개봉1동 주민센터,서울특별시 구로구 경인로33길 51,37.50021,126.851117,한파쉼터
개봉2동 주민센터,서울특별시 구로구 개봉로16가길 17,37.4908316,126.856584,한파쉼터
개봉3동 주민센터,서울특별시 구로구 개봉로3길 47-5 ,37.4859537,126.8538272,한파쉼터
오류1동 주민센터,서울특별시 구로구 경인로27길 10,37.4972542,126.8452791,한파쉼터
오정경로당,서울특별시 구로구 오리로13가길 30,37.4894321,126.8304746,한파쉼터
응골경로당,서울특별시 구로구 서해안로 2340-11 ,37.4934123,126.844644,한파쉼터
오리골경로당,서울특별시 구로구 천왕로 106,37.4860349,126.8385553,한파쉼터
오류2동 주민센터,서울특별시 구로구 오류로 45,37.4887627,126.8394745,한파쉼터
수궁동 주민센터,서울특별시 구로구 오리로15길 32,37.4938646,126.8314537,한파쉼터
구립수목원경로당,서울특별시 구로구 연동로 296-12 ,37.4862741,126.8243434,한파쉼터
항동주민센터,서울특별시 구로구 연동로 191-19 ,37.4792566,126.8224112,한파쉼터
대한적십자사 금천봉사나눔터,서울특별시 금천구 가산디지털2로 169-44 ,37.48264,126.8749505,한파쉼터
책이든거리작은도서관,서울특별시 금천구 가산동 677,37.4663345,126.8885386,한파쉼터
금천구립가산도서관,서울특별시 금천구 가산로5길 43,37.4734915,126.8921193,한파쉼터
우정경로당,서울특별시 금천구 두산로3길 49,37.4726854,126.8887064,한파쉼터
가산동주민센터,서울특별시 금천구 가산로 129,37.4769139,126.8917866,한파쉼터
복숭아마을 수다방,서울특별시 금천구 시흥대로139길 28,37.472971,126.896518,한파쉼터
금하마을주민공동이용시설(1층 공유부엌),서울특별시 금천구 금하로1다길 16,37.4529858,126.8914194,한파쉼터
모두의 마을공간 커뮤니티센터(1층 다목적홀),서울특별시 금천구 벚꽃로 14,37.4572563,126.8944073,한파쉼터
금천뮤지컬센터,서울특별시 금천구 시흥대로115길 48,37.4689402,126.8938494,한파쉼터
금나래문화체육센터(1층 북카페),서울특별시 금천구 시흥대로79길 32,37.458887,126.896411,한파쉼터
참새경로당,서울특별시 금천구 한내로 55,37.4569538,126.8871926,한파쉼터
금천한내어르신복지센터,서울특별시 금천구 한내로 69-15 ,37.4571583,126.8869883,한파쉼터
복지경로당,서울특별시 금천구 벚꽃로10길 94,37.464581,126.895285,한파쉼터
독산1동주민센터,서울특별시 금천구 시흥대로123길 11,37.4702215,126.8970489,한파쉼터
독산4동주민센터,서울특별시 금천구 독산로 232,37.4675529,126.9021953,한파쉼터
금천평생학습관 독산,서울특별시 금천구 범안로 1240-7 ,37.4661024,126.8997636,한파쉼터
독산2동마을활력소(정감),서울특별시 금천구 시흥대로 342,37.464312,126.8981302,한파쉼터
독산2동 어르신쉼터,서울특별시 금천구 독산로67길 32,37.4646143,126.9008178,한파쉼터
정훈경로당,서울특별시 금천구 독산로64길 79,37.466802,126.906432,한파쉼터
독산2동주민센터,서울특별시 금천구 독산로 179,37.4631486,126.90349,한파쉼터
만수경로당,서울특별시 금천구 시흥대로90길 60-3 ,37.4628214,126.900969,한파쉼터
독산보건지소,서울특별시 금천구 독산로87길 27,37.4736703,126.9022527,한파쉼터
목화경로당,서울특별시 금천구 문성로7가길 14,37.4775444,126.906504,한파쉼터
독산3동주민센터,서울특별시 금천구 독산로 317,37.4751601,126.9031743,한파쉼터
책달샘숲속작은도서관,서울특별시 금천구 독산동 373,37.4695959,126.9077593,한파쉼터
금천구립독산도서관(1층 로비),서울특별시 금천구 독산로54길 114,37.4674277,126.9080163,한파쉼터
금천호암노인종합복지관,서울특별시 금천구 독산로72길 86-5 ,37.4695383,126.906447,한파쉼터
정심경로당,서울특별시 금천구 독산로75길 12-7 ,37.4693606,126.9016002,한파쉼터
"금천구청 1층(로비), 응급대피소 지하1층",서울특별시 금천구 시흥대로73길 70,37.4570519,126.8960166,한파쉼터
금천노인종합복지관,서울특별시 금천구 시흥대로51길 93-32 ,37.450152,126.8977809,한파쉼터
시흥1동주민센터,서울특별시 금천구 시흥대로58길 36,37.4535702,126.903237,한파쉼터
시흥3동주민센터,서울특별시 금천구 시흥대로18길 40,37.4402555,126.9058183,한파쉼터
새재미경로당,서울특별시 금천구 독산로39길 16,37.4588453,126.9042611,한파쉼터
시흥4동주민센터,서울특별시 금천구 독산로36길 14,37.458957,126.9061289,한파쉼터
시흥2동마을활력소(늘솔나루),서울특별시 금천구 금하로 764,37.4496974,126.9141886,한파쉼터
공동체경제통합지원센터 2관(2층),서울특별시 금천구 탑골로8길 23,37.4509,126.9148,한파쉼터
시흥2동주민센터,서울특별시 금천구 금하로 764,37.4495526,126.9148189,한파쉼터
산장경로당,서울특별시 금천구 탑골로2길 59-9 ,37.4508156,126.9138957,한파쉼터
박미사랑마을회관,서울특별시 금천구 시흥대로12길 82,37.4405767,126.9074938,한파쉼터
금천문화회관(1층 로비),서울특별시 금천구 시흥대로38길 61,37.4465422,126.904234,한파쉼터
박산경로당,서울특별시 금천구 시흥대로2길 60,37.4350423,126.9065287,한파쉼터
새재미마을활력소,서울특별시 금천구 독산로50길 105,37.4623248,126.9101755,한파쉼터
시흥4동 어르신쉼터,서울특별시 금천구 독산로50마길 39-8 ,37.4611121,126.913054,한파쉼터
장수경로당,서울특별시 금천구 독산로50길 57-1 ,37.4628413,126.9075398,한파쉼터
시흥5동 임시어르신쉼터,서울특별시 금천구 금하로 700,37.4514243,126.907652,한파쉼터
금천마을활력소 어울샘(2층 어울샘 홀),서울특별시 금천구 탑골로 22,37.4518201,126.9116314,한파쉼터
공동체경제통합지원센터(1관),서울특별시 금천구 은행나무로 45,37.4510333,126.9074665,한파쉼터
읍내경로당,서울특별시 금천구 은행나무로10길 12-1 ,37.4504237,126.9063177,한파쉼터
탑동경로당,서울특별시 금천구 금하로23가길 14-1 ,37.4515244,126.9095322,한파쉼터
시흥5동주민센터,서울특별시 금천구 금하로24길 6,37.4508,126.9084,한파쉼터
영등포어르신복지센터,서울특별시 영등포구 도영로22길 36,37.5101833,126.9032827,한파쉼터
희망지원센터 응급구호시설(노숙인),서울특별시 영등포구 경인로102길 10,37.515768,126.905888,한파쉼터
영등포본동 주민센터,서울특별시 영등포구 신길로61길 17,37.514638,126.90932,한파쉼터
햇살보금자리 응급구호시설(노숙인),서울특별시 영등포구 국회대로54길 41-16 ,37.5220759,126.9104576,한파쉼터
보현종합지원센터 응급구호시설(노숙인),서울특별시 영등포구 버드나루로 24,37.521236,126.912561,한파쉼터
영등포동 주민센터,서울특별시 영등포구 양산로 232,37.5222929,126.9090267,한파쉼터
여의도어르신복지센터,서울특별시 영등포구 여의대방로 372,37.5181147,126.9307753,한파쉼터
영등포50플러스센터,서울특별시 영등포구 여의대방로 372,37.5181211,126.9307458,한파쉼터
여의동 주민센터,서울특별시 영등포구 국제금융로 124,37.517634,126.93457,한파쉼터
영등포구청 (1층로비),서울특별시 영등포구 당산로 123,37.5263283,126.8959308,한파쉼터
당산1동주민센터,서울특별시 영등포구 양산로23길 11,37.5251328,126.8972987,한파쉼터
당산2동 주민센터,서울특별시 영등포구 당산로41가길 7,37.531015,126.897338,한파쉼터
구립모랫말어르신복지센터,서울특별시 영등포구 도영로 41,37.50968,126.897459,한파쉼터
도림동 주민센터,서울특별시 영등포구 도영로7길 10,37.509459,126.89597,한파쉼터
옹달샘드롭인센터 응급구호시설(노숙),서울특별시 영등포구 경인로94길 6,37.51416,126.902518,한파쉼터
문래동 주민센터,서울특별시 영등포구 문래로28길 15,37.517087,126.899488,한파쉼터
양평1동 주민센터,서울특별시 영등포구 영등포로11길 12,37.523614,126.888261,한파쉼터
양평2동 주민센터,서울특별시 영등포구 선유로47길 30,37.5364445,126.8939996,한파쉼터
신길1동 주민센터,서울특별시 영등포구 영등포로84길 24-5 ,37.511156,126.9214263,한파쉼터
신길3동 주민센터,서울특별시 영등포구 신길로41라길 13-8 ,37.5073472,126.9078323,한파쉼터
신길4동 주민센터,서울특별시 영등포구 신길로42길 1,37.50842,126.911266,한파쉼터
신길5동 주민센터,서울특별시 영등포구 도림로 264,37.501607,126.905201,한파쉼터
신길6동 주민센터,서울특별시 영등포구 대방천로 167,37.4993762,126.9098327,한파쉼터
신길7동 주민센터,서울특별시 영등포구 여의대방로43길 10,37.506324,126.921419,한파쉼터
시니어행복발전센터,서울특별시 영등포구 디지털로 441,37.4954521,126.905871,한파쉼터
대림1동 주민센터,서울특별시 영등포구 디지털로 441,37.495477,126.905935,한파쉼터
대림2동 주민센터,서울특별시 영등포구 대림로23길 25,37.492712,126.898229,한파쉼터
대림3동 주민센터,서울특별시 영등포구 대림로 197,37.49828,126.89804,한파쉼터
노량진1동주민센터,서울특별시 동작구 노량진로 190,37.5129513,126.9467211,한파쉼터
노량진1동경로당,서울특별시 동작구 만양로 77,37.5103903,126.9446152,한파쉼터
동작구청 청사 응급 한파대피소,서울특별시 동작구 장승배기로 161,37.512313,126.9395649,한파쉼터
노량진2동주민센터,서울특별시 동작구 장승배기로19길 48,37.5085193,126.9373525,한파쉼터
상도1동주민센터,서울특별시 동작구 상도로53길 9,37.4981222,126.953069,한파쉼터
청송경로당,서울특별시 동작구 상도로52길 23,37.4972114,126.9510114,한파쉼터
상도2동주민센터,서울특별시 동작구 상도로 211,37.5054945,126.9423314,한파쉼터
낙원경로당,서울특별시 동작구 상도로30길 73,37.5039572,126.9448461,한파쉼터
장수경로당,서울특별시 동작구 상도로15길 76,37.5037088,126.9353919,한파쉼터
상도2동경로당,서울특별시 동작구 양녕로36길 13,37.5022189,126.9461932,한파쉼터
상도3동주민센터,서울특별시 동작구 성대로2길 11,37.4992063,126.9313412,한파쉼터
상도3동경로당,서울특별시 동작구 국사봉1길 221-7 ,37.4934517,126.9363305,한파쉼터
상도4동주민센터,서울특별시 동작구 양녕로27길 44,37.4995092,126.9413356,한파쉼터
성대골경로당,서울특별시 동작구 성대로10나길 1-4 ,37.4973118,126.9349758,한파쉼터
흑석동주민센터,서울특별시 동작구 흑석한강로 11,37.5057831,126.9665907,한파쉼터
흑석경로당,서울특별시 동작구 서달로13길 17,37.5084509,126.961876,한파쉼터
사당1동주민센터,서울특별시 동작구 동작대로17길 28,37.4831526,126.978693,한파쉼터
사당1동경로당,서울특별시 동작구 사당로20길 132,37.4788873,126.973231,한파쉼터
사당2동주민센터,서울특별시 동작구 동작대로29길 52,37.4887525,126.9792455,한파쉼터
남성경로당,서울특별시 동작구 동작대로25길 48,37.4853063,126.9798994,한파쉼터
사당3동주민센터,서울특별시 동작구 사당로17길 86,37.4866648,126.9720599,한파쉼터
삼익경로당,서울특별시 동작구 사당로27길 190,37.4901814,126.9723165,한파쉼터
사당4동주민센터,서울특별시 동작구 사당로16아길 6,37.4809662,126.9716274,한파쉼터
신남성경로당,서울특별시 동작구 사당로16길 56,37.4813537,126.9720229,한파쉼터
사당5동주민센터,서울특별시 동작구 사당로2가길 219,37.4856322,126.9670068,한파쉼터
사당5동구립경로당,서울특별시 동작구 사당로6길 3-8 ,37.4863757,126.9675831,한파쉼터
대방동주민센터,서울특별시 동작구 여의대방로44길 20,37.5081683,126.9263395,한파쉼터
신대방2동경로당,서울특별시 동작구 여의대방로24가길 2,37.4982089,126.9212576,한파쉼터
대방중앙경로당,서울특별시 동작구 여의대방로24라길 4,37.4981152,126.9226176,한파쉼터
신대방1동주민센터,서울특별시 동작구 신대방길 72,37.4889453,126.9100392,한파쉼터
신대방2동주민센터,서울특별시 동작구 여의대방로24길 76,37.4984069,126.9245377,한파쉼터
보라매동주민센터,서울특별시 관악구 봉천로 279-8 ,37.4881672,126.9328046,한파쉼터
보라매경로당,서울특별시 관악구 봉천로21길 35,37.4884691,126.9340672,한파쉼터
당곡경로당,서울특별시 관악구 당곡6길 37,37.4922219,126.9294321,한파쉼터
청림동주민센터,서울특별시 관악구 관악로40길 39,37.4918447,126.9585971,한파쉼터
구립청림경로당,서울특별시 관악구 청림2길 37,37.4866666,126.9582866,한파쉼터
관악푸르지오 삼오경로당,서울특별시 관악구 청림5길 28,37.489525,126.960243,한파쉼터
성현동주민센터,서울특별시 관악구 구암길 38,37.4895134,126.9481771,한파쉼터
구암경로당,서울특별시 관악구 은천로23길 19,37.4876868,126.9480782,한파쉼터
관악드림타운 2단지(아) 경로당,서울특별시 관악구 구암길 106,37.491697,126.948056,한파쉼터
성현동아(아) 2단지 경로당,서울특별시 관악구 관악로37길 20,37.4879609,126.9562429,한파쉼터
성현경로당,서울특별시 관악구 은천로35길 40-3 ,37.488021,126.954203,한파쉼터
행운동주민센터,서울특별시 관악구 행운1길 43,37.4806676,126.9570315,한파쉼터
신창경로당,서울특별시 관악구 행운1길 12,37.479951,126.958589,한파쉼터
"봉천우성(아) 109,110동 경로당",서울특별시 관악구 관악로30길 40,37.484758,126.961191,한파쉼터
원당경로당,서울특별시 관악구 남부순환로247다길 60,37.478639,126.964113,한파쉼터
행운경로당,서울특별시 관악구 행운9길 34,37.483375,126.959638,한파쉼터
낙성대동주민센터,서울특별시 관악구 낙성대로4가길 5,37.4763038,126.9584068,한파쉼터
백설경로당,서울특별시 관악구 관악로6길 50,37.476247,126.953496,한파쉼터
덕진경로당,서울특별시 관악구 남부순환로234길 37,37.4777001,126.956821,한파쉼터
관악구청,서울특별시 관악구 관악로 145,37.4782676,126.9513952,한파쉼터
청룡동주민센터,서울특별시 관악구 쑥고개로 44,37.4791345,126.9416233,한파쉼터
일선경로당,서울특별시 관악구 쑥고개로26길 24,37.4778233,126.9495272,한파쉼터
송현경로당,서울특별시 관악구 장군봉1길 45-6 ,37.481889,126.942473,한파쉼터
은천동주민센터,서울특별시 관악구 봉천로33나길 30,37.4853115,126.9424147,한파쉼터
국지경로당,서울특별시 관악구 국회단지21길 14,37.49026,126.941507,한파쉼터
은천경로당,서울특별시 관악구 봉천로27길 45,37.485758,126.940835,한파쉼터
벽산블루밍(아)3단지 경로당,서울특별시 관악구 양녕로 117,37.4920548,126.9426935,한파쉼터
두산(아)임대 3단지 경로당,서울특별시 관악구 양녕로 31,37.485155,126.945793,한파쉼터
국사봉경로당,서울특별시 관악구 은천로15길 13-2 ,37.487504,126.943705,한파쉼터
중앙동주민센터,서울특별시 관악구 양녕로6다길 7,37.4841932,126.9497545,한파쉼터
중앙경로당,서울특별시 관악구 은천로26길 14,37.4859292,126.9504127,한파쉼터
장수경로당,서울특별시 관악구 양녕로6다길 11-4 ,37.484464,126.949368,한파쉼터
인헌동주민센터,서울특별시 관악구 남부순환로246가길 20,37.475118,126.965331,한파쉼터
인헌경로당,서울특별시 관악구 낙성대역3길 6-6 ,37.4758529,126.9618197,한파쉼터
덕양경로당,서울특별시 관악구 인헌4길 20,37.474825,126.965907,한파쉼터
밤골경로당,서울특별시 관악구 인헌3가길 8,37.4739,126.967356,한파쉼터
남현동주민센터,서울특별시 관악구 남현1가길 29,37.4746879,126.9778753,한파쉼터
구립예촌경로당,서울특별시 관악구 남현길 41,37.4745367,126.9768906,한파쉼터
관수경로당,서울특별시 관악구 승방3나길 14,37.47288,126.98054,한파쉼터
서원동주민센터,서울특별시 관악구 신림로 282,37.4797827,126.9312704,한파쉼터
신본경로당,서울특별시 관악구 남부순환로200다길 7,37.4825952,126.9364927,한파쉼터
서원경로당,서울특별시 관악구 서원3길 10,37.476832,126.933228,한파쉼터
신관경로당,서울특별시 관악구 신림로48길 25,37.479402,126.933451,한파쉼터
신원동주민센터,서울특별시 관악구 신원로3길 13,37.481624,126.9274389,한파쉼터
신일경로당,서울특별시 관악구 문성로32길 18,37.4785019,126.9286988,한파쉼터
신원경로당,서울특별시 관악구 남부순환로170길 6,37.48269,126.924382,한파쉼터
서림동주민센터,서울특별시 관악구 신림로29길 6,37.4749906,126.9349893,한파쉼터
서림경로당,서울특별시 관악구 서림3길 47,37.472323,126.9406227,한파쉼터
서광경로당,서울특별시 관악구 참숯5길 38,37.4761071,126.9417476,한파쉼터
행복경로당,서울특별시 관악구 신림로36길 12-10 ,37.4756227,126.9379322,한파쉼터
구립어울림경로당,서울특별시 관악구 남부순환로149길 34-2 ,37.4835879,126.9154943,한파쉼터
신사동주민센터,서울특별시 관악구 조원로 142,37.4855,126.9181,한파쉼터
신사경로당,서울특별시 관악구 조원로 151-1 ,37.4859096,126.9191148,한파쉼터
신림동주민센터,서울특별시 관악구 신림동길 14,37.4873936,126.9270996,한파쉼터
새들경로당,서울특별시 관악구 관천로20길 43,37.4884242,126.9250784,한파쉼터
색동경로당,서울특별시 관악구 신림로70길 74,37.4865046,126.9326888,한파쉼터
난향동주민센터,서울특별시 관악구 난곡로 67,37.4615201,126.9188341,한파쉼터
난향경로당,서울특별시 관악구 난곡로9길 29-2 ,37.4640432,126.9181334,한파쉼터
국회단지경로당,서울특별시 관악구 난향9길 59-1 ,37.460303,126.91497,한파쉼터
신림SH빌(아)경로당,서울특별시 관악구 난곡로 80,37.46242,126.919834,한파쉼터
조원동주민센터,서울특별시 관악구 조원로12길 25,37.4825884,126.9078078,한파쉼터
구립강남경로당,서울특별시 관악구 조원로4길 24,37.4823368,126.9047018,한파쉼터
조원경로당,서울특별시 관악구 조원로 48,37.483492,126.907749,한파쉼터
대학동주민센터,서울특별시 관악구 신림로 111,37.470602,126.936964,한파쉼터
구립대학경로당,서울특별시 관악구 대학12길 16,37.466638,126.9369878,한파쉼터
삼성동주민센터,서울특별시 관악구 호암로 589,37.470099,126.9329724,한파쉼터
돌샘경로당,서울특별시 관악구 호암로18나길 5,37.4652907,126.9328739,한파쉼터
주공2단지(아)경로당,서울특별시 관악구 광신길 86,37.463915,126.926697,한파쉼터
원신경로당,서울특별시 관악구 양지10길 15-1 ,37.47045,126.927994,한파쉼터
주공1단지(아)경로당,서울특별시 관악구 광신길 160,37.465935,126.927911,한파쉼터
미성동주민센터,서울특별시 관악구 난곡로 249,37.4761902,126.9155578,한파쉼터
미성경로당,서울특별시 관악구 난곡로58길 11,37.4800566,126.9157435,한파쉼터
삼성경로당,서울특별시 관악구 난곡로63가길 47,37.478851,126.91451,한파쉼터
약수경로당,서울특별시 관악구 미성길 123,37.471838,126.912226,한파쉼터
하난곡경로당,서울특별시 관악구 난우10가길 20-7 ,37.476792,126.919933,한파쉼터
난곡동주민센터,서울특별시 관악구 난곡로30길 40,37.4710115,126.9216424,한파쉼터
난곡경로당,서울특별시 관악구 난곡로31길 38,37.4704392,126.918345,한파쉼터
무궁화경로당,서울특별시 관악구 난곡로26다길 17,37.4700094,126.9245169,한파쉼터
법원경로당,서울특별시 관악구 법원단지25길 15,37.4758019,126.922893,한파쉼터
우림경로당,서울특별시 관악구 난곡로24가길 19-4 ,37.469943,126.921772,한파쉼터
중앙노인종합복지관,서울특별시 서초구 서초대로54길 45,37.492289,127.016803,한파쉼터
서초1동주민센터,서울특별시 서초구 사임당로 89,37.49014,127.019443,한파쉼터
서초1동 경로당,서울특별시 서초구 효령로68길 49-3 ,37.485434,127.02249,한파쉼터
서초2동 주민센터,서울특별시 서초구 서초대로70길 51,37.4920493,127.0249316,한파쉼터
서초2동 경로당,서울특별시 서초구 강남대로45길 17-2 ,37.4879585,127.0308916,한파쉼터
서초3동 주민센터,서울특별시 서초구 반포대로 34,37.4836596,127.0120409,한파쉼터
서초구립 하명달 경로당,서울특별시 서초구 반포대로23길 51-6 ,37.4885833,127.0057763,한파쉼터
서초3동 경로당(서초느티나무쉼터),서울특별시 서초구 반포대로1길 53-3 ,37.4828124,127.0108742,한파쉼터
예술의마을 경로당,서울특별시 서초구 남부순환로323길 44-15 ,37.4832552,127.0144764,한파쉼터
서초느티나무쉼터,서울특별시 서초구 반포대로1길 53-3 ,37.4828153,127.0108796,한파쉼터
서초4동 주민센터,서울특별시 서초구 서운로26길 3,37.5026915,127.0221797,한파쉼터
명달 경로당,서울특별시 서초구 서운로23길 17,37.4985307,127.0209822,한파쉼터
장안 경로당,서울특별시 서초구 서초대로55길 13,37.4959159,127.0153395,한파쉼터
서초구립 주흥경로당,서울특별시 서초구 신반포로41길 30,37.5111596,127.0166064,한파쉼터
잠원동 주민센터,서울특별시 서초구 나루터로 38,37.5149576,127.0139641,한파쉼터
잠원동 경로당,서울특별시 서초구 강남대로107길 24,37.5178786,127.0173141,한파쉼터
반포복지관 경로당 시니어라운지,서울특별시 서초구 사평대로55길 90,37.5078854,127.0212731,한파쉼터
반포1동 IT센터 시니어라운지,서울특별시 서초구 사평대로 273,37.5050853,127.013382,한파쉼터
반포1동 주민센터,서울특별시 서초구 사평대로 273,37.5050952,127.0133983,한파쉼터
반포복지관 경로당,서울특별시 서초구 사평대로55길 90,37.5078662,127.021265,한파쉼터
반포1동경로당,서울특별시 서초구 사평대로55길 90,37.5078959,127.0212779,한파쉼터
반포2동 경로당 시니어라운지,서울특별시 서초구 신반포로15길 28,37.505098,126.9948882,한파쉼터
반포느티나무쉼터,서울특별시 서초구 신반포로 127,37.5043682,126.9982517,한파쉼터
반포2동 주민센터,서울특별시 서초구 신반포로 127,37.5043895,126.9982544,한파쉼터
반포2동 경로당,서울특별시 서초구 신반포로15길 28,37.5050769,126.994826,한파쉼터
반포3동 경로당 시니어라운지,서울특별시 서초구 신반포로23길 48,37.5093407,127.0035705,한파쉼터
반포3동 주민센터,서울특별시 서초구 신반포로23길 78,37.5120789,127.0055541,한파쉼터
반포3동 경로당,서울특별시 서초구 신반포로23길 48,37.5093531,127.0032854,한파쉼터
반포4동 주민센터,서울특별시 서초구 사평대로28길 70,37.4974546,127.0003062,한파쉼터
반포4동 경로당,서울특별시 서초구 사평대로26길 9-14 ,37.4996293,126.9994709,한파쉼터
방배본동 주민센터,서울특별시 서초구 동광로19길 38,37.4941178,126.9888264,한파쉼터
서초구립 기녕당 경로당,서울특별시 서초구 방배중앙로 159-6 ,37.493331,126.9859304,한파쉼터
방배1동 주민센터,서울특별시 서초구 효령로29길 43,37.4833701,126.9945046,한파쉼터
방배1동제1경로당,서울특별시 서초구 서초대로 114-8 ,37.4875575,126.9947133,한파쉼터
방배2동 주민센터,서울특별시 서초구 청두곶길 36,37.4797645,126.9855514,한파쉼터
방배노인종합 복지관,서울특별시 서초구 방배천로 48,37.4807436,126.9828048,한파쉼터
방배2동 제2경로당,서울특별시 서초구 방배천로16길 5,37.4822446,126.9830826,한파쉼터
방배느티나무쉼터,서울특별시 서초구 남부순환로287길 17-6 ,37.4765288,126.9872752,한파쉼터
방배3동 주민센터,서울특별시 서초구 방배로 40,37.4784478,126.9999906,한파쉼터
방배3동 제2경로당,서울특별시 서초구 남부순환로287길 17-4 ,37.4765392,126.9873992,한파쉼터
방배4동 주민센터,서울특별시 서초구 방배로 173,37.4889889,126.9922382,한파쉼터
방배4동 경로당,서울특별시 서초구 방배중앙로19길 4,37.4899572,126.9869113,한파쉼터
양재느티나무쉼터,서울특별시 서초구 바우뫼로41길 72-9 ,37.4838555,127.040532,한파쉼터
우면주공아파트 경로당,서울특별시 서초구 바우뫼로7길 11,37.4702585,127.0242739,한파쉼터
서초구립 우면동 경로당,서울특별시 서초구 바우뫼로4길 6,37.4694165,127.025483,한파쉼터
양재1동 주민센터,서울특별시 서초구 바우뫼로 41,37.4716377,127.0266883,한파쉼터
양재노인종합복지관,서울특별시 서초구 강남대로30길 73-7 ,37.4830294,127.040791,한파쉼터
서초구립 암산 경로당,서울특별시 서초구 바우뫼로7길 84,37.4735552,127.0244818,한파쉼터
말죽거리 경로당,서울특별시 서초구 바우뫼로41길 72-9 ,37.483832,127.0404925,한파쉼터
서초구립 송동마을 경로당,서울특별시 서초구 송동길 27,37.4601697,127.0171256,한파쉼터
서초구립 새원마을 경로당,서울특별시 서초구 새원3길 8,37.4538968,127.0499728,한파쉼터
양재2동 주민센터,서울특별시 서초구 강남대로12길 44,37.470657,127.0412121,한파쉼터
잔디마을 경로당,서울특별시 서초구 매헌로6길 58,37.4662508,127.0355057,한파쉼터
동산마을경로당,서울특별시 서초구 동산로12길 8,37.4713541,127.0450651,한파쉼터
서초구립 샘마을 경로당,서울특별시 서초구 샘마을길 8,37.458219,127.0714841,한파쉼터
서초구립 염곡경로당,서울특별시 서초구 염곡말길 9,37.4617719,127.0505059,한파쉼터
서초구립 홍씨마을 경로당,서울특별시 서초구 홍씨마을길 25,37.4531888,127.0655196,한파쉼터
내곡동 주민센터,서울특별시 서초구 청계산로15길 77,37.4493013,127.0583117,한파쉼터
본마을 경로당,서울특별시 서초구 본마을2길 2,37.4544459,127.0534524,한파쉼터
내곡느티나무쉼터,서울특별시 서초구 염곡말길 9,37.4617297,127.0506875,한파쉼터
능안마을 경로당,서울특별시 서초구 능안말2길 13,37.4545803,127.066278,한파쉼터
청룡마을 경로당,서울특별시 서초구 청룡마을4길 15,37.4474232,127.0580006,한파쉼터
신사동주민센터,서울특별시 강남구 압구정로 128,37.5239742,127.0227971,한파쉼터
논현노인종합복지관,서울특별시 강남구 강남대로128길 59,37.5120356,127.0260558,한파쉼터
논현1동주민센터,서울특별시 강남구 학동로20길 25,37.511452,127.028507,한파쉼터
논현2동주민센터,서울특별시 강남구 학동로43길 17,37.5172779,127.0371879,한파쉼터
압구정노인복지관,서울특별시 강남구 도산대로53길 5,37.5235237,127.0381928,한파쉼터
로데오현대경로당,서울특별시 강남구 압구정로50길 28,37.5265697,127.0370193,한파쉼터
압구정동 주민센터,서울특별시 강남구 압구정로 201,37.5306182,127.0306508,한파쉼터
압구정1동 경로당,서울특별시 강남구 언주로157길 8,37.5239607,127.0322406,한파쉼터
정다운도서관,서울특별시 강남구 학동로67길 11,37.5190742,127.0464499,한파쉼터
청담동주민센터,서울특별시 강남구 압구정로79길 26,37.5250817,127.0493166,한파쉼터
삼성1동주민센터,서울특별시 강남구 봉은사로 616,37.514325,127.0625237,한파쉼터
한파 응급 대피소 ,서울특별시 강남구 학동로 426,37.5177595,127.0476151,한파쉼터
강남구보건소,서울특별시 강남구 선릉로 668,37.5162818,127.0421356,한파쉼터
봉전경로당,서울특별시 강남구 봉은사로68길 39-3 ,37.5098625,127.0519014,한파쉼터
삼성2동주민센터,서울특별시 강남구 봉은사로 419,37.5111674,127.0459912,한파쉼터
대치1동주민센터,서울특별시 강남구 남부순환로391길 19,37.4932457,127.0567749,한파쉼터
대치경로당,서울특별시 강남구 역삼로90길 18,37.5028334,127.0620106,한파쉼터
대치2동주민센터,서울특별시 강남구 영동대로65길 24,37.502306,127.0641871,한파쉼터
대치4동주민센터,서울특별시 강남구 도곡로77길 23,37.4997288,127.0578474,한파쉼터
강남시니어플라자,서울특별시 강남구 봉은사로 332,37.5097588,127.0432192,한파쉼터
상방교경로당,서울특별시 강남구 봉은사로24길 70,37.5023877,127.0318787,한파쉼터
하방교경로당,서울특별시 강남구 역삼로11길 9-7 ,37.4952906,127.0345716,한파쉼터
역삼1동주민센터,서울특별시 강남구 역삼로7길 16,37.4953738,127.0332825,한파쉼터
테헤란아이파크실버클럽,서울특별시 강남구 테헤란로52길 16,37.5023902,127.046061,한파쉼터
역삼시니어하우스,서울특별시 강남구 언주로79길 30-3 ,37.4992,127.0414,한파쉼터
역삼2동경로당,서울특별시 강남구 도곡로27길 27,37.4945386,127.0418311,한파쉼터
역삼2동주민센터,서울특별시 강남구 도곡로43길 25,37.4959747,127.0468166,한파쉼터
도곡1동주민센터,서울특별시 강남구 도곡로18길 57,37.4883118,127.0388787,한파쉼터
개포4차우성경로당,서울특별시 강남구 언주로 117,37.4853497,127.0492425,한파쉼터
삼성래미안경로당,서울특별시 강남구 언주로 202,37.4897643,127.0506262,한파쉼터
도곡2동주민센터,서울특별시 강남구 남부순환로378길 34-9 ,37.4836996,127.0464155,한파쉼터
개포1동주민센터,서울특별시 강남구 개포로 303,37.4827025,127.055583,한파쉼터
경남아경로당,서울특별시 강남구 언주로 110,37.484618,127.0542472,한파쉼터
개포하늘꿈도서관,서울특별시 강남구 개포로110길 54,37.4907255,127.0803584,한파쉼터
개포2동주민센터,서울특별시 강남구 개포로 511,37.4899,127.0691,한파쉼터
강남종합사회복지관,서울특별시 강남구 개포로109길 5,37.4923312,127.0745908,한파쉼터
일원1동주민센터,서울특별시 강남구 개포로 615,37.4927,127.0756,한파쉼터
개포3동주민센터,서울특별시 강남구 개포로 615,37.4927,127.0756,한파쉼터
능인종합사회복지관,서울특별시 강남구 양재대로 340,37.4716775,127.052594,한파쉼터
밀미리경로당,서울특별시 강남구 개포로31길 31,37.4809956,127.048666,한파쉼터
포이경로당,서울특별시 강남구 개포로20길 48,37.476029,127.0492687,한파쉼터
개포4동주민센터,서울특별시 강남구 개포로24길 33,37.4772,127.0499,한파쉼터
세곡보건지소,서울특별시 강남구 자곡로 100,37.4715468,127.0948048,한파쉼터
못골도서관,서울특별시 강남구 자곡로 116,37.4717289,127.096347,한파쉼터
반고개 경로당,서울특별시 강남구 헌릉로622길 9,37.4640471,127.1070291,한파쉼터
방죽1시니어센터,서울특별시 강남구 밤고개로24길 60,37.4708649,127.1053217,한파쉼터
세곡동주민센터,서울특별시 강남구 밤고개로 286,37.4690495,127.1069115,한파쉼터
방죽2경로당,서울특별시 강남구 밤고개로23길 14-31 ,37.4717861,127.1096964,한파쉼터
윗반고개 경로당,서울특별시 강남구 헌릉로645길 11,37.4656188,127.1094701,한파쉼터
열린도서관,서울특별시 강남구 일원로 115,37.4839138,127.0844113,한파쉼터
일원경로당,서울특별시 강남구 광평로3길 21,37.4840866,127.0779655,한파쉼터
수서10단지경로당,서울특별시 강남구 광평로19길 10,37.4845925,127.0876729,한파쉼터
일원본동주민센터,서울특별시 강남구 광평로 126,37.4833779,127.0864808,한파쉼터
대청종합사회복지관,서울특별시 강남구 양재대로55길 10,37.493193,127.091393,한파쉼터
대청경로당,서울특별시 강남구 일원로3길 35,37.4931978,127.0830002,한파쉼터
제1경로당,서울특별시 강남구 양재대로55길 10,37.492171,127.092092,한파쉼터
강남구보건소분소,서울특별시 강남구 밤고개로1길 52,37.4892123,127.105193,한파쉼터
수서종합사회복지관,서울특별시 강남구 광평로56길 11,37.4871752,127.1049528,한파쉼터
태화기독교사회복지관,서울특별시 강남구 광평로 185,37.4848287,127.0933976,한파쉼터
수서명화종합사회복지관,서울특별시 강남구 광평로51길 49,37.4914325,127.1005637,한파쉼터
수서3단지경로당,서울특별시 강남구 광평로51길 49,37.492136,127.0997527,한파쉼터
수서7경로당,서울특별시 강남구 광평로47길 17,37.4870444,127.098729,한파쉼터
수서동주민센터,서울특별시 강남구 광평로56길 11,37.4875,127.1052,한파쉼터
풍성경로당,서울특별시 송파구 풍성로25길 21-9 ,37.5356712,127.1205294,한파쉼터
풍납1동 주민센터,서울특별시 송파구 천호대로152길 7,37.5381063,127.1220348,한파쉼터
풍납제1경로당,서울특별시 송파구 풍성로 67,37.5336473,127.1200164,한파쉼터
토성경로당,서울특별시 송파구 토성로19길 37,37.5315744,127.1195816,한파쉼터
풍납2동 주민센터,서울특별시 송파구 토성로 52,37.5292964,127.1156452,한파쉼터
영풍경로당,서울특별시 송파구 오금로51길 20,37.4970482,127.1410177,한파쉼터
거여경로당,서울특별시 송파구 오금로 476-12 ,37.4937,127.1418,한파쉼터
거여1동 주민센터,서울특별시 송파구 오금로53길 32,37.4969694,127.1433538,한파쉼터
거여새마을경로당,서울특별시 송파구 오금로62길 13-3 ,37.4921663,127.1467602,한파쉼터
거여2동 주민센터,서울특별시 송파구 거마로2길 19,37.4935581,127.1468219,한파쉼터
신마천경로당,서울특별시 송파구 성내천로43마길 11-1 ,37.496512,127.156222,한파쉼터
송파보훈경로당,서울특별시 송파구 성내천로 306,37.4936874,127.1554434,한파쉼터
마천1동 주민센터,서울특별시 송파구 마천로 303,37.4960042,127.1499488,한파쉼터
산성경로당,서울특별시 송파구 성내천로55길 16,37.4923515,127.1582508,한파쉼터
마천경로당,서울특별시 송파구 성내천로38길 4,37.4977942,127.1536526,한파쉼터
용마경로당,서울특별시 송파구 거마로22길 11-8 ,37.4990011,127.1487591,한파쉼터
하마천경로당,서울특별시 송파구 성내천로23길 12,37.5017339,127.1453923,한파쉼터
남천경로당,서울특별시 송파구 성내천로33길 26,37.5000284,127.1545992,한파쉼터
마천2동 주민센터,서울특별시 송파구 마천로41길 12,37.4968421,127.1485347,한파쉼터
방이1동 주민센터,서울특별시 송파구 위례성대로16길 22,37.5110088,127.1238944,한파쉼터
왕천경로당,서울특별시 송파구 양재대로71길 20-10 ,37.5112097,127.1250596,한파쉼터
방이경로당,서울특별시 송파구 가락로39길 11,37.5119087,127.1177415,한파쉼터
몽촌경로당,서울특별시 송파구 위례성대로2길 28-1 ,37.5146423,127.1122877,한파쉼터
방이2동 주민센터,서울특별시 송파구 올림픽로34길 5-13 ,37.5163969,127.1114183,한파쉼터
오륜동 주민센터,서울특별시 송파구 양재대로 1232,37.5154512,127.1342558,한파쉼터
누에머리경로당,서울특별시 송파구 문정로 271,37.5034388,127.1428359,한파쉼터
벌말경로당,서울특별시 송파구 동남로28길 23,37.5016826,127.1403273,한파쉼터
목련경로당,서울특별시 송파구 동남로24길 25,37.4991348,127.1388302,한파쉼터
오금동 주민센터,서울특별시 송파구 중대로25길 5,37.5029893,127.1280813,한파쉼터
백토경로당,서울특별시 송파구 양재대로72길 47-8 ,37.5080867,127.1321202,한파쉼터
오금경로당,서울특별시 송파구 성내천로10길 4,37.5020916,127.1362443,한파쉼터
송파제1경로당,서울특별시 송파구 송파대로42길 29,37.5063428,127.1104941,한파쉼터
송파1동 주민센터,서울특별시 송파구 백제고분로 392,37.5063102,127.1093462,한파쉼터
호수경로당,서울특별시 송파구 송파대로48길 28,37.509914,127.1071401,한파쉼터
송파제2경로당,서울특별시 송파구 송파대로38길 1,37.5007,127.1119,한파쉼터
송파2동 주민센터,서울특별시 송파구 송이로 32,37.502301,127.1167386,한파쉼터
오봉산경로당,서울특별시 송파구 석촌호수로20길 13,37.50613,127.1022924,한파쉼터
돌마리경로당,서울특별시 송파구 가락로7길 4,37.5006205,127.1032652,한파쉼터
석촌동 주민센터,서울특별시 송파구 백제고분로37길 16,37.5035646,127.1036855,한파쉼터
석촌경로당,서울특별시 송파구 백제고분로40길 13-16 ,37.503554,127.1074493,한파쉼터
송파노인종합복지관,서울특별시 송파구 백제고분로32길 41,37.4987229,127.0948997,한파쉼터
삼전제1경로당,서울특별시 송파구 백제고분로32길 6-30 ,37.501819,127.0933199,한파쉼터
삼전제2경로당,서울특별시 송파구 백제고분로27길 40-24 ,37.5062924,127.095305,한파쉼터
삼전동 주민센터,서울특별시 송파구 백제고분로 236,37.502701,127.0924205,한파쉼터
가락본경로당,서울특별시 송파구 양재대로62길 32-13 ,37.4966331,127.1190412,한파쉼터
훙이경로당,서울특별시 송파구 송이로17길 48,37.501198,127.1247534,한파쉼터
건너말경로당,서울특별시 송파구 중대로10길 29,37.4916391,127.1234932,한파쉼터
가락본동 주민센터,서울특별시 송파구 송파대로28길 39,37.4955755,127.1217594,한파쉼터
가락1동 주민센터,서울특별시 송파구 양재대로 925,37.4965083,127.1098699,한파쉼터
개롱경로당,서울특별시 송파구 동남로14길 17-46 ,37.493159,127.133221,한파쉼터
가락골경로당,서울특별시 송파구 송이로23길 16-28 ,37.4947674,127.1257695,한파쉼터
샛팽이경로당,서울특별시 송파구 오금로42길 15,37.4967963,127.1339413,한파쉼터
가락2동 주민센터,서울특별시 송파구 중대로20길 6,37.4986768,127.1266084,한파쉼터
연화경로당,서울특별시 송파구 송파대로14길 7,37.4836576,127.1249447,한파쉼터
문정경로당,서울특별시 송파구 동남로6나길 3-6 ,37.4886336,127.1255014,한파쉼터
문정1동 주민센터,서울특별시 송파구 동남로 116,37.490073,127.1241831,한파쉼터
문정2동 주민센터,서울특별시 송파구 중대로 16,37.4898724,127.1108806,한파쉼터
장지경로당,서울특별시 송파구 새말로10길 3-16 ,37.4824785,127.1283131,한파쉼터
잔버들경로당,서울특별시 송파구 새말로15길 9,37.4854979,127.1290239,한파쉼터
장지동 주민센터,서울특별시 송파구 새말로19길 6,37.486955,127.1324191,한파쉼터
위례동 주민센터,서울특별시 송파구 위례광장로 210,37.481153,127.1439239,한파쉼터
신천경로당,서울특별시 송파구 석촌호수로12길 1-17 ,37.5084235,127.0865606,한파쉼터
잠전경로당,서울특별시 송파구 백제고분로15길 7,37.5062343,127.0841816,한파쉼터
잠실본동 주민센터,서울특별시 송파구 백제고분로 145,37.5061,127.0831,한파쉼터
신잠실경로당,서울특별시 송파구 백제고분로18길 20-36 ,37.503913,127.082262,한파쉼터
잠실2동 주민센터,서울특별시 송파구 올림픽로 159,37.5118914,127.0885406,한파쉼터
잠실3동 주민센터,서울특별시 송파구 잠실로 51-29 ,37.5132997,127.0943742,한파쉼터
잠실4동 주민센터,서울특별시 송파구 올림픽로35길 12,37.5201332,127.1122216,한파쉼터
송파구청,서울특별시 송파구 올림픽로 326,37.5145241,127.1059388,한파쉼터
잠실6동 주민센터,서울특별시 송파구 올림픽로35길 120,37.518096,127.100627,한파쉼터
잠실7동 주민센터,서울특별시 송파구 올림픽로4길 17,37.5087448,127.0772764,한파쉼터
강일동주민센터,서울특별시 강동구 아리수로93길 9-14 ,37.5650129,127.1739677,한파쉼터
상일1동 제2경로당,서울특별시 강동구 상암로 413,37.5457707,127.1687241,한파쉼터
게내경로당,서울특별시 강동구 천호대로219길 72,37.5489836,127.1710813,한파쉼터
상일동경로당,서울특별시 강동구 상일로5길 26,37.5492728,127.1714689,한파쉼터
상일1동주민센터,서울특별시 강동구 구천면로 633,37.5505955,127.1682581,한파쉼터
상일2동 주민센터,,37.5551447,127.1797442,한파쉼터
명일1동경로당,서울특별시 강동구 양재대로138길 29,37.54994,127.1456071,한파쉼터
샘물경로당,서울특별시 강동구 천중로49길 104,37.5452631,127.1447154,한파쉼터
명일1동주민센터,서울특별시 강동구 양재대로 1634,37.5514,127.1442,한파쉼터
원터골경로당,서울특별시 강동구 동남로65길 46-8 ,37.5481638,127.1536699,한파쉼터
명일2동주민센터,서울특별시 강동구 상암로 260,37.5463648,127.1513532,한파쉼터
고일경로당,서울특별시 강동구 아리수로64길 29,37.5608641,127.1537729,한파쉼터
고덕1동주민센터,서울특별시 강동구 양재대로156길 123,37.5572811,127.1515066,한파쉼터
고덕2동경로당,서울특별시 강동구 상일로21길 14-7 ,37.5600389,127.1694942,한파쉼터
고덕2동주민센터,서울특별시 강동구 아리수로78길 43-12 ,37.5605075,127.1643569,한파쉼터
방죽말경로당,서울특별시 강동구 아리수로72길 60-16 ,37.5616522,127.1627522,한파쉼터
암사1동제1경로당,서울특별시 강동구 구천면로59길 19,37.5507745,127.1379406,한파쉼터
장생경로당,서울특별시 강동구 상암로23길 7-10 ,37.5480222,127.1337938,한파쉼터
암사1동제3경로당,서울특별시 강동구 암사13길 13-3 ,37.5525923,127.1367444,한파쉼터
암사1동제2경로당,서울특별시 강동구 고덕로24길 23,37.5536386,127.1357187,한파쉼터
복지말경로당,서울특별시 강동구 고덕로16길 46,37.5526038,127.1329555,한파쉼터
새장터경로당,서울특별시 강동구 암사1가길 16,37.5521271,127.1305781,한파쉼터
강암경로당,서울특별시 강동구 상암로15길 38-15 ,37.5504568,127.1320645,한파쉼터
암사1동주민센터,서울특별시 강동구 올림픽로98가길 57,37.5514797,127.1326412,한파쉼터
암사2동제2경로당,서울특별시 강동구 상암로 12-19 ,37.5500207,127.1255454,한파쉼터
암사2동주민센터,서울특별시 강동구 상암로3길 28,37.5517055,127.1272729,한파쉼터
구암경로당,서울특별시 강동구 고덕로 109,37.555,127.1375,한파쉼터
서원마을경로당,서울특별시 강동구 올림픽로 936,37.5640064,127.1333787,한파쉼터
암사3동주민센터,서울특별시 강동구 고덕로 137,37.554995,127.1407822,한파쉼터
천호1동경로당,서울특별시 강동구 구천면로36길 9-4 ,37.5429385,127.1324178,한파쉼터
십자성경로당,서울특별시 강동구 상암로28길 24,37.5450771,127.1370663,한파쉼터
소망경로당,서울특별시 강동구 구천면로68나길 18,37.5485031,127.1417025,한파쉼터
천호1동주민센터,서울특별시 강동구 구천면로42길 59,37.5450202,127.1367984,한파쉼터
해공경로당,서울특별시 강동구 천중로12길 23-23 ,37.5438117,127.1284059,한파쉼터
천호문구거리경로당,서울특별시 강동구 구천면로18길 24,37.5406534,127.1225878,한파쉼터
곡교경로당,서울특별시 강동구 구천면로39길 23,37.5454043,127.1318383,한파쉼터
쉼터경로당,서울특별시 강동구 올림픽로89길 27-23 ,37.5468002,127.124087,한파쉼터
천호2경로당,서울특별시 강동구 구천면로13길 21,37.5429708,127.1225191,한파쉼터
천호2동주민센터,,37.5424981,127.1283817,한파쉼터
천호3동(여)경로당,,37.5397844,127.1298122,한파쉼터
구사거리경로당,서울특별시 강동구 천호대로161길 21,37.5382,127.1289,한파쉼터
당말경로당,서울특별시 강동구 성안로31길 11,37.540336,127.1359797,한파쉼터
천삼경로당,서울특별시 강동구 진황도로 13,37.5399039,127.1292171,한파쉼터
천호3동주민센터,,37.5397929,127.1297801,한파쉼터
강동구청,서울특별시 강동구 성내로 25,37.5302636,127.1237964,한파쉼터
성내천경로당,서울특별시 강동구 성안로3길 112-9 ,37.5285136,127.1240386,한파쉼터
성내1동경로당,서울특별시 강동구 성내로3가길 71,37.5294516,127.1265382,한파쉼터
성내1동주민센터,서울특별시 강동구 성내로 13,37.5304794,127.122458,한파쉼터
성내2동경로당,서울특별시 강동구 올림픽로62길 35,37.5365389,127.1248032,한파쉼터
안말경로당,서울특별시 강동구 풍성로45길 11,37.5314585,127.129927,한파쉼터
성내2동주민센터,서울특별시 강동구 풍성로37가길 62,37.5324028,127.129566,한파쉼터
선린공원경로당,서울특별시 강동구 양재대로91나길 14,37.528,127.1323,한파쉼터
성내3동제2경로당,서울특별시 강동구 양재대로85길 59,37.5247179,127.1313132,한파쉼터
성내3동제1경로당,서울특별시 강동구 양재대로97길 41,37.5313526,127.1347868,한파쉼터
성내3동주민센터,서울특별시 강동구 강동대로53길 76,37.5260424,127.1328857,한파쉼터
성심경로당,서울특별시 강동구 천중로40길 66,37.5383161,127.1373927,한파쉼터
달님 경로당,서울특별시 강동구 양재대로112길 52,37.53619,127.14254,한파쉼터
길동주민센터,서울특별시 강동구 천호대로 1183,37.53466,127.1426082,한파쉼터
무궁화경로당,서울특별시 강동구 양재대로124길 62,37.5423718,127.1454023,한파쉼터
기리울경로당,서울특별시 강동구 명일로 224-1 ,37.5386041,127.1466939,한파쉼터
둔촌1동 주민센터,,37.5234466,127.1366787,한파쉼터
선린경로당,서울특별시 강동구 명일로10나길 5,37.5315248,127.1446029,한파쉼터
약수경로당,서울특별시 강동구 진황도로 150-8 ,37.5327943,127.1408627,한파쉼터
둔촌2동주민센터,서울특별시 강동구 천호대로186길 7,37.5333444,127.1419499,한파쉼터
둔촌2동경로당,서울특별시 강동구 천호대로188길 39,37.53228,127.14322,한파쉼터
