대피소명,주소,위도,경도,유형
CU 논현역드림점,강남구 강남대로 570,37.51284,127.02096,기후동행쉼터
GS25 GS25개포럭키점,강남구 개포로20길 12,37.47794,127.04726,기후동행쉼터
GS25 GS25도곡신호점,"강남구 도곡로 184, 1층 101호",37.49171,127.03974,기후동행쉼터
GS25 GS25역삼홍인점,"강남구 봉은사로30길 43, 지하1층",37.50475,127.03624,기후동행쉼터
CU 타워팰리스점,"강남구 언주로30길 56, 상가시설내 104",37.48863,127.05408,기후동행쉼터
GS25 GS25DXLAB점,"강남구 테헤란로 223, 1층 101호",37.50242,127.04067,기후동행쉼터
CU 역삼점,강남구 테헤란로51길 10,37.50479,127.04699,기후동행쉼터
CU BGF사옥점,강남구 테헤란로63길 9,37.50579,127.05011,기후동행쉼터
GS25 GS25강남동원점,강남구 테헤란로77길 7,37.50693,127.0545,기후동행쉼터
CU 성내시네마점,강동구 올림픽로62길 23 1층 CU,37.53656,127.12415,기후동행쉼터
GS25 GS25발산행복점,"강서구 강서로50길 16, 1층",37.55516,126.83814,기후동행쉼터
GS25 GS25염창행복점,"강서구 공항대로81길 35, 1층 103호",37.54876,126.87598,기후동행쉼터
GS25 GS25강서퍼스트점,"강서구 마곡중앙2로 35, 상가 105호, 106호",37.55799,126.83062,기후동행쉼터
CU 방화리치점,강서구 방화동로 107,37.56996,126.81261,기후동행쉼터
GS25 GS25발산사랑점,"강서구 우장산로2길 21, 1층",37.5538,126.83766,기후동행쉼터
서울특별시교육청학생교육원글로벌문화언어체험교육원(지하1층,"경기도 가평군 가평읍 불기산길 88, 서울특별시학생교육원가평교육원",37.80238,127.47019,민방위대피시설
CU 관악푸른점,관악구 낙성대역길 61,37.47525,126.96249,기후동행쉼터
GS25 GS25더관악점,"관악구 남부순환로 1599-3, 1층",37.48452,126.92826,기후동행쉼터
CU 관악우체국점,관악구 남부순환로187길 9,37.48527,126.93337,기후동행쉼터
CU 관악인헌길점,관악구 인헌12길 42 태양빌라 1층 CU,37.47077,126.96504,기후동행쉼터
CU 자양차이나점,광진구 뚝섬로23가길 17 1층 CU,37.53803,127.0654,기후동행쉼터
GS25 GS25고척사랑점,"구로구 경인로47다길 8, 1층 101호",37.50341,126.86415,기후동행쉼터
CU 상계불암점,노원구 덕릉로94길 21 상계불암대림아파트 1층 CU,37.66355,127.07663,기후동행쉼터
GS25 GS25월계성북역점,노원구 석계로 103,37.62288,127.06072,기후동행쉼터
CU 중계주공3&4단지점,노원구 한글비석로 325 1층 CU,37.65643,127.07772,기후동행쉼터
CU 방학삼익점,도봉구 도당로 36 1층 CU,37.66122,127.03501,기후동행쉼터
CU 도봉무수골점,도봉구 도봉로173길 40,37.67965,127.04153,기후동행쉼터
CU 창동그랜드점,도봉구 해등로 119,37.6542,127.04058,기후동행쉼터
CU 답십리점,동대문구 답십리동 서울시립대로2길 60,37.57254,127.04895,기후동행쉼터
CU 전농우성점,"동대문구 사가정로 190, 상가",37.57808,127.06638,기후동행쉼터
CU 장안관광호텔점,동대문구 천호대로 377,37.56233,127.06099,기후동행쉼터
CU 군자초교점,동대문구 천호대로77길 22 1층 CU,37.56313,127.06139,기후동행쉼터
CU CU상도삼호점,동작구 상도로 407-5 삼호아파트 상가동 지하1층 101호,37.49326,126.95663,기후동행쉼터
CU 마포센트럴점,마포구 대흥로24길 7,37.55447,126.94645,기후동행쉼터
CU 마포아이비점,마포구 서강로 136,37.55411,126.9358,기후동행쉼터
CU 홍대상상점,마포구 잔다리로 25,37.55085,126.92007,기후동행쉼터
CU 서대문센트럴점,서대문구 이화여대8길 62,37.55965,126.9499,기후동행쉼터
GS25 GS25홍은중앙로점,"서대문구 홍은중앙로 115, 1층",37.60073,126.94876,기후동행쉼터
KT olleh plaza 양재점,서울 강남구 남부순환로 2653 kt 양재지점 1층 kt 플라자 양재점,37.48586,127.04033,기후동행쉼터
KT 300텔레콤_대치역점,서울 강남구 남부순환로 2927 대치클래시아 106호,37.49364,127.06038,기후동행쉼터
신한은행 청담동,서울 강남구 도산대로 506,37.52394,127.04824,기후동행쉼터
KT M&S선릉사거리애드샵직영점,서울 강남구 선릉로 515 1층,37.50544,127.04824,기후동행쉼터
신한은행 압구정갤러리아,서울 강남구 압구정로 344,37.5277,127.03985,기후동행쉼터
KT olleh plaza 강남점,서울 강남구 언주로 517 kt 강남지점 1층 kt 플라자 강남점,37.50428,127.04154,기후동행쉼터
신한은행 무역센터금융센터,서울 강남구 영동대로 513,37.51202,127.05904,기후동행쉼터
신한은행 삼성서울병원,서울 강남구 일원로 81,37.48852,127.08667,기후동행쉼터
KT M&S강남역직영점,서울 강남구 테헤란로 120 강남역 1번출구 국기원사거리,37.49859,127.03086,기후동행쉼터
KT 엔케이씨_역삼역점,서울 강남구 테헤란로 139-1 1층,37.50044,127.03447,기후동행쉼터
KT M&S KT플라자 선릉역점,서울 강남구 테헤란로 421 1층 101호,37.506,127.05254,기후동행쉼터
신한은행 강남구청,서울 강남구 학동로 426,37.51732,127.04739,기후동행쉼터
신한은행 고덕동,서울 강동구 고덕로 353,37.55724,127.16468,기후동행쉼터
KT 300텔레콤_상일역점,"서울 강동구 고덕로 385 4상가 ,kt매장",37.55737,127.16843,기후동행쉼터
KT 더킹컴퍼니_강일리버파크점,"서울 강동구 아리수로93길 9 106, 107호 ,kt매장",37.56525,127.17438,기후동행쉼터
KT (주)투유텔레콤_성내점,서울 강동구 양재대로 1339,37.52595,127.13501,기후동행쉼터
KT olleh plaza 강동점,"서울 강동구 양재대로 1462, 남양빌딩 1~2층 kt 플라자 강동점",37.53623,127.13978,기후동행쉼터
신한은행 굽은다리역,서울 강동구 양재대로 1568,37.54539,127.14321,기후동행쉼터
KT (주)투유텔레콤_명일역점,"서울 강동구 양재대로 1624 1층,kt매장",37.5504,127.14412,기후동행쉼터
KT M&S천호직영점,"서울 강동구 올림픽로 660 1층, kt매장",37.54018,127.12456,기후동행쉼터
KT 대박통신_암사역점,"서울 강동구 올림픽로 780 1층,kt매장",37.55061,127.12798,기후동행쉼터
KT M&S길동사거리직영점,"서울 강동구 천호대로 1128, kt매장",37.53417,127.13653,기후동행쉼터
KT (주)에이치커넥션 미아역점,서울 강북구 도봉로 178 1층 KT,37.62472,127.02716,기후동행쉼터
KT (주)지오컴퍼니 수유시장점,서울 강북구 도봉로 251,37.63091,127.024,기후동행쉼터
KT (주)피앤월드 수유역점,서울 강북구 도봉로 334 1층,37.63755,127.02554,기후동행쉼터
KT (주)세븐업_경기북부_수유역점,서울 강북구 도봉로 339 1층,37.6382,127.02543,기후동행쉼터
KT M&S수유직영점,서울 강북구 도봉로 342 1층 KT,37.63803,127.02612,기후동행쉼터
KT (주)일등통신_수유점,"서울 강북구 도봉로 363, kt매장",37.63994,127.02726,기후동행쉼터
KT (주)지오컴퍼니 미아사거리역점,서울 강북구 도봉로 53 1층 KT,37.61382,127.02961,기후동행쉼터
KT (주)영진랜드 수유역점,서울 강북구 도봉로89길 1 1층,37.63891,127.0261,기후동행쉼터
신한은행 강북구청,서울 강북구 도봉로89길 13,37.63969,127.0257,기후동행쉼터
KT olleh plaza 강북점,서울 강북구 솔매로50길 43 kt 강북지점 1층 kt 플라자 강북점,37.62456,127.02808,기후동행쉼터
KT M&S삼양로직영점,"서울 강북구 솔샘로 260 상가, kt매장",37.6192,127.02143,기후동행쉼터
KT (주)피앤월드 미아사거리점,서울 강북구 숭인로 75 1층 KT,37.61242,127.02989,기후동행쉼터
KT 솔트네트워크_화곡중앙점,서울 강서구 가로공원로76길 56 1층 KT,37.53454,126.83782,기후동행쉼터
KT M&S우장산역직영점,서울 강서구 강서로 251 1층,37.54812,126.83602,기후동행쉼터
KT M&S까치산역직영점,서울 강서구 강서로 47,37.53191,126.84627,기후동행쉼터
KT 영웅앤제이_까치산역점,서울 강서구 강서로16길 1,37.5327,126.8465,기후동행쉼터
KT 연세컴퍼니_우장산역점,서울 강서구 강서로45길 9 1층 우장산역,37.54774,126.83563,기후동행쉼터
KT olleh plaza 강서점,서울 강서구 강서로5길 64 kt 강서지점 1층 kt 플라자 강서점,37.52942,126.84848,기후동행쉼터
KT 한백이동통신 마곡점,서울 강서구 공항대로 168 747 110,37.55925,126.82614,기후동행쉼터
신한은행 마곡역금융센터,서울 강서구 공항대로 195,37.55992,126.82914,기후동행쉼터
KT 한백이동통신_송정역점,서울 강서구 공항대로 24 1층 송정역 4번출구 50 M,37.56117,126.80996,기후동행쉼터
신한은행 이대서울병원,서울 강서구 공항대로 260,37.55724,126.83627,기후동행쉼터
KT 한백이동통신 발산파크점,서울 강서구 공항대로 261,37.55914,126.8365,기후동행쉼터
KT 씨엔에프텔레콤 등촌점,서울 강서구 공항대로41길 65 그랜드종합 상가 1층,37.56073,126.84607,기후동행쉼터
KT 연세컴퍼니_방화역점,서울 강서구 금낭화로 135 1층 107호 108호,37.57752,126.81247,기후동행쉼터
KT 연세컴퍼니_목동사거리점,서울 강서구 등촌로 25,37.53219,126.86354,기후동행쉼터
KT M&S마곡나루역직영점,"서울 강서구 마곡중앙5로1길 20 107호 108호, kt매장",37.56873,126.82672,기후동행쉼터
KT 한백이동통신 공항시장역점,서울 강서구 방화동로 35,37.56404,126.81067,기후동행쉼터
신한은행 양천향교역,서울 강서구 양천로 344,37.56832,126.84027,기후동행쉼터
KT M&S가양역직영점,서울 강서구 양천로 460 1층 KT매장,37.56255,126.85173,기후동행쉼터
KT 일등텔레콤 화곡역점,서울 강서구 화곡로 157 103호 일부,37.54158,126.83911,기후동행쉼터
KT M&S화곡역직영점,서울 강서구 화곡로 164 1층 KT매장,37.54125,126.83989,기후동행쉼터
KT 한백이동통신 본동시장점,서울 강서구 화곡로 206 김대근한의원 1층 3호,37.54376,126.84365,기후동행쉼터
KT 영웅앤제이 가양역점,서울 강서구 화곡로 402 1층 가양역 홈플러스옆,37.55913,126.85436,기후동행쉼터
KT M&S서울대직영점,서울 관악구 관악로 198 1층 KT매장,37.48255,126.95398,기후동행쉼터
KT 인성피플스_신림역점,서울 관악구 남부순환로 1604 1층,37.48393,126.92893,기후동행쉼터
KT 와이씨 녹두미림점,서울 관악구 대학길 16 1층 KT매장,37.47004,126.9379,기후동행쉼터
KT M&S당곡역직영점,"서울 관악구 봉천로 212, kt매장",37.48963,126.92508,기후동행쉼터
KT M&S신림직영점,서울 관악구 신림로 360-1 1층 KT매장,37.48649,126.92946,기후동행쉼터
KT M&S관악구청직영점,서울 관악구 쑥고개로 139,37.47888,126.95202,기후동행쉼터
KT olleh plaza 구로점,서울 관악구 조원중앙로1길 26 kt 구로지점 1층 kt 플라자 구로점,37.48106,126.90356,기후동행쉼터
KT olleh plaza 관악점,서울 관악구 청룡1길 34 kt 관악지점 1층 kt 플라자 관악점,37.48096,126.94843,기후동행쉼터
KT (주)거성크루_세종대점,서울 광진구 광나루로 366-1,37.54783,127.07051,기후동행쉼터
GS25 GS25건국점,서울 광진구 광나루로24길 14,37.54565,127.07625,기후동행쉼터
KT 모바일라운지_화양점,"서울 광진구 군자로 76 , kt매장",37.54996,127.07109,기후동행쉼터
KT 모바일라운지_건대점,서울 광진구 능동로 123 1층 일부,37.54204,127.07134,기후동행쉼터
KT (주)거성크루_건대랜드마크점,서울 광진구 능동로 91 1층,37.53926,127.07004,기후동행쉼터
KT (주)거성크루_건대역점,서울 광진구 동일로20길 72 무궁화공예문화교실,37.54022,127.06751,기후동행쉼터
KT M&S자양번영로직영점,서울 광진구 뚝섬로 590 1층 KT,37.53314,127.07529,기후동행쉼터
KT 모바일라운지_건대스타시티점,"서울 광진구 아차산로 272 104호, B1층",37.53841,127.07319,기후동행쉼터
KT 탑클래스 모바일_구의역점,서울 광진구 아차산로 380,37.53662,127.085,기후동행쉼터
KT 모바일라운지_구의역점,"서울 광진구 아차산로 401 1층, kt매장",37.53764,127.08726,기후동행쉼터
KT L&C 컴퍼니_광장점,서울 광진구 아차산로 537-17 11호,37.54316,127.10022,기후동행쉼터
KT 올웨이_아차산점,서울 광진구 용마산로 60 1층 KT,37.55892,127.0879,기후동행쉼터
KT 올웨이_중곡점,서울 광진구 천호대로 655,37.5526,127.08972,기후동행쉼터
KT 올웨이_광나루역점,"서울 광진구 천호대로 808, kt매장",37.54508,127.10281,기후동행쉼터
KT 올웨이_군자점,서울 광진구 천호대로111길 10,37.55679,127.08228,기후동행쉼터
KT 이루리_구로점,서울 구로구 가마산로 285 101호,37.4971,126.89169,기후동행쉼터
KT olleh plaza 개봉점,서울 구로구 개봉로6길 12-5 kt 개봉지점 1층 kt 플라자 개봉점,37.48685,126.85719,기후동행쉼터
신한은행 구로역금융센터,서울 구로구 경인로 557,37.50312,126.87902,기후동행쉼터
KT 친절텔레콤 신도림점,서울 구로구 경인로 661 107호,37.50966,126.88799,기후동행쉼터
KT 솔트네트워크_오류동역점,서울 구로구 경인로20길 10 1층 KT매장,37.49531,126.84369,기후동행쉼터
KT 솔트네트워크_개봉역프라자점,서울 구로구 경인로40길 47 105-106호,37.49452,126.85912,기후동행쉼터
KT 화이트정보통신_구로시장점,서울 구로구 도림로 69 1층 코너매장,37.48963,126.89105,기후동행쉼터
KT M&S구로디지털직영점,서울 구로구 디지털로34길 55 1층,37.48435,126.89929,기후동행쉼터
KT (주)예스모바일_구로디지털단지역점,서울 구로구 시흥대로 577,37.48439,126.90227,기후동행쉼터
KT 화이트정보통신_가산역점,서울 금천구 벚꽃로 298 1층 108호 KT,37.4814,126.88389,기후동행쉼터
KT 다움 시흥사거리점,서울 금천구 시흥대로 236 와이즈플레이스 1동 101호,37.45499,126.901,기후동행쉼터
KT (주)예스모바일_ 독산씨티렉스,서울 금천구 시흥대로 399,37.46941,126.89687,기후동행쉼터
KT 혜성아이앤씨 공릉점,"서울 노원구 공릉로 192, kt매장",37.62705,127.07911,기후동행쉼터
KT (주)지오컴퍼니 광운대역점,서울 노원구 광운로 66 1층 101,37.62313,127.06031,기후동행쉼터
KT (주)세븐업_경기북부_노원역점,서울 노원구 노해로 488 102호 KT 매장,37.65434,127.06217,기후동행쉼터
KT (주)피앤월드 노원역점,서울 노원구 노해로 495 1층 KT,37.65513,127.0631,기후동행쉼터
KT olleh plaza 노원점,서울 노원구 노해로 502 kt 노원지점 1층 kt 플라자 노원점,37.65445,127.06375,기후동행쉼터
KT (주)세븐업_경기북부_공릉역점,서울 노원구 동일로 1077 1층,37.62605,127.07244,기후동행쉼터
KT M&S노원역직영점,서울 노원구 동일로 1382 1층 KT매장,37.65199,127.06156,기후동행쉼터
KT (주)에이치커넥션 노원역점,서울 노원구 동일로 1390 1층 KT,37.65272,127.06152,기후동행쉼터
KT 디액션_노원역점,서울 노원구 동일로 1401 103호,37.65355,127.06039,기후동행쉼터
KT (주)지오컴퍼니 마들역점,서울 노원구 동일로 1538 상계12단지종합 상가 105호,37.66582,127.05791,기후동행쉼터
KT (주)지오컴퍼니 수락산역점,서울 노원구 동일로 1673,37.6779,127.05494,기후동행쉼터
KT M&S중계아울렛직영점,"서울 노원구 동일로204가길 34 1층, kt매장",37.64075,127.06817,기후동행쉼터
KT (주)피앤월드 노원2호점,서울 노원구 상계로 69 1층 KT,37.65644,127.06267,기후동행쉼터
KT XCIX 은행사거리본점,서울 노원구 한글비석로 245 1층,37.64926,127.07636,기후동행쉼터
KT M&S상계역직영점,"서울 노원구 한글비석로20길 23-16, kt매장",37.66049,127.07373,기후동행쉼터
KT (주)지오컴퍼니 석계역점,서울 노원구 화랑로 335 1층 102호,37.6151,127.06498,기후동행쉼터
KT (주)애니킹_석계역점,서울 노원구 화랑로 353 푸른치과의원건물 1층,37.61548,127.06704,기후동행쉼터
KT (주)에이치커넥션 창동본점,서울 도봉구 노해로63길 84,37.65277,127.04658,기후동행쉼터
KT 디액션_신창시장점,서울 도봉구 덕릉로 239 1층 1호,37.63916,127.03825,기후동행쉼터
KT 진서정보통신_방학도깨비시장점,서울 도봉구 도당로13길 9,37.66514,127.03558,기후동행쉼터
KT (주)지오컴퍼니 쌍문역점,서울 도봉구 도봉로 475-1,37.64831,127.03413,기후동행쉼터
KT (주)피앤월드 쌍문역점,서울 도봉구 도봉로 476 쉐르빌퍼스티 1층 104호 KT,37.64788,127.03476,기후동행쉼터
KT (주)에이치커넥션 방학역점,서울 도봉구 도봉로 689,37.666,127.04263,기후동행쉼터
KT olleh plaza 도봉점,서울 도봉구 도봉로110길 25 kt 도봉지점 1층 kt 플라자 도봉점,37.64641,127.03489,기후동행쉼터
KT (주)지오컴퍼니 방학점,서울 도봉구 도봉로153길 29,37.66988,127.04176,기후동행쉼터
KT (주)에이치커넥션 창동역점,서울 도봉구 마들로11길 71 1층 103호 104호,37.65334,127.04933,기후동행쉼터
KT (주)피앤월드 쌍문1호점,서울 도봉구 해등로 190 제116 117호,37.6585,127.03601,기후동행쉼터
KT (주)피앤월드 쌍문2호점,서울 도봉구 해등로 198 1층 KT,37.65835,127.03491,기후동행쉼터
KT (주)거성크루_경희대삼거리점,"서울 동대문구 경희대로 1 1층, kt매장",37.59175,127.0521,기후동행쉼터
KT 제이엠커뮤니케이션_휘경점,서울 동대문구 망우로 46 401동 1103호 KT 매장,37.58859,127.05825,기후동행쉼터
KT (주)리테일앤컴퍼니_전농점,서울 동대문구 사가정로 122 1층 102호,37.5772,127.05852,기후동행쉼터
KT 헤븐텔레콤_안암오거리점,서울 동대문구 약령시로 2-1,37.58237,127.03028,기후동행쉼터
신한은행 장안동,서울 동대문구 장한로 119,37.57144,127.07013,기후동행쉼터
KT 탑클래스 모바일 장한평역점,서울 동대문구 장한로 3 1층 KT매장,37.56214,127.06458,기후동행쉼터
KT 모바일라운지_장안동사거리점,서울 동대문구 장한로25길 2 1층 KT 매장,37.5719,127.07112,기후동행쉼터
KT (주)이지스컴_답십리점,"서울 동대문구 전농로 102 , kt매장",37.57393,127.05783,기후동행쉼터
KT 뉴미닝_신설동역점,서울 동대문구 한빛로 1 1층 101호 KT,37.57626,127.02382,기후동행쉼터
KT 탑클래스 모바일_청량리점,서울 동대문구 홍릉로 6-1 1층 KT,37.58089,127.04523,기후동행쉼터
KT M&S외대역직영점,서울 동대문구 휘경로 7 1층,37.59628,127.06105,기후동행쉼터
KT 화이트정보통신_사당점,서울 동작구 남부순환로 2061 KT매장,37.47689,126.97781,기후동행쉼터
KT 인성피플스_노량진역점,서울 동작구 노량진로 150 1층,37.51349,126.94259,기후동행쉼터
KT M&S노량진직영점,서울 동작구 노량진로 162 1층 KT,37.51339,126.94396,기후동행쉼터
KT 홍익텔레콤_이수점,서울 동작구 동작대로 107 덕산건물 1층,37.48621,126.98183,기후동행쉼터
KT M&S이수역직영점,서울 동작구 동작대로 127 1층 KT매장,37.48792,126.98195,기후동행쉼터
KT 홍익텔레콤_신대방삼거리점,서울 동작구 상도로 82 101호,37.49945,126.92971,기후동행쉼터
KT 피앤에프 대림삼거리점,서울 동작구 시흥대로 658 102호,37.49037,126.90808,기후동행쉼터
KT (주)내외정보통신_아현역점,서울 마포구 굴레방로 13 1층,37.55527,126.95562,기후동행쉼터
KT (주)일등통신_마포역점,서울 마포구 마포대로 53 113호,37.54143,126.94705,기후동행쉼터
KT 하이팀_망원시장점,"서울 마포구 망원로 81, kt매장",37.55767,126.90583,기후동행쉼터
신한은행 공덕금융센터,서울 마포구 백범로 192,37.54324,126.95161,기후동행쉼터
KT M&S신촌역직영점,서울 마포구 백범로 3 신촌역 6번출구 서강대방향 M 30 1층 KT,37.5544,126.9372,기후동행쉼터
KT 햇빛모바일_신촌현대점 ,서울 마포구 신촌로 90 1층 KT,37.55531,126.93554,기후동행쉼터
KT (주)더블이에이치_합정메세나점,"서울 마포구 양화로 45 메세나폴리스 상가 지하1층 B148호, kt매장",37.55076,126.9142,기후동행쉼터
KT HJY합정역2호점,"서울 마포구 양화로 52, kt매장",37.54968,126.91467,기후동행쉼터
KT M&S홍대애드샵플러스직영점,"서울 마포구 양화로18길 3 , kt매장",37.55703,126.92457,기후동행쉼터
신한은행 홍익대학교,서울 마포구 와우산로 94,37.55291,126.92525,기후동행쉼터
신한은행 합정역,서울 마포구 월드컵로3길 14,37.55104,126.91234,기후동행쉼터
KT M&S상암애드샵직영점,서울 마포구 월드컵북로 396 1층 104호,37.57943,126.88978,기후동행쉼터
KT ㈜더블이에이치_상암푸르지오시티점,"서울 마포구 월드컵북로54길 25 1층 106호, kt매장",37.58193,126.88958,기후동행쉼터
신한은행 남가좌동,서울 서대문구 수색로 56,37.57091,126.91225,기후동행쉼터
KT HJY이대역점,서울 서대문구 이화여대길 33 1층 KT,37.55844,126.94562,기후동행쉼터
KT M&S명지대사거리직영점,서울 서대문구 증가로 144 1층,37.57776,126.92162,기후동행쉼터
KT 레이시트_서대문역점,서울 서대문구 통일로 137 1층,37.5667,126.96545,기후동행쉼터
KT HJY홍제역점,서울 서대문구 통일로 435-2 1층,37.58785,126.94492,기후동행쉼터
KT HJY홍제역2호점,서울 서대문구 통일로 450 홍제역 12번 출구 사이 상가주택,37.58898,126.94429,기후동행쉼터
신한은행 강남대로,서울 서초구 강남대로 327,37.49206,127.0298,기후동행쉼터
KT M&S강남대로직영점,서울 서초구 강남대로 359 1층 101호,37.49484,127.02859,기후동행쉼터
KT M&S신논현직영점,서울 서초구 강남대로 495,37.5063,127.02319,기후동행쉼터
신한은행 서초구청,서울 서초구 남부순환로 2584,37.4836,127.0326,기후동행쉼터
KT M&S KT플라자 사당점,서울 서초구 동작대로 22 1층,37.4784,126.9822,기후동행쉼터
KT M&S양재시민의숲직영점,"서울 서초구 마방로2길 94 1층, kt매장",37.46947,127.03982,기후동행쉼터
KT M&S교대역직영점,서울 서초구 서초대로 286 1층 103호,37.49318,127.01305,기후동행쉼터
KT (주)만리장성_고속터미널역점,"서울 서초구 신반포로 189 1층, kt매장",37.5066,127.00494,기후동행쉼터
신한은행 반포중앙,서울 서초구 잠원로3길 40,37.50825,127.00364,기후동행쉼터
KT olleh plaza 서초점,서울 서초구 효령로 174 ktds빌딩 1층 kt 플라자 서초점,37.48178,127.00296,기후동행쉼터
KT (주)일등통신_행당점,서울 성동구 고산자로 207 무학산부인과 1층 KT,37.55865,127.03374,기후동행쉼터
신한은행 성동구청,서울 성동구 고산자로 270,37.56343,127.03691,기후동행쉼터
KT (주)리테일앤컴퍼니_신금호역점,서울 성동구 금호로 150-1 1층,37.55445,127.02048,기후동행쉼터
KT M&S금호동직영점,서울 성동구 독서당로 302 1층 KT,37.54757,127.0227,기후동행쉼터
KT 올웨이_한양대점,서울 성동구 마조로 30 한양대병원후문 1층 KT,37.56037,127.04147,기후동행쉼터
신한은행 뚝섬역금융센터,서울 성동구 아차산로 33,37.54721,127.04833,기후동행쉼터
KT 올웨이_상왕십리점,서울 성동구 왕십리로 410 L동 B1층 107호,37.5654,127.02528,기후동행쉼터
KT 제이엠커뮤니케이션_답십리점,서울 성동구 용답중앙15길 12-1,37.56442,127.05386,기후동행쉼터
KT 제이엠커뮤니케이션_금호역점,서울 성동구 장터길 9,37.54856,127.01688,기후동행쉼터
KT 나이스드림 안암역점,서울 성북구 고려대로 91-1,37.58644,127.02963,기후동행쉼터
KT (주)거인통신_길음역점,서울 성북구 길음로 11 128호 상가,37.60379,127.02344,기후동행쉼터
KT (주)거인통신_길음뉴타운점,서울 성북구 길음로 33 상가 B동 지층 1호 올레매장 1층,37.60827,127.01911,기후동행쉼터
KT M&S한성대직영점,서울 성북구 동소문로 16 1층 KT,37.58902,127.00798,기후동행쉼터
신한은행 돈암동,서울 성북구 동소문로 89,37.59264,127.0152,기후동행쉼터
KT M&S성신여대직영점,서울 성북구 동소문로 98 1층,37.59225,127.01617,기후동행쉼터
KT M&S정릉직영점,서울 성북구 보국문로 43,37.60817,127.00988,기후동행쉼터
KT ㈜공일공정보 보문점,서울 성북구 보문로 115 1층,37.5854,127.01911,기후동행쉼터
KT 새암 성신여대역점,서울 성북구 아리랑로 16,37.59421,127.01651,기후동행쉼터
KT M&S삼전직영점,"서울 송파구 백제고분로 204, kt매장",37.50374,127.08924,기후동행쉼터
신한은행 동부법원,서울 송파구 법원로 101,37.48352,127.12011,기후동행쉼터
KT 올포원텔레콤_잠실새내역점,"서울 송파구 석촌호수로 64 1층,kt매장",37.51058,127.0856,기후동행쉼터
남천경로당,서울 송파구 성내천로33가길 16,37.50003,127.1546,"무더위쉼터, 한파쉼터"
신한은행 문정역금융센터,서울 송파구 송파대로 167,37.48467,127.12087,기후동행쉼터
신한은행 가락동금융센터,서울 송파구 송파대로 268,37.49372,127.11835,기후동행쉼터
신한은행 올림픽선수촌,서울 송파구 양재대로 1222,37.51578,127.13149,기후동행쉼터
KT 모바일세상_개롱역점,서울 송파구 오금로 404 1층 KT대리점,37.49762,127.13511,기후동행쉼터
KT olleh plaza 송파점,서울 송파구 오금로 58 잠실아이스페이스 1층 101호 kt 플라자 송파점,37.51675,127.10549,기후동행쉼터
KT M&S신천역직영점,"서울 송파구 올림픽로 124 , kt매장",37.51141,127.08441,기후동행쉼터
KT M&S오목교직영점,서울 양천구 목동동로 293 1층 KT매장,37.52817,126.87575,기후동행쉼터
KT M&S목동역직영점,서울 양천구 목동로 201 1층 KT매장,37.52643,126.86393,기후동행쉼터
KT 케이비_염창역점,서울 양천구 목동중앙본로 123 101호 102호,37.54656,126.87148,기후동행쉼터
KT 주식회사 케이비 등촌역점,서울 양천구 목동중앙북로7길 13 1층 105호 KT매장,37.54875,126.86726,기후동행쉼터
KT 이루리_신정점,서울 양천구 중앙로 235,37.51737,126.85382,기후동행쉼터
KT 연세컴퍼니_신정네거리역점,서울 양천구 중앙로 263,37.51975,126.85276,기후동행쉼터
KT M&S신정네거리역직영점,서울 양천구 중앙로 274 1층 KT매장,37.52076,126.85311,기후동행쉼터
KT 이루리 신월점 ,서울 양천구 지양로 77,37.52233,126.83322,기후동행쉼터
KT M&S여의도역직영점,서울 영등포구 국제금융로2길 37 101호 여의도역,37.52295,126.92429,기후동행쉼터
KT M&S영등포구청역직영점,서울 영등포구 당산로 132 1층 KT매장,37.52628,126.897,기후동행쉼터
신한은행 당산역금융센터,서울 영등포구 당산로41길 11,37.53083,126.8981,기후동행쉼터
KT M&S대림역직영점,서울 영등포구 도림로 135 1층 KT매장,37.49324,126.8969,기후동행쉼터
KT M&S신길직영점,서울 영등포구 도신로60길 2 1층 KT매장,37.51179,126.91681,기후동행쉼터
KT 연세컴퍼니_문래역점,서울 영등포구 선유로 63 108호 문래역,37.51959,126.88906,기후동행쉼터
KT M&S KT플라자 신길뉴타운점,"서울 영등포구 신길로 28길 9, 20호 kt매장",37.50332,126.91099,기후동행쉼터
KT 연세컴퍼니_당산역점,서울 영등포구 양평로 18,37.53301,126.90425,기후동행쉼터
KT M&S당산직영점,서울 영등포구 양평로 52 1층 KT매장,37.53466,126.90088,기후동행쉼터
KT (주)거성크루_한남오거리점,"서울 용산구 대사관로 76, kt매장",37.53306,127.0065,기후동행쉼터
KT olleh plaza 용산점,서울 용산구 한강대로 297 우신빌딩 1층 kt플라자 용산점,37.54478,126.97168,기후동행쉼터
신한은행 용산,서울 용산구 한강대로 95,37.52885,126.96663,기후동행쉼터
KT M&S신용산역직영점,서울 용산구 한강대로 95 105호,37.52885,126.96663,기후동행쉼터
KT 햇빛모바일_불광역점,서울 은평구 불광로 27 1층 KT,37.61077,126.92882,기후동행쉼터
KT 하이팀_구산역점,서울 은평구 서오릉로 139 1층 KT,37.61085,126.91749,기후동행쉼터
KT HJY연신내역2호점 ,서울 은평구 연서로 217 1층 KT매장,37.61811,126.91962,기후동행쉼터
KT HJY연신내역점,서울 은평구 연서로 228 상가주택 1층,37.6185,126.92068,기후동행쉼터
KT 엠에이치플러스_연신내점,서울 은평구 연서로 278 상가,37.62075,126.92539,기후동행쉼터
KT (주)에스비트_녹번역점,서울 은평구 은평로 240 상가 1층 318호 KT,37.60062,126.93465,기후동행쉼터
KT M&S응암역직영점,서울 은평구 은평로 63 KT프라자 응암역점,37.59908,126.91485,기후동행쉼터
KT 하이팀_응암시장점,서울 은평구 응암로 247 1층 KT대리점,37.5942,126.91785,기후동행쉼터
신한은행 구파발역금융센터,서울 은평구 진관2로 15-8,37.63541,126.91957,기후동행쉼터
KT M&S구파발직영점,서울 은평구 진관2로 19 1층 103호,37.63484,126.91961,기후동행쉼터
KT 도다텔_은평뉴타운점,"서울 은평구 진관3로 21 101동 116호, kt매장",37.63961,126.91901,기후동행쉼터
KT 하이팀_역촌역점,서울 은평구 진흥로 105 1층 KT,37.6063,126.92254,기후동행쉼터
KT (주)엠텔레콤_녹번점,서울 은평구 진흥로 188 1층 KT,37.60828,126.93039,기후동행쉼터
신한은행 불광동,서울 은평구 통일로 730,37.61084,126.9301,기후동행쉼터
KT HJY불광역점,"서울 은평구 통일로 736 1층 불광역 8번출구 , kt매장",37.6113,126.92961,기후동행쉼터
KT 하이팀_범서점,서울 은평구 통일로 842 1층,37.6187,126.92206,기후동행쉼터
KT M&S연신내역직영점,서울 은평구 통일로 842 1층 KT프라자,37.6187,126.92206,기후동행쉼터
KT 하이팀_연신내센트럴점,서울 은평구 통일로 855-13 1층 KT,37.61919,126.91989,기후동행쉼터
KT olleh plaza 은평점,서울 은평구 통일로71길 16 kt 은평지점 1층 kt 플라자 은평점,37.61345,126.92608,기후동행쉼터
KT 코어링크 혜화글로벌점,"서울 종로구 대명길 46, kt매장",37.58299,126.99903,기후동행쉼터
KT M&S대학로본점직영점,서울 종로구 대명길 6 1층 KT,37.58376,127.00107,기후동행쉼터
신한은행 서울대학교병원,"서울 종로구 대학로 101,서울대학교병원 대한외래 지하1층",37.579,126.99744,기후동행쉼터
KT olleh plaza 혜화점,서울 종로구 대학로 65 kt 혜화지점 1층 kt 플라자 혜화점,37.57163,127.00581,기후동행쉼터
신한은행 종로중앙,서울 종로구 돈화문로 26,37.57106,126.99251,기후동행쉼터
KT M&S광화문중앙직영점,서울 종로구 새문안로9길 25 1층 KT 매장,37.57135,126.97548,기후동행쉼터
KT M&S독립문역직영점,서울 종로구 송월길 99 상가동 1층 2128호,37.56921,126.96415,기후동행쉼터
KT (주)브로_광화문 적선점,서울 종로구 자하문로2길 4 1층 KT 올레 매장,37.57637,126.97284,기후동행쉼터
KT M&S광화문본점직영점,서울 종로구 종로 19 104호 KT매장,37.57085,126.97992,기후동행쉼터
KT (주)DRC 종로5가점,서울 종로구 종로 213 상가 1층,37.57121,127.00137,기후동행쉼터
KT ㈜유엔아이 동묘역점,"서울 종로구 종로 336, kt매장",37.57247,127.01506,기후동행쉼터
KT ㈜DRC_종각점,"서울 종로구 종로 72 , kt매장",37.56995,126.98539,기후동행쉼터
KT 탑클래스 모바일_동대문역점,서울 종로구 창신길 1 1층,37.57183,127.0102,기후동행쉼터
KT M&S을지로명동본점직영점,서울 중구 명동7길 25 KT매장,37.56491,126.98419,기후동행쉼터
KT 언슈머 서울시청역점,서울 중구 무교로 14,37.56714,126.97938,기후동행쉼터
신한은행 서울시청금융센터,서울 중구 세종대로 110,37.5667,126.97835,기후동행쉼터
신한은행 남대문,서울 중구 소월로 3-0대한화재빌딩,37.55937,126.9762,기후동행쉼터
신한은행 광교영업부,서울 중구 청계천로 54,37.56838,126.98337,기후동행쉼터
신한은행 충무로,서울 중구 퇴계로 173,37.56182,126.99106,기후동행쉼터
KT M&S신당직영점,서울 중구 퇴계로 434 몽마 1층,37.56551,127.01977,기후동행쉼터
KT (주)세븐업 면목역점,서울 중랑구 겸재로 180 안민병원 1층,37.5882,127.08794,기후동행쉼터
KT (주)에이치커넥션 먹골역점,서울 중랑구 공릉로2길 8-4 칼튼테라스 105호,37.61181,127.07824,기후동행쉼터
KT (주)피앤월드 중화역점,서울 중랑구 동일로 795 1층 KT대리점,37.60141,127.07913,기후동행쉼터
KT M&S먹골역직영점,서울 중랑구 동일로 890 1층 103호 KT 엠엔에스,37.60992,127.07819,기후동행쉼터
KT ㈜세븐업 동부시장점,"서울 중랑구 망우로 212, kt매장",37.59373,127.0762,기후동행쉼터
KT M&S상봉역직영점,서울 중랑구 망우로 306 1층,37.59635,127.08645,기후동행쉼터
KT (주)세븐업 망우점,"서울 중랑구 망우로 346 110호 , kt매장",37.59733,127.09086,기후동행쉼터
KT (주)세븐업 우림시장점,"서울 중랑구 망우로 410 1층, kt매장",37.59897,127.0976,기후동행쉼터
KT 디액션(구리) 사가정6호점,서울 중랑구 면목로 306 1층 KT,37.57941,127.08773,기후동행쉼터
KT (주)단결_사가정역점,서울 중랑구 면목로 337 1층 KT매장,37.58206,127.08851,기후동행쉼터
KT M&S면목역직영점,서울 중랑구 면목로 422 1층 KT매장,37.58962,127.0877,기후동행쉼터
KT olleh plaza 중랑점,서울 중랑구 봉우재로 59,37.59134,127.07963,기후동행쉼터
KT (주)세븐업_신내점,"서울 중랑구 신내로 71 , kt매장",37.60553,127.0951,기후동행쉼터
KT olleh plaza 답십리점,서울시 동대문구 천호대로 281 동부시장건물 1층 kt플라자 답십리점,37.56755,127.05218,기후동행쉼터
KT olleh plaza 신촌점,서울시 마포구 양화로 175 마젤란21 오피스텔 1층,37.55772,126.92436,기후동행쉼터
신한은행 동대문종합시장,서울시 종로구 종로 272동대문종합시장 신관 2층,37.57083,127.00809,기후동행쉼터
신한은행 양재역금융센터,서울특별시 강남구 강남대로 240,37.48528,127.03439,기후동행쉼터
유니온센터오피스텔 지하3~8층,서울특별시 강남구 강남대로 310,37.49103,127.03161,민방위대피시설
신한은행 역삼동,서울특별시 강남구 강남대로 314,37.49133,127.03171,기후동행쉼터
신한은행 논현동,서울특별시 강남구 강남대로 468,37.50416,127.02515,기후동행쉼터
건우빌딩 지하2층,서울특별시 강남구 강남대로 548,37.51104,127.0219,민방위대피시설
신한은행 신한은행(신사동),서울특별시 강남구 강남대로 606,37.51583,127.02015,기후동행쉼터
강남역 2호선 지하1~3층,서울특별시 강남구 강남대로 지하 396,37.49706,127.02818,민방위대피시설
논현노인종합복지관,서울특별시 강남구 강남대로128길 59,37.51204,127.02606,"무더위쉼터, 한파쉼터"
학동근린공원,서울특별시 강남구 강남대로140길 47,37.51544,127.02542,지진대피소
역삼초등학교 운동장,서울특별시 강남구 강남대로66길 21,37.49264,127.03273,지진대피소
개포서근린공원,서울특별시 강남구 개포동 180,37.48882,127.0638,지진대피소
구룡초등학교 운동장,서울특별시 강남구 개포로 263,37.48072,127.05197,지진대피소
개포1동주민센터,서울특별시 강남구 개포로 303,37.4827,127.05558,한파쉼터
신한은행 개포동,서울특별시 강남구 개포로 307,37.48386,127.05698,기후동행쉼터
개일초등학교 운동장,서울특별시 강남구 개포로 401,37.48571,127.05804,지진대피소
개포고등학교 운동장,서울특별시 강남구 개포로 402,37.48468,127.05895,지진대피소
배밭근린공원,서울특별시 강남구 개포로 409-1,37.48884,127.06246,지진대피소
수도전기공업고등학교 운동장,서울특별시 강남구 개포로 410,37.48685,127.06367,지진대피소
개포동근린공원,서울특별시 강남구 개포로 509,37.49056,127.06923,지진대피소
학여울근린공원,서울특별시 강남구 개포로 509,37.49035,127.06881,지진대피소
개포2동주민센터(지하1층),서울특별시 강남구 개포로 511,37.48978,127.06908,민방위대피시설
개포2동주민센터,서울특별시 강남구 개포로 511,37.4899,127.0691,"무더위쉼터, 한파쉼터"
양전초등학교 운동장,서울특별시 강남구 개포로 513,37.49043,127.07041,지진대피소
일원1동주민센터,서울특별시 강남구 개포로 615,37.4927,127.0756,"무더위쉼터, 한파쉼터"
석탑프라자(지하2층),서울특별시 강남구 개포로 615,37.49269,127.07563,민방위대피시설
개포3동주민센터,서울특별시 강남구 개포로 615,37.4927,127.0756,"무더위쉼터, 한파쉼터"
구룡역(지하1층),서울특별시 강남구 개포로 지하 403,37.48702,127.059,민방위대피시설
개포동역(지하1층),서울특별시 강남구 개포로 지하 420,37.48998,127.06968,민방위대피시설
강남종합사회복지관,서울특별시 강남구 개포로109길 5,37.49233,127.07459,"무더위쉼터, 한파쉼터"
대진근린공원,서울특별시 강남구 개포로109길 62,37.49558,127.07855,지진대피소
대진초등학교 운동장,서울특별시 강남구 개포로109길 74,37.49644,127.07806,지진대피소
개포하늘꿈도서관,서울특별시 강남구 개포로110길 54,37.49073,127.08036,"무더위쉼터, 한파쉼터"
대청근린공원,서울특별시 강남구 개포로124길 24,37.49265,127.08254,지진대피소
개포은행나무공원,서울특별시 강남구 개포로20길 48,37.47604,127.04902,지진대피소
포이경로당,서울특별시 강남구 개포로20길 48,37.47603,127.04927,"무더위쉼터, 한파쉼터"
국립국악고등학교 운동장,서울특별시 강남구 개포로22길 65,37.47613,127.05147,지진대피소
포이초등학교 공영주차장 지하1층,서울특별시 강남구 개포로22길 87,37.4756,127.05232,민방위대피시설
포이초등학교 운동장,서울특별시 강남구 개포로22길 87,37.47558,127.0525,지진대피소
개포4동주민센터,서울특별시 강남구 개포로24길 33,37.4772,127.0499,"무더위쉼터, 한파쉼터"
개포4복합문화센터 지하1~3층,"서울특별시 강남구 개포로24길 33, 개포4복합문화센터",37.47714,127.0499,민방위대피시설
밀미리경로당,서울특별시 강남구 개포로31길 31,37.481,127.04867,"무더위쉼터, 한파쉼터"
일원본동주민센터,서울특별시 강남구 광평로 126,37.48338,127.08648,"무더위쉼터, 한파쉼터"
태화기독교사회복지관,서울특별시 강남구 광평로 185,37.48483,127.0934,"무더위쉼터, 한파쉼터"
일원장미공원,서울특별시 강남구 광평로10길 28,37.48064,127.08077,지진대피소
수서10단지경로당,서울특별시 강남구 광평로19길 10,37.48459,127.08767,"무더위쉼터, 한파쉼터"
로봇고등학교 운동장,서울특별시 강남구 광평로20길 63,37.48041,127.08425,지진대피소
대왕중학교 운동장,서울특별시 강남구 광평로20길 7,37.48304,127.08737,지진대피소
왕북초등학교 운동장,서울특별시 강남구 광평로31길 74,37.48607,127.08672,지진대피소
강남더샵포레스트아파트 지하주차장 2층~3층,서울특별시 강남구 광평로34길 35,37.48129,127.09507,민방위대피시설
동익아파트 지하주차장 1층,서울특별시 강남구 광평로39길 3,37.48532,127.09651,민방위대피시설
대진디자인고등학교 운동장,서울특별시 강남구 광평로39길 93,37.49072,127.09628,지진대피소
일원경로당,서울특별시 강남구 광평로3길 21,37.48409,127.07797,"무더위쉼터, 한파쉼터"
신동아아파트 지하주차장 1층,서울특별시 강남구 광평로47길 17,37.48707,127.09844,민방위대피시설
수서7경로당,서울특별시 강남구 광평로47길 17,37.48704,127.09873,한파쉼터
한아름아파트 지하주차장 1층,서울특별시 강남구 광평로51길 22,37.48947,127.10358,민방위대피시설
세종고등학교 운동장,서울특별시 강남구 광평로51길 36,37.48993,127.10262,지진대피소
수서3단지경로당,서울특별시 강남구 광평로51길 49,37.49214,127.09975,"무더위쉼터, 한파쉼터"
수서명화종합사회복지관,서울특별시 강남구 광평로51길 49,37.49143,127.10056,"무더위쉼터, 한파쉼터"
수서종합사회복지관,서울특별시 강남구 광평로56길 11,37.48718,127.10495,"무더위쉼터, 한파쉼터"
수서동주민센터,서울특별시 강남구 광평로56길 11,37.4875,127.1052,"무더위쉼터, 한파쉼터"
수서중학교 운동장,서울특별시 강남구 광평로59길 57,37.49076,127.10269,지진대피소
신한은행 군인공제회관,서울특별시 강남구 남부순환로 2806,37.48911,127.05293,기후동행쉼터
숙명여자고등학교 운동장,서울특별시 강남구 남부순환로 2807,37.4915,127.05404,지진대피소
신한은행 도곡역,서울특별시 강남구 남부순환로 2912,37.49072,127.05612,기후동행쉼터
동하빌딩(지하2~3층),서울특별시 강남구 남부순환로 2913,37.49286,127.05861,민방위대피시설
대곡초등학교 운동장,서울특별시 강남구 남부순환로 3022,37.4944,127.06524,지진대피소
한마음공원,서울특별시 강남구 남부순환로 3142-30,37.49579,127.07589,지진대피소
대치역(지하1층),서울특별시 강남구 남부순환로 지하 2952,37.49453,127.06326,민방위대피시설
학여울역 (지하1~5층),서울특별시 강남구 남부순환로 지하 3104,37.49673,127.07184,민방위대피시설
은광여자고등학교(은성중) 운동장,서울특별시 강남구 남부순환로359길 36,37.48728,127.03633,지진대피소
매봉시니어센터,서울특별시 강남구 남부순환로378길 20,37.48501,127.04616,무더위쉼터
독골근린공원,서울특별시 강남구 남부순환로378길 29,37.48511,127.04697,지진대피소
도곡2동주민센터,서울특별시 강남구 남부순환로378길 34-9,37.4837,127.04642,"무더위쉼터, 한파쉼터"
대치중학교 운동장,서울특별시 강남구 남부순환로378길 39,37.48406,127.04783,지진대피소
포스코트아파트 (지하1층~지하2층),서울특별시 강남구 남부순환로381길 15,37.48791,127.04761,민방위대피시설
대치1문화센터(지하3층),서울특별시 강남구 남부순환로391길 19,37.49325,127.05677,민방위대피시설
대치1동주민센터,서울특별시 강남구 남부순환로391길 19,37.49325,127.05677,"무더위쉼터, 한파쉼터"
논현초등학교 운동장,서울특별시 강남구 논현동 168,37.50814,127.02621,지진대피소
논현소나무공원,서울특별시 강남구 논현동 239,37.51571,127.03748,지진대피소
원불교 개포교당 지하1층,서울특별시 강남구 논현로 10,37.47239,127.05052,민방위대피시설
경남아파트 (지하1층~지하3층),서울특별시 강남구 논현로 209,37.48887,127.0408,민방위대피시설
"아세아타워(지하1,2,3,4)",서울특별시 강남구 논현로 430,37.49907,127.03837,민방위대피시설
성지하이츠3차빌딩 지하 2~6층,서울특별시 강남구 논현로 507,37.50169,127.03598,민방위대피시설
신한은행 GS타워,서울특별시 강남구 논현로 508,37.502,127.03748,기후동행쉼터
데님관광호텔 지하1~4층,서울특별시 강남구 논현로 66,37.47619,127.04662,민방위대피시설
논현개나리공원,서울특별시 강남구 논현로123길 19,37.51133,127.02995,지진대피소
대치근린공원,서울특별시 강남구 대치동 512,37.49509,127.06992,지진대피소
대현초등학교 운동장,서울특별시 강남구 대치동 969,37.50357,127.06388,지진대피소
도곡목련공원,서울특별시 강남구 도곡동 415-3,37.48496,127.04431,지진대피소
언주초등학교 운동장,서울특별시 강남구 도곡동 922,37.48685,127.03751,지진대피소
"YK빌딩 지하 2,3,4층",서울특별시 강남구 도곡로 205,37.49311,127.04127,민방위대피시설
강원빌딩(지하2층),서울특별시 강남구 도곡로 418,37.49701,127.05626,민방위대피시설
도곡1동주민센터,서울특별시 강남구 도곡로18길 57,37.48831,127.03888,"무더위쉼터, 한파쉼터"
역삼2동경로당,서울특별시 강남구 도곡로27길 27,37.49454,127.04183,한파쉼터
역삼중학교 운동장,서울특별시 강남구 도곡로43길 10,37.49559,127.04873,지진대피소
역삼2문화센터(지하1층),서울특별시 강남구 도곡로43길 25,37.496,127.04682,민방위대피시설
역삼2동주민센터,서울특별시 강남구 도곡로43길 25,37.49597,127.04682,"무더위쉼터, 한파쉼터"
단국대부속고등학교 운동장,서울특별시 강남구 도곡로64길 21,37.49608,127.05585,지진대피소
대치4동주민센터,서울특별시 강남구 도곡로77길 23,37.49973,127.05785,"무더위쉼터, 한파쉼터"
래미안대치하이스턴 모든 동 지하 (지하1층),서울특별시 강남구 도곡로93길 12,37.50105,127.06549,민방위대피시설
그린스마트쉼터(도산대로120),서울특별시 강남구 도산대로 120,37.5168,127.02186,무더위쉼터
그린스마트쉼터(도산대로125),서울특별시 강남구 도산대로 125,37.51752,127.02219,무더위쉼터
그린스마트쉼터(도산대로157),서울특별시 강남구 도산대로 157,37.51899,127.02566,무더위쉼터
그린스마트쉼터(도산대로158),서울특별시 강남구 도산대로 158,37.51852,127.02599,무더위쉼터
그린스마트쉼터(도산대로217),서울특별시 강남구 도산대로 217,37.52077,127.03057,무더위쉼터
그린스마트쉼터(도산대로218),서울특별시 강남구 도산대로 218,37.52026,127.03075,무더위쉼터
신한은행 학동,서울특별시 강남구 도산대로 221,37.52104,127.0309,기후동행쉼터
그린스마트쉼터(도산대로303),서울특별시 강남구 도산대로 303,37.52206,127.03446,무더위쉼터
그린스마트쉼터(도산대로306),서울특별시 강남구 도산대로 306,37.52149,127.03484,무더위쉼터
신한은행 도산대로,서울특별시 강남구 도산대로 318,37.52184,127.0369,기후동행쉼터
그린스마트쉼터(도산대로327),서울특별시 강남구 도산대로 327,37.52303,127.03746,무더위쉼터
그린스마트쉼터(도산대로332),서울특별시 강남구 도산대로 332,37.52257,127.0382,무더위쉼터
그린스마트쉼터(도산대로442),서울특별시 강남구 도산대로 442,37.52349,127.04361,무더위쉼터
그린스마트쉼터(도산대로443),서울특별시 강남구 도산대로 443,37.52411,127.04452,무더위쉼터
그린스마트쉼터(도산대로513),서울특별시 강남구 도산대로 513,37.52474,127.04937,무더위쉼터
그린스마트쉼터(도산대로532),서울특별시 강남구 도산대로 532,37.52446,127.05149,무더위쉼터
신사역 3호선 지하1~2층,서울특별시 강남구 도산대로 지하 102,37.51967,127.01875,민방위대피시설
언북중학교 운동장,서울특별시 강남구 도산대로38길 27,37.51889,127.03329,지진대피소
호림아트센터 2빌딩 지하 2~4층,서울특별시 강남구 도산대로45길 6,37.52285,127.03637,민방위대피시설
압구정노인복지관,서울특별시 강남구 도산대로53길 5,37.52352,127.03819,"무더위쉼터, 한파쉼터"
청담은행나무공원,서울특별시 강남구 도산대로67길 15,37.52514,127.04404,지진대피소
세곡동주민센터,서울특별시 강남구 밤고개로 286,37.46905,127.10691,"무더위쉼터, 한파쉼터"
이동노동자쉼터(밤고개로1길10),서울특별시 강남구 밤고개로1길 10,37.48781,127.10186,무더위쉼터
강남구보건소분소,서울특별시 강남구 밤고개로1길 52,37.48921,127.10519,"무더위쉼터, 한파쉼터"
율현초등학교 운동장,서울특별시 강남구 밤고개로21길 15,37.4745,127.10871,지진대피소
래미안포레아파트 지하주차장 1층,서울특별시 강남구 밤고개로21길 25,37.47487,127.10984,민방위대피시설
방죽2경로당,서울특별시 강남구 밤고개로23길 14-31,37.47179,127.1097,"무더위쉼터, 한파쉼터"
방죽1시니어센터,서울특별시 강남구 밤고개로24길 60,37.47086,127.10532,"무더위쉼터, 한파쉼터"
"호텔더 디자이너스리즈 강남프리미어 지하1,2층",서울특별시 강남구 봉은사로 113,37.50546,127.0259,민방위대피시설
강남시니어플라자,서울특별시 강남구 봉은사로 332,37.50976,127.04322,"무더위쉼터, 한파쉼터"
삼성2동주민센터,서울특별시 강남구 봉은사로 419,37.51117,127.04599,"무더위쉼터, 한파쉼터"
신한은행 봉은사로,서울특별시 강남구 봉은사로 609,37.51474,127.06149,기후동행쉼터
삼성1동주민센터,서울특별시 강남구 봉은사로 616,37.51432,127.06252,"무더위쉼터, 한파쉼터"
신논현역 지하 1~3층,서울특별시 강남구 봉은사로 지하 102,37.50666,127.032,민방위대피시설
언주역 지하1층,서울특별시 강남구 봉은사로 지하 201,37.5075,127.03425,민방위대피시설
삼성시니어센터,서울특별시 강남구 봉은사로111길 18-3,37.51651,127.06539,무더위쉼터
상방교경로당,서울특별시 강남구 봉은사로24길 70,37.50239,127.03188,"무더위쉼터, 한파쉼터"
삼릉초등학교 운동장,서울특별시 강남구 봉은사로63길 22,37.51277,127.04716,지진대피소
봉전경로당,서울특별시 강남구 봉은사로68길 39-3,37.50986,127.0519,"무더위쉼터, 한파쉼터"
샘터근린공원,서울특별시 강남구 삼성동 16-4,37.51537,127.04741,지진대피소
삼성목련공원,서울특별시 강남구 삼성동 55-1,37.51857,127.05404,지진대피소
삼성까치공원,서울특별시 강남구 삼성동 85,37.51824,127.06071,지진대피소
양재4지하보도 지하1층,서울특별시 강남구 삼성로 14,37.48556,127.07134,민방위대피시설
신한은행 대치역,서울특별시 강남구 삼성로 150,37.49423,127.07043,기후동행쉼터
강남구민회관 (지하1~3층),서울특별시 강남구 삼성로 154,37.49385,127.06415,민방위대피시설
신한은행 대치동,서울특별시 강남구 삼성로 238,37.49861,127.06141,기후동행쉼터
경기여자고등학교 운동장,서울특별시 강남구 삼성로 29,37.48624,127.06592,지진대피소
강남노인종합복지관,서울특별시 강남구 삼성로 628,37.51593,127.05214,무더위쉼터
언북초등학교 운동장,서울특별시 강남구 삼성로135길 42,37.52008,127.04626,지진대피소
구룡중학교 운동장,서울특별시 강남구 선릉로 103,37.48569,127.05661,지진대피소
늘벗근린공원,서울특별시 강남구 선릉로 118,37.48955,127.05721,지진대피소
중대부속고등학교 운동장,서울특별시 강남구 선릉로 207,37.4924,127.05198,지진대피소
대도초등학교 운동장,서울특별시 강남구 선릉로 209,37.49258,127.05377,지진대피소
개포1동주민센터,서울특별시 강남구 선릉로 35,37.48259,127.06011,무더위쉼터
강남구보건소 주차장,서울특별시 강남구 선릉로 668,37.51621,127.042,지진대피소
강남구보건소,서울특별시 강남구 선릉로 668,37.51628,127.04214,"무더위쉼터, 한파쉼터"
강남구보건소 지하1층,"서울특별시 강남구 선릉로 668, 강남구 보건소",37.51633,127.04214,민방위대피시설
영동고등학교 운동장,서울특별시 강남구 선릉로 742,37.52044,127.04198,지진대피소
배강빌딩 지하 3층~5층,서울특별시 강남구 선릉로 801,37.52377,127.03893,민방위대피시설
학동초등학교 운동장,서울특별시 강남구 선릉로115길 42,37.51204,127.03989,지진대피소
언주중학교 운동장,서울특별시 강남구 선릉로116길 45,37.51428,127.04691,지진대피소
래미안삼성2차아파트 지하주차장(지하1~2층),서울특별시 강남구 선릉로130길 20,37.51615,127.04344,민방위대피시설
도곡초등학교 운동장,서울특별시 강남구 선릉로64길 33,37.49906,127.05466,지진대피소
진선여자중학교 운동장,서울특별시 강남구 선릉로85길 27,37.50171,127.04802,지진대피소
세곡천공원,서울특별시 강남구 세곡동 522-1,37.46321,127.10128,지진대피소
세명초등학교 운동장,서울특별시 강남구 세곡동 529,37.46873,127.09131,지진대피소
행복공원,서울특별시 강남구 세곡동 546,37.46727,127.09712,지진대피소
도담공원,서울특별시 강남구 세곡동 548,37.46728,127.09863,지진대피소
윗반고개공원,서울특별시 강남구 세곡동 99-6,37.46569,127.10918,지진대피소
수서초등학교 운동장,서울특별시 강남구 수서동 709,37.49062,127.10172,지진대피소
탄천근린공원,서울특별시 강남구 수서동 722,37.4876,127.10652,지진대피소
신사은행나무공원,서울특별시 강남구 신사동 558,37.52058,127.02604,지진대피소
신사무궁화공원,서울특별시 강남구 신사동 625-5,37.52412,127.03192,지진대피소
신사근린공원,서울특별시 강남구 압구정동 422,37.52644,127.02106,지진대피소
압구정초등학교 운동장,서울특별시 강남구 압구정동 461,37.53132,127.03093,지진대피소
갈매기근린공원,서울특별시 강남구 압구정동 480,37.53187,127.03463,지진대피소
청담고등학교 운동장,서울특별시 강남구 압구정동 526,37.52832,127.04312,지진대피소
신사중학교 운동장,서울특별시 강남구 압구정로 123,37.52425,127.02129,지진대피소
현대고등학교 운동장,서울특별시 강남구 압구정로 127,37.52509,127.02267,지진대피소
신사동주민센터,서울특별시 강남구 압구정로 128,37.52397,127.0228,"무더위쉼터, 한파쉼터"
신한은행 압구정역,서울특별시 강남구 압구정로 152,37.52561,127.02611,기후동행쉼터
압구정동주민센터,서울특별시 강남구 압구정로 201,37.53062,127.03065,"무더위쉼터, 한파쉼터"
신한은행 압구정중앙,서울특별시 강남구 압구정로 220,37.52832,127.03154,기후동행쉼터
압구정중학교 운동장,서울특별시 강남구 압구정로 225,37.52975,127.03307,지진대피소
그린스마트쉼터(압구정로343),서울특별시 강남구 압구정로 343,37.5282,127.03998,무더위쉼터
갤러리아백화점 서관 지하1층,서울특별시 강남구 압구정로 343,37.52856,127.04005,민방위대피시설
갤러리아백화점 동관 지하1층,서울특별시 강남구 압구정로 407,37.52808,127.04157,민방위대피시설
기아자동차 지하1~3층,서울특별시 강남구 압구정로 417,37.5276,127.04288,민방위대피시설
압구정역 지하1~2층,서울특별시 강남구 압구정로 지하 172,37.52354,127.02831,민방위대피시설
압구정로데오역 지하2층~5층,"서울특별시 강남구 압구정로 지하402, 압구정로데오역 지2층",37.52944,127.04126,민방위대피시설
신구초등학교 운동장,서울특별시 강남구 압구정로18길 28,37.52309,127.02428,지진대피소
신구중학교 운동장,서울특별시 강남구 압구정로36길 17,37.52676,127.03222,지진대피소
압구정고등학교 운동장,서울특별시 강남구 압구정로39길 20,37.53075,127.03278,지진대피소
금광아크존 지하 1~2층,서울특별시 강남구 압구정로42길 36,37.52655,127.03462,민방위대피시설
압구정하이츠파크 지하1~2층,서울특별시 강남구 압구정로42길 78,37.52378,127.03371,민방위대피시설
로데오현대경로당,서울특별시 강남구 압구정로50길 28,37.52657,127.03702,"무더위쉼터, 한파쉼터"
청담중학교 운동장,서울특별시 강남구 압구정로61길 36,37.52897,127.04536,지진대피소
청담초등학교 운동장,서울특별시 강남구 압구정로71길 9,37.52786,127.04518,지진대피소
청담동주민센터,서울특별시 강남구 압구정로79길 26,37.52508,127.04932,"무더위쉼터, 한파쉼터"
능인종합사회복지관,서울특별시 강남구 양재대로 340,37.47168,127.05259,"무더위쉼터, 한파쉼터"
대청종합사회복지관,서울특별시 강남구 양재대로55길 10,37.49319,127.09139,"무더위쉼터, 한파쉼터"
일원까치공원,서울특별시 강남구 양재대로55길 14-1,37.49206,127.08821,지진대피소
대청초등학교 운동장,서울특별시 강남구 양재대로55길 28,37.49273,127.08791,지진대피소
대청중학교 운동장,서울특별시 강남구 양재천로 321,37.48998,127.05862,지진대피소
대치초등학교 운동장,서울특별시 강남구 양재천로 363,37.49096,127.06214,지진대피소
쌍용개포아파트 지하1층,서울특별시 강남구 언주로 101,37.48113,127.05324,민방위대피시설
현대2차아파트 210동 지하1층,서울특별시 강남구 언주로 107,37.48248,127.05125,민방위대피시설
경남아경로당,서울특별시 강남구 언주로 110,37.48462,127.05425,"무더위쉼터, 한파쉼터"
개포4차우성경로당,서울특별시 강남구 언주로 117,37.48535,127.04924,"무더위쉼터, 한파쉼터"
삼성래미안경로당,서울특별시 강남구 언주로 202,37.48976,127.05063,"무더위쉼터, 한파쉼터"
"동영문화센터(지하2,3,4)",서울특별시 강남구 언주로 337,37.49779,127.04409,민방위대피시설
송암빌딩 지하주차장 1층~3층,서울특별시 강남구 언주로 709,37.51671,127.03481,민방위대피시설
신한은행 영동,서울특별시 강남구 언주로 709,37.51679,127.03492,기후동행쉼터
건설회관 지하주차장 1층,서울특별시 강남구 언주로 711,37.51735,127.03412,민방위대피시설
두산빌딩 지하주차장 2층~4층,서울특별시 강남구 언주로 726,37.51908,127.0353,민방위대피시설
압구정1동경로당,서울특별시 강남구 언주로157길 8,37.52396,127.03224,"무더위쉼터, 한파쉼터"
도곡중학교 운동장,서울특별시 강남구 언주로57길 31,37.49269,127.04498,지진대피소
역삼시니어하우스,서울특별시 강남구 언주로79길 30-3,37.4992,127.0414,"무더위쉼터, 한파쉼터"
역삼은행나무공원,서울특별시 강남구 역삼동 611,37.50545,127.03125,지진대피소
충현공원,서울특별시 강남구 역삼동 666-2,37.50476,127.03651,지진대피소
역삼장미공원,서울특별시 강남구 역삼동 780-25,37.49531,127.04481,지진대피소
역삼소나무공원,서울특별시 강남구 역삼동 836-21,37.49098,127.0337,지진대피소
이동노동자쉼터(역삼로160),서울특별시 강남구 역삼로 160,37.49491,127.03666,무더위쉼터
신한은행 도곡,서울특별시 강남구 역삼로 310,37.49922,127.04844,기후동행쉼터
도성초등학교 운동장,서울특별시 강남구 역삼로 313,37.50067,127.04916,지진대피소
휘문중학교 운동장,서울특별시 강남구 역삼로 541,37.50557,127.0629,지진대피소
휘문고등학교 운동장,서울특별시 강남구 역삼로 541,37.50505,127.06109,지진대피소
하방교경로당,서울특별시 강남구 역삼로11길 9-7,37.49529,127.03457,"무더위쉼터, 한파쉼터"
대치노인복지관,서울특별시 강남구 역삼로69길 22,37.50302,127.05412,무더위쉼터
역삼1동주민센터,서울특별시 강남구 역삼로7길 16,37.49537,127.03328,"무더위쉼터, 한파쉼터"
역삼1문화센터 지하 1~2층,서울특별시 강남구 역삼로7길 16,37.49535,127.03325,민방위대피시설
대명중학교 운동장,서울특별시 강남구 역삼로87길 26,37.50589,127.06101,지진대피소
대치경로당,서울특별시 강남구 역삼로90길 18,37.50283,127.06201,"무더위쉼터, 한파쉼터"
개원중학교 운동장,서울특별시 강남구 영동대로 101,37.49129,127.07138,지진대피소
쌍용1차아파트 모든 동 (지하1층),서울특별시 강남구 영동대로 210,37.49808,127.07122,민방위대피시설
쌍용2차아파트 모든 동 (지하1층),서울특별시 강남구 영동대로 220,37.49947,127.07048,민방위대피시설
메디다스벤쳐타운 (지하2~3층),서울특별시 강남구 영동대로 229,37.49957,127.06747,민방위대피시설
우성1차아파트 (지하1층),서울특별시 강남구 영동대로 230,37.50023,127.06914,민방위대피시설
동원빌딩 (지하2층),서울특별시 강남구 영동대로 333,37.50412,127.06486,민방위대피시설
이동노동자쉼터(영동대로513),서울특별시 강남구 영동대로 513,37.5125,127.05893,무더위쉼터
경기고등학교 운동장,서울특별시 강남구 영동대로 643,37.51746,127.05706,지진대피소
봉은중학교 운동장,서울특별시 강남구 영동대로128길 59,37.51883,127.06283,지진대피소
일원초등학교 운동장,서울특별시 강남구 영동대로4길 20,37.4894,127.07642,지진대피소
대치평생학습관 (지하1층),서울특별시 강남구 영동대로57길 7,37.49998,127.06696,민방위대피시설
대치2주민센터 (지하1~2층),서울특별시 강남구 영동대로65길 24,37.50226,127.06417,민방위대피시설
대치2동주민센터,서울특별시 강남구 영동대로65길 24,37.50231,127.06419,"무더위쉼터, 한파쉼터"
윗방죽마을공원,서울특별시 강남구 율현동 308-29,37.47032,127.10464,지진대피소
중동고등학교 운동장,서울특별시 강남구 일원동 618,37.49275,127.08096,지진대피소
늘푸른근린공원,서울특별시 강남구 일원동 690,37.48993,127.07751,지진대피소
일원느티나무공원,서울특별시 강남구 일원동 730-2,37.48309,127.0775,지진대피소
일원개나리공원,서울특별시 강남구 일원동 730-3,37.48292,127.07642,지진대피소
한솔근린공원,서울특별시 강남구 일원동 732,37.48134,127.07901,지진대피소
대모초등학교 운동장,서울특별시 강남구 일원동 736,37.48108,127.08605,지진대피소
열린도서관,서울특별시 강남구 일원로 115,37.48391,127.08441,"무더위쉼터, 한파쉼터"
신한은행 일원역,서울특별시 강남구 일원로 120,37.48482,127.08317,기후동행쉼터
영희초등학교 운동장,서울특별시 강남구 일원로 21,37.49182,127.0812,지진대피소
중산고등학교 운동장,서울특별시 강남구 일원로14길 22,37.48534,127.0806,지진대피소
대청경로당,서울특별시 강남구 일원로3길 35,37.4932,127.083,"무더위쉼터, 한파쉼터"
중동중학교 운동장,서울특별시 강남구 일원로8길 37,37.4889,127.07779,지진대피소
못골공원,서울특별시 강남구 자곡동 447-23,37.47362,127.10008,지진대피소
못골아래근린공원,서울특별시 강남구 자곡동 607,37.4729,127.09767,지진대피소
세명근린공원,서울특별시 강남구 자곡동 625,37.46902,127.09042,지진대피소
해찬솔근린공원,서울특별시 강남구 자곡동 627,37.47087,127.09262,지진대피소
자곡초등학교 운동장,서울특별시 강남구 자곡동 642,37.47203,127.09986,지진대피소
세곡보건지소,서울특별시 강남구 자곡로 100,37.47155,127.0948,"무더위쉼터, 한파쉼터"
못골도서관,서울특별시 강남구 자곡로 116,37.47173,127.09635,"무더위쉼터, 한파쉼터"
풍문고등학교 운동장,서울특별시 강남구 자곡로 152,37.47164,127.10091,지진대피소
세곡푸르지오아파트 지하주차장 1층,서울특별시 강남구 자곡로 21,37.46678,127.09297,민방위대피시설
강남한양수자인아파트 지하주차장 1층,서울특별시 강남구 자곡로 260,37.47584,127.11269,민방위대피시설
세곡중학교 운동장,서울특별시 강남구 자곡로 81,37.47162,127.0925,지진대피소
강남자곡힐스테이트아파트 지하주차장 1층,서울특별시 강남구 자곡로3길 21,37.47128,127.08869,민방위대피시설
강남에버시움 지하주차장 1층,서울특별시 강남구 자곡로3길 22,37.47077,127.09086,민방위대피시설
청수근린공원,서울특별시 강남구 청담동 134-13,37.5233,127.05842,지진대피소
청담목련어린이공원,서울특별시 강남구 청담동 51,37.52296,127.04995,지진대피소
삼원타워 지하 2~4층,"서울특별시 강남구 테헤란로 124, 삼원타워",37.4987,127.03158,민방위대피시설
한국타이어빌딩 지하 1~4층,서울특별시 강남구 테헤란로 133,37.50014,127.03339,민방위대피시설
그린스마트쉼터(테헤란로134),서울특별시 강남구 테헤란로 134,37.49949,127.0335,무더위쉼터
신한은행 강남중앙,서울특별시 강남구 테헤란로 146,37.50002,127.03547,기후동행쉼터
이동노동자쉼터(테헤란로152),서울특별시 강남구 테헤란로 152,37.49979,127.03646,무더위쉼터
그린스마트쉼터(테헤란로207),서울특별시 강남구 테헤란로 207,37.50162,127.03862,무더위쉼터
삼정빌딩 앞 역삼지하보도 지하1층,서울특별시 강남구 테헤란로 301,37.50314,127.04313,민방위대피시설
위워크타워앞역삼지하보도(지하1층),"서울특별시 강남구 테헤란로 302, 위워크타워",37.50239,127.04345,민방위대피시설
그린스마트쉼터(테헤란로305),서울특별시 강남구 테헤란로 305,37.50337,127.04406,무더위쉼터
그린스마트쉼터(테헤란로308),서울특별시 강남구 테헤란로 306,37.50273,127.04412,무더위쉼터
그린스마트쉼터(테헤란로306),서울특별시 강남구 테헤란로 306,37.50265,127.04409,무더위쉼터
"두꺼비빌딩(지하2,3,4층)",서울특별시 강남구 테헤란로 310,37.50283,127.04478,민방위대피시설
동우빌딩(지하2층),서울특별시 강남구 테헤란로 328,37.50371,127.04751,민방위대피시설
신한은행 선릉,서울특별시 강남구 테헤란로 329,37.50453,127.04769,기후동행쉼터
엔지니어링공제빌딩 지하1~4층,"서울특별시 강남구 테헤란로 335, 엔지니어링공제빌딩",37.50465,127.04829,민방위대피시설
신한은행 선릉중앙,서울특별시 강남구 테헤란로 410,37.50456,127.05073,기후동행쉼터
그린스마트쉼터(테헤란로413),서울특별시 강남구 테헤란로 413,37.50552,127.05143,무더위쉼터
신한은행 테헤란로금융센터,서울특별시 강남구 테헤란로 429,37.50644,127.05394,기후동행쉼터
그린스마트쉼터(테헤란로443),서울특별시 강남구 테헤란로 443,37.50686,127.0556,무더위쉼터
그린스마트쉼터(테헤란로507),서울특별시 강남구 테헤란로 507,37.50784,127.05769,무더위쉼터
신한은행 삼성역,서울특별시 강남구 테헤란로 516,37.50741,127.06008,기후동행쉼터
그린스마트쉼터(테헤란로517),서울특별시 강남구 테헤란로 517,37.50814,127.05961,무더위쉼터
그린스마트쉼터(테헤란로518),서울특별시 강남구 테헤란로 518,37.50766,127.06038,무더위쉼터
글라스타워 (지하2~7층),서울특별시 강남구 테헤란로 534,37.50825,127.06239,민방위대피시설
역삼역 지하1~2층,서울특별시 강남구 테헤란로 지하 156,37.50125,127.03833,민방위대피시설
테헤란아이파크실버클럽,서울특별시 강남구 테헤란로52길 16,37.50239,127.04606,"무더위쉼터, 한파쉼터"
"테헤란로오피스빌딩(지하2,3,4,5층)",서울특별시 강남구 테헤란로52길 6,37.50323,127.04719,민방위대피시설
노벨빌딩(지하2~3층),서울특별시 강남구 테헤란로78길 16,37.5052,127.05539,민방위대피시설
그린스마트쉼터(학동로106),서울특별시 강남구 학동로 106,37.51127,127.02248,무더위쉼터
그린스마트쉼터(학동로171),서울특별시 강남구 학동로 171,37.5139,127.02975,무더위쉼터
그린스마트쉼터(학동로308),서울특별시 강남구 학동로 308,37.51547,127.03644,무더위쉼터
그린스마트쉼터(학동로337),서울특별시 강남구 학동로 337,37.51702,127.03998,무더위쉼터
그린스마트쉼터(학동로338),서울특별시 강남구 학동로 338,37.51659,127.0399,무더위쉼터
신한은행 강남구청역,서울특별시 강남구 학동로 402,37.51698,127.04179,기후동행쉼터
그린스마트쉼터(학동로425),서울특별시 강남구 학동로 425,37.51845,127.04715,무더위쉼터
그린스마트쉼터(학동로426),서울특별시 강남구 학동로 426,37.51812,127.04732,무더위쉼터
한파 응급 대피소 ,서울특별시 강남구 학동로 426,37.51776,127.04762,한파쉼터
강남구청 주차장,서울특별시 강남구 학동로 426,37.51778,127.04724,지진대피소
강남구청,서울특별시 강남구 학동로 426,37.51748,127.04759,무더위쉼터
우리들병원 지하2층,서울특별시 강남구 학동로 445,37.51905,127.04968,민방위대피시설
봉은초등학교 운동장,서울특별시 강남구 학동로 610,37.52063,127.06055,지진대피소
논현역 지하1~3층,서울특별시 강남구 학동로 지하 102,37.5143,127.03177,민방위대피시설
논현1동주민센터,서울특별시 강남구 학동로20길 25,37.51145,127.02851,"무더위쉼터, 한파쉼터"
논현2동주민센터,서울특별시 강남구 학동로43길 17,37.51728,127.03719,"무더위쉼터, 한파쉼터"
논현2문화센터 지하주차장 1층~2층,서울특별시 강남구 학동로43길 17,37.51729,127.03723,민방위대피시설
학리시니어센터,서울특별시 강남구 학동로47길 30,37.5186,127.03833,무더위쉼터
정다운도서관,서울특별시 강남구 학동로67길 11,37.51907,127.04645,"무더위쉼터, 한파쉼터"
은곡시니어센터,서울특별시 강남구 헌릉로571길 48,37.46785,127.09974,무더위쉼터
대왕공원,서울특별시 강남구 헌릉로590길 33,37.46237,127.10459,지진대피소
세곡해오름공원,서울특별시 강남구 헌릉로590길 55,37.4604,127.10336,지진대피소
대왕초등학교 운동장,서울특별시 강남구 헌릉로618길 8,37.46428,127.10558,지진대피소
반고개경로당,서울특별시 강남구 헌릉로622길 9,37.46405,127.10703,"무더위쉼터, 한파쉼터"
윗반고개경로당,서울특별시 강남구 헌릉로645길 11,37.46562,127.10947,"무더위쉼터, 한파쉼터"
(주)한섬 성내사옥 본관 지하1층,서울특별시 강동구 강동대로 195,37.52446,127.12834,민방위대피시설
다성빌딩 지하1층~지하3층 주차장,서울특별시 강동구 강동대로 199,37.52427,127.12873,민방위대피시설
오륜교회,서울특별시 강동구 강동대로 235,37.52268,127.13237,무더위쉼터
동북중고등학교 운동장,서울특별시 강동구 강동대로 305,37.51977,127.14015,지진대피소
둔촌오륜역 지하1층 역사,서울특별시 강동구 강동대로 지하 303,37.51852,127.14091,민방위대피시설
성내3동주민센터,서울특별시 강동구 강동대로53길 76,37.52604,127.13289,"무더위쉼터, 한파쉼터"
화영빌딩(우리홈마트) 지하주차장 2층,서울특별시 강동구 강동대로53길 80,37.5263,127.13293,민방위대피시설
힐데스하임올림픽파크아파트경로당,서울특별시 강동구 강동대로55길 39,37.5241,127.13293,무더위쉼터
두레근린공원,서울특별시 강동구 고덕동 497,37.55798,127.15223,지진대피소
구암경로당,서울특별시 강동구 고덕로 109,37.555,127.1375,"무더위쉼터, 한파쉼터"
프라이어팰리스아파트 지하1층주차장,서울특별시 강동구 고덕로 130,37.55353,127.1395,민방위대피시설
프라이어팰리스경로당,서울특별시 강동구 고덕로 130,37.55355,127.13966,무더위쉼터
암사3동주민센터,서울특별시 강동구 고덕로 137,37.555,127.14078,"무더위쉼터, 한파쉼터"
서울장애인종합복지관,서울특별시 강동구 고덕로 201,37.55581,127.14827,무더위쉼터
삼익2차아파트(전동지하1층),서울특별시 강동구 고덕로 210,37.55329,127.14846,민방위대피시설
배재고등학교 운동장,서울특별시 강동구 고덕로 227,37.55542,127.15196,지진대피소
명일신동아아파트경로당,서울특별시 강동구 고덕로 240,37.55367,127.15221,무더위쉼터
국민은행고덕역지점,서울특별시 강동구 고덕로 254,37.55464,127.15366,무더위쉼터
농협명일동지점,서울특별시 강동구 고덕로 262,37.5546,127.1546,무더위쉼터
이마트명일점,서울특별시 강동구 고덕로 276,37.55471,127.15561,무더위쉼터
온조대왕문화체육관,서울특별시 강동구 고덕로 285,37.55674,127.15744,무더위쉼터
고덕그라시움제1경로당,서울특별시 강동구 고덕로 333,37.55844,127.1628,무더위쉼터
고덕그라시움제2경로당,서울특별시 강동구 고덕로 333,37.55818,127.1656,무더위쉼터
고덕아르테온제2경로당,서울특별시 강동구 고덕로 360,37.55608,127.16679,무더위쉼터
고덕아르테온경로당,서울특별시 강동구 고덕로 360,37.55554,127.16799,무더위쉼터
고덕리엔파크2단지경로당,서울특별시 강동구 고덕로 427,37.55858,127.17278,무더위쉼터
강일동성당,서울특별시 강동구 고덕로 476,37.55788,127.17858,무더위쉼터
동원베네스트경로당,서울특별시 강동구 고덕로 52-11,37.55409,127.13107,무더위쉼터
신암중학교 운동장,서울특별시 강동구 고덕로 65,37.55546,127.13317,지진대피소
고덕전철역 지하1층역사,서울특별시 강동구 고덕로 지하 253,37.55563,127.15385,민방위대피시설
상일동역 지하1층 역사,서울특별시 강동구 고덕로 지하 359,37.55467,127.15697,민방위대피시설
복지말경로당,서울특별시 강동구 고덕로16길 46,37.5526,127.13296,"무더위쉼터, 한파쉼터"
한강포스파크경로당,서울특별시 강동구 고덕로19길 30,37.55621,127.13427,무더위쉼터
암사도서관,서울특별시 강동구 고덕로20길 42,37.55279,127.13332,무더위쉼터
암사1동제2경로당,서울특별시 강동구 고덕로24길 23,37.55364,127.13572,"무더위쉼터, 한파쉼터"
선사고등학교 운동장,서울특별시 강동구 고덕로25길 17,37.55595,127.13585,지진대피소
강일중학교 운동장,서울특별시 강동구 고덕로27길 12,37.55497,127.13825,지진대피소
강동현대홈타운경로당,서울특별시 강동구 고덕로27길 36,37.55671,127.13898,무더위쉼터
명일1동우성아파트경로당,서울특별시 강동구 고덕로38길 34-9,37.55289,127.14199,무더위쉼터
명일초등학교 운동장,서울특별시 강동구 고덕로38길 8,37.55402,127.14197,지진대피소
고명초등학교 운동장,서울특별시 강동구 고덕로46길 53,37.55265,127.14686,지진대피소
고덕현대(아)경로당,서울특별시 강동구 고덕로61길 35,37.55654,127.15212,무더위쉼터
배재현대아파트 지하1~3층주차장,서울특별시 강동구 고덕로61길 37,37.55652,127.1522,민방위대피시설
명일우성아파트경로당,서울특별시 강동구 고덕로62길 58,37.55144,127.15214,무더위쉼터
고덕숲아이파크경로당,서울특별시 강동구 고덕로80길 134,37.55123,127.16466,무더위쉼터
고덕센트럴아이파크경로당,서울특별시 강동구 고덕로80길 99,37.55226,127.16668,무더위쉼터
강일리버파크11단지경로당,서울특별시 강동구 고덕로97길 100,37.56273,127.18002,무더위쉼터
강일리버파크10단지경로당,서울특별시 강동구 고덕로97길 20,37.55888,127.18041,무더위쉼터
강일리버파크9단지경로당,서울특별시 강동구 고덕로97길 29,37.55995,127.17845,무더위쉼터
강동리엔파크11단지경로당,서울특별시 강동구 고덕로98길 101,37.55376,127.18091,무더위쉼터
강동리엔파크 11단지 지하주차장 1~2층,서울특별시 강동구 고덕로98길 101,37.55369,127.18104,민방위대피시설
강동리엔파크 14단지 지하주차장 1~2층,서울특별시 강동구 고덕로98길 160,37.55153,127.1807,민방위대피시설
강동리엔파크14단지경로당,서울특별시 강동구 고덕로98길 160,37.55143,127.18051,무더위쉼터
강동리엔파크 13단지 지하주차장 1~2층,서울특별시 강동구 고덕로98길 161,37.55191,127.18148,민방위대피시설
강동리엔파크13단지경로당,서울특별시 강동구 고덕로98길 161,37.55192,127.18156,무더위쉼터
강동리엔파크9단지경로당,서울특별시 강동구 고덕로98길 29,37.55725,127.18099,무더위쉼터
동서울신용협동조합천호지점,서울특별시 강동구 구천면로 236,37.54138,127.13056,무더위쉼터
천일초등학교운동장,서울특별시 강동구 구천면로 266,37.54403,127.13311,지진대피소
"동아하이빌아파트(지하1층, 지하3층, 지하5층 주차장)",서울특별시 강동구 구천면로 278,37.54471,127.13442,민방위대피시설
동아하이빌아파트경로당,서울특별시 강동구 구천면로 278,37.54472,127.13455,무더위쉼터
새마을금고천호지점,서울특별시 강동구 구천면로 290,37.54559,127.13364,무더위쉼터
일주빌딩 지하1층~지하2층,서울특별시 강동구 구천면로 304,37.54668,127.13492,민방위대피시설
천호초등학교 운동장,서울특별시 강동구 구천면로 310-11,37.54706,127.13621,지진대피소
강동농협본점지점,서울특별시 강동구 구천면로 331,37.5491,127.1361,무더위쉼터
천호우성아파트경로당,서울특별시 강동구 구천면로 366,37.54978,127.1387,무더위쉼터
명일1동 공영주차장(지하1층),서울특별시 강동구 구천면로 395,37.55095,127.14287,민방위대피시설
성덕고등학교 운동장(성덕여자중학교 운동장),서울특별시 강동구 구천면로 396,37.54989,127.14226,지진대피소
신한은행 명일역,서울특별시 강동구 구천면로 427,37.55052,127.14612,기후동행쉼터
명성교회 지하주차장(지하1층),서울특별시 강동구 구천면로 452,37.54856,127.14752,민방위대피시설
명일주공9단지아파트(전체동의 지하1층),서울특별시 강동구 구천면로 476,37.54792,127.15086,민방위대피시설
명일중앙하이츠경로당,서울특별시 강동구 구천면로 557,37.55066,127.15982,무더위쉼터
강동고등학교 운동장,서울특별시 강동구 구천면로 572,37.55025,127.16102,지진대피소
상일1동주민센터,서울특별시 강동구 구천면로 633,37.5506,127.16826,"무더위쉼터, 한파쉼터"
한국시각장애인복지관,서울특별시 강동구 구천면로 645,37.55104,127.16925,무더위쉼터
천호2동경로당,서울특별시 강동구 구천면로13길 21,37.54297,127.12252,"무더위쉼터, 한파쉼터"
천호문구거리경로당,서울특별시 강동구 구천면로18길 24,37.54065,127.12259,"무더위쉼터, 한파쉼터"
천호1동경로당,서울특별시 강동구 구천면로36길 9-4,37.54294,127.13242,"무더위쉼터, 한파쉼터"
곡교경로당,서울특별시 강동구 구천면로39길 23,37.5454,127.13184,"무더위쉼터, 한파쉼터"
천호한신아파트경로당,서울특별시 강동구 구천면로42길 16,37.54581,127.13473,무더위쉼터
천호1동주민센터,서울특별시 강동구 구천면로42길 59,37.54502,127.1368,"무더위쉼터, 한파쉼터"
천호1동 공영주차장  지하1층~지하3층 주차장,서울특별시 강동구 구천면로42길 60,37.5446,127.13662,민방위대피시설
암사1동제1경로당,서울특별시 강동구 구천면로59길 19,37.55077,127.13794,"무더위쉼터, 한파쉼터"
소망경로당,서울특별시 강동구 구천면로68나길 18,37.5485,127.1417,"무더위쉼터, 한파쉼터"
한영고등학교 운동장,서울특별시 강동구 동남로 832,37.54882,127.15735,지진대피소
강동아트센터,서울특별시 강동구 동남로 870,37.55132,127.15712,무더위쉼터
강동아트센터(잔디광장),서울특별시 강동구 동남로 870,37.55131,127.15749,지진대피소
하나은행고덕역(출)지점,서울특별시 강동구 동남로 892,37.55356,127.15741,무더위쉼터
강동경희대학교 병원 본관동 지하1층,"서울특별시 강동구 동남로 892, 강동경희대학교병원 본관동 지하 1층",37.55323,127.15741,민방위대피시설
서울컨벤션고등학교 운동장,서울특별시 강동구 동남로 964,37.55939,127.15762,지진대피소
광문고등학교 운동장,서울특별시 강동구 동남로 968,37.55994,127.1579,지진대피소
중앙보훈병원역 지하1층 역사,서울특별시 강동구 동남로 지하 625,37.52835,127.14835,민방위대피시설
둔촌동아아파트경로당,서울특별시 강동구 동남로49길 60-5,37.5332,127.14593,무더위쉼터
원터골경로당,서울특별시 강동구 동남로65길 46-8,37.54816,127.15367,"무더위쉼터, 한파쉼터"
우리은행고덕지점,서울특별시 강동구 동남로71길 19,37.55148,127.15468,무더위쉼터
명일한양아파트경로당,서울특별시 강동구 동남로71길 19,37.55044,127.15511,무더위쉼터
시립강동노인종합복지관,서울특별시 강동구 동남로71길 32-5,37.5523,127.15434,무더위쉼터
명일2동현대아파트경로당,서울특별시 강동구 동남로71길 37,37.55047,127.15361,무더위쉼터
고덕아이파크(아)경로당,서울특별시 강동구 동남로79길 26,37.55865,127.15559,무더위쉼터
"고덕아이파크(지하2~3층주차장(p3,p4(지하1~3층)",서울특별시 강동구 동남로79길 26,37.55893,127.15524,민방위대피시설
묘곡초등학교 운동장,서울특별시 강동구 동남로79길 46,37.55811,127.15331,지진대피소
고덕중학교 운동장,서울특별시 강동구 동남로82길 94,37.5602,127.16131,지진대피소
일자산공원 중앙광장,서울특별시 강동구 둔촌동 산125,37.53232,127.15083,지진대피소
신성둔촌미소지움2차(아)경로당,서울특별시 강동구 명일로 102,37.52787,127.14278,무더위쉼터
둔촌하이츠아파트경로당,서울특별시 강동구 명일로 113,37.52948,127.14238,무더위쉼터
하이츠아파트 지하주차장 지하1층,서울특별시 강동구 명일로 113,37.52953,127.1424,민방위대피시설
둔촌고등학교 운동장,서울특별시 강동구 명일로 140,37.53095,127.14391,지진대피소
둔촌푸르지오아파트경로당,서울특별시 강동구 명일로 172,37.53442,127.14718,무더위쉼터
기리울경로당,서울특별시 강동구 명일로 224-1,37.5386,127.14669,"무더위쉼터, 한파쉼터"
서울시산림조합길동지점,서울특별시 강동구 명일로 243,37.5404,127.14668,무더위쉼터
길동삼익파크아파트(남)경로당,서울특별시 강동구 명일로 293,37.54463,127.14742,무더위쉼터
길동삼익파크아파트(여)경로당,서울특별시 강동구 명일로 293,37.54455,127.14743,무더위쉼터
명일여자고등학교 운동장,서울특별시 강동구 명일로 350,37.54957,127.15026,지진대피소
명원초등학교 운동장,서울특별시 강동구 명일로 364,37.55084,127.15039,지진대피소
선린경로당,서울특별시 강동구 명일로10나길 5,37.53152,127.1446,"무더위쉼터, 한파쉼터"
신명초등학교 운동장,서울특별시 강동구 명일로24길 33,37.54115,127.14934,지진대피소
신명중학교 운동장,서울특별시 강동구 명일로24길 33,37.54213,127.14942,지진대피소
선사현대아파트경로당,서울특별시 강동구 상암로 11,37.55233,127.12552,무더위쉼터
선사현대아파트(지하 2-3층 주차장),서울특별시 강동구 상암로 11,37.5524,127.12581,민방위대피시설
암사2동제2경로당,서울특별시 강동구 상암로 12-19,37.55002,127.12555,"무더위쉼터, 한파쉼터"
천호중학교 운동장,서울특별시 강동구 상암로 153,37.54631,127.13996,지진대피소
강동구민회관 지하1층,서울특별시 강동구 상암로 168,37.5457,127.14116,민방위대피시설
강동구민회관,서울특별시 강동구 상암로 168,37.54573,127.14109,무더위쉼터
현대종합상가 지하1층,서울특별시 강동구 상암로 210,37.5463,127.14579,민방위대피시설
삼익가든아파트(전동지하1층),서울특별시 강동구 상암로 214,37.5472,127.14771,민방위대피시설
삼익가든아파트경로당,서울특별시 강동구 상암로 214,37.54733,127.14805,무더위쉼터
명일2동주민센터,서울특별시 강동구 상암로 260,37.54636,127.15135,"무더위쉼터, 한파쉼터"
대명초등학교 운동장,서울특별시 강동구 상암로 271,37.54714,127.15329,지진대피소
상일1동제2경로당,서울특별시 강동구 상암로 413,37.54577,127.16872,"무더위쉼터, 한파쉼터"
강동초등학교 운동장,서울특별시 강동구 상암로14길 77,37.54592,127.12997,지진대피소
강암경로당,서울특별시 강동구 상암로15길 38-15,37.55046,127.13206,"무더위쉼터, 한파쉼터"
장생경로당,서울특별시 강동구 상암로23길 7-10,37.54802,127.13379,"무더위쉼터, 한파쉼터"
십자성경로당,서울특별시 강동구 상암로28길 24,37.54508,127.13707,"무더위쉼터, 한파쉼터"
암사2동주민센터,서울특별시 강동구 상암로3길 28,37.55171,127.12727,"무더위쉼터, 한파쉼터"
삼성광나루아파트(지하 1층 주차장),서울특별시 강동구 상암로3길 77,37.55404,127.1271,민방위대피시설
삼성광나루아파트경로당,서울특별시 강동구 상암로3길 77,37.55403,127.12715,무더위쉼터
명일지에스아파트경로당,서울특별시 강동구 상암로51길 54,37.5489,127.14683,무더위쉼터
명일지에스아파트(전동지하1층),서울특별시 강동구 상암로51길 61,37.54902,127.14567,민방위대피시설
고덕롯데캐슬베네루체경로당,서울특별시 강동구 상암로79길 88,37.5489,127.16754,무더위쉼터
명일공원(상일동산),서울특별시 강동구 상일동 184,37.54908,127.16557,지진대피소
상일2동주민센터,서울특별시 강동구 상일동 산 77-27,37.55514,127.17974,"무더위쉼터, 한파쉼터"
고덕리엔파크1단지경로당,서울특별시 강동구 상일로 152,37.56056,127.17147,무더위쉼터
고덕자이아파트경로당,서울특별시 강동구 상일로 55,37.55226,127.17083,무더위쉼터
고덕리엔파크3단지경로당,서울특별시 강동구 상일로 74,37.55188,127.17449,무더위쉼터
고덕리엔파크 3단지(전체 동의 지하주차장 1층),서울특별시 강동구 상일로 74,37.55242,127.17532,민방위대피시설
강명초등학교 운동장,서울특별시 강동구 상일로 74-1,37.55423,127.17349,지진대피소
국민은행상일동지점,서울특별시 강동구 상일로10길 36,37.55101,127.17417,무더위쉼터
강명중학교운동장,서울특별시 강동구 상일로12길 56,37.55533,127.17508,지진대피소
고덕2동경로당,서울특별시 강동구 상일로21길 14-7,37.56004,127.16949,"무더위쉼터, 한파쉼터"
상일동경로당,서울특별시 강동구 상일로5길 26,37.54927,127.17147,"무더위쉼터, 한파쉼터"
우리은행삼성엔지니어링사옥,서울특별시 강동구 상일로6길 26,37.54878,127.17485,무더위쉼터
삼성엔지니어링(지하주차장 2~4층),서울특별시 강동구 상일로6길 26,37.54887,127.17533,민방위대피시설
한솔솔파크 더리버 아파트(지하 1층 주차장),서울특별시 강동구 선사로 120,37.54963,127.12357,민방위대피시설
국민은행강동구청역지점,서울특별시 강동구 성내로 12,37.53015,127.12186,무더위쉼터
성내1동주민센터,서울특별시 강동구 성내로 13,37.53048,127.12246,"무더위쉼터, 한파쉼터"
서경빌딩 지하1층~지하2층 주차장,서울특별시 강동구 성내로 19,37.53025,127.12293,민방위대피시설
강동구청,서울특별시 강동구 성내로 25,37.53026,127.1238,"무더위쉼터, 한파쉼터"
우리은행강동구청지점,서울특별시 강동구 성내로 25,37.53016,127.12379,무더위쉼터
강동구청 본청사 및 제2청사 지하1층,"서울특별시 강동구 성내로 25, 강동구청 지하1층",37.53009,127.12369,민방위대피시설
강동메가박스 지하1층~지하2층 주차장,서울특별시 강동구 성내로 48,37.52853,127.12515,민방위대피시설
강동수도사업소 지하1층,서울특별시 강동구 성내로 51,37.52902,127.12603,민방위대피시설
강동경찰서 지하1층 ~지하2층주차장,서울특별시 강동구 성내로 57,37.52868,127.12674,민방위대피시설
성일초등학교운동장,서울특별시 강동구 성내로15길 33,37.52912,127.12838,지진대피소
성내하니공원,서울특별시 강동구 성내로3가길 71,37.5298,127.1267,지진대피소
성내1동경로당,서울특별시 강동구 성내로3가길 71,37.52945,127.12654,"무더위쉼터, 한파쉼터"
성내초등학교 운동장,서울특별시 강동구 성내로3길 19,37.53104,127.12211,지진대피소
기업은행강동구청역지점,서울특별시 강동구 성내로6길 11,37.52905,127.12342,무더위쉼터
인애가한방병원,서울특별시 강동구 성내로6길 15,37.52883,127.12297,무더위쉼터
강동성심병원,서울특별시 강동구 성안로 150,37.5361,127.13535,무더위쉼터
한빛(아)경로당,서울특별시 강동구 성안로 176,37.53852,127.1363,무더위쉼터
천동초등학교 운동장,서울특별시 강동구 성안로 200,37.54051,127.13753,지진대피소
성내종합사회복지관,서울특별시 강동구 성안로13길 56,37.53218,127.12932,무더위쉼터
천호삼성아파트(할머니)경로당,서울특별시 강동구 성안로25길 15,37.53769,127.1346,무더위쉼터
삼성아파트(전동지하1층),서울특별시 강동구 성안로25길 6,37.53872,127.13523,민방위대피시설
천호삼성아파트(할아버지)경로당,서울특별시 강동구 성안로25길 6,37.53876,127.1352,무더위쉼터
당말경로당,서울특별시 강동구 성안로31길 11,37.54034,127.13598,"무더위쉼터, 한파쉼터"
성내천경로당,서울특별시 강동구 성안로3길 112-9,37.52851,127.12404,"무더위쉼터, 한파쉼터"
성내중학교 운동장,서울특별시 강동구 성안로7길 36,37.5285,127.12954,지진대피소
강동농협강일지점,서울특별시 강동구 아리수로 427,37.56497,127.17466,무더위쉼터
양지마을경로당,서울특별시 강동구 아리수로25길 58,37.55929,127.13679,무더위쉼터
래미안힐스테이트고덕(남)경로당,서울특별시 강동구 아리수로50길 50,37.559,127.14711,무더위쉼터
래미안힐스테이트고덕(여)경로당,서울특별시 강동구 아리수로50길 50,37.55898,127.14705,무더위쉼터
래미안힐스테이트 고덕(지하1~3층 주차장),서울특별시 강동구 아리수로50길 50,37.55895,127.14708,민방위대피시설
고일경로당,서울특별시 강동구 아리수로64길 29,37.56086,127.15377,"무더위쉼터, 한파쉼터"
방죽말경로당,서울특별시 강동구 아리수로72길 60-16,37.56165,127.16275,"무더위쉼터, 한파쉼터"
동명근린공원 축구장,서울특별시 강동구 아리수로78길 23,37.56108,127.1649,지진대피소
고덕2동주민센터,서울특별시 강동구 아리수로78길 43-12,37.56051,127.16436,"무더위쉼터, 한파쉼터"
고덕초등학교 운동장,서울특별시 강동구 아리수로82길 42,37.56063,127.1666,지진대피소
강동리버스트4단지경로당,서울특별시 강동구 아리수로93가길 110,37.573,127.1721,무더위쉼터
강동리버스트4단지(지하1층~2층 주차장),서울특별시 강동구 아리수로93가길 110,37.57292,127.17222,민방위대피시설
강일리버파크1단지경로당,서울특별시 강동구 아리수로93가길 25,37.56823,127.1717,무더위쉼터
강동리버스트7단지경로당,서울특별시 강동구 아리수로93가길 70,37.57072,127.17397,무더위쉼터
강동리버스트6단지경로당,서울특별시 강동구 아리수로93가길 77,37.5707,127.1696,무더위쉼터
강일리버파크3단지경로당,서울특별시 강동구 아리수로93길 40,37.56627,127.1739,무더위쉼터
홀트강동복지관,서울특별시 강동구 아리수로93길 41,37.56628,127.17322,무더위쉼터
강일동주민센터,서울특별시 강동구 아리수로93길 9-14,37.56501,127.17397,"무더위쉼터, 한파쉼터"
강동리버스트8단지(지하1~2층 주차장),서울특별시 강동구 아리수로93나길 88,37.57153,127.1762,민방위대피시설
강일리버파크6단지경로당,서울특별시 강동구 아리수로94길 19,37.5638,127.1765,무더위쉼터
강일리버파크4단지경로당,서울특별시 강동구 아리수로97길 19,37.56709,127.17573,무더위쉼터
강일리버파크5단지경로당,서울특별시 강동구 아리수로97길 20,37.56819,127.17866,무더위쉼터
서울강동새마을금고강일지점,서울특별시 강동구 아리수로97길 20,37.5668,127.17773,무더위쉼터
강동중학교운동장,서울특별시 강동구 아리수로97길 68,37.56938,127.17613,지진대피소
강일리버파크2단지경로당,서울특별시 강동구 아리수로97길 68,37.57021,127.17656,무더위쉼터
강일초등학교운동장,서울특별시 강동구 아리수로98길 24,37.56498,127.17732,지진대피소
강일리버파크7단지경로당,서울특별시 강동구 아리수로98길 25,37.56589,127.17831,무더위쉼터
강일고등학교운동장,서울특별시 강동구 아리수로98길 40,37.56418,127.17739,지진대피소
암사1동제3경로당,서울특별시 강동구 암사13길 13-3,37.55259,127.13674,"무더위쉼터, 한파쉼터"
암사한솔아파트경로당,서울특별시 강동구 암사19길 25,37.55205,127.14022,무더위쉼터
새장터경로당,서울특별시 강동구 암사1가길 16,37.55213,127.13058,"무더위쉼터, 한파쉼터"
한스빌딩 지하주차장 1층,서울특별시 강동구 암사길 51,37.55206,127.13502,민방위대피시설
신한은행 둔촌동,서울특별시 강동구 양재대로 1315,37.52384,127.13429,기후동행쉼터
기업은행둔촌동지점,서울특별시 강동구 양재대로 1317,37.52399,127.13436,무더위쉼터
한전강동지점,"서울특별시 강동구 양재대로 1318, 한국전력 강동송파지사",37.52382,127.13557,민방위대피시설
강동농협둔촌역지점,서울특별시 강동구 양재대로 1349,37.52672,127.13536,무더위쉼터
KEB하나은행둔촌역지점,서울특별시 강동구 양재대로 1349,37.52666,127.13534,무더위쉼터
심포니타워 지하주차장 2층/3층,서울특별시 강동구 양재대로 1365,37.52808,127.13581,민방위대피시설
우리은행둔촌역금융센터,서울특별시 강동구 양재대로 1377,37.52922,127.13626,무더위쉼터
국민은행길동지점,서울특별시 강동구 양재대로 1443,37.53493,127.13854,무더위쉼터
농협길동지점,서울특별시 강동구 양재대로 1458,37.53583,127.13956,무더위쉼터
신한은행길동지점,서울특별시 강동구 양재대로 1463,37.5366,127.13928,무더위쉼터
신한은행 길동,서울특별시 강동구 양재대로 1464,37.53652,127.13979,기후동행쉼터
강동신용협동조합길동지점,서울특별시 강동구 양재대로 1477,37.5378,127.1397,무더위쉼터
국민은행굽은다리역지점,서울특별시 강동구 양재대로 1553,37.54436,127.14209,무더위쉼터
우리은행길동지점,서울특별시 강동구 양재대로 1554,37.54415,127.14278,무더위쉼터
하나은행강동중앙지점,서울특별시 강동구 양재대로 1566,37.54523,127.14318,무더위쉼터
신한은행굽은다리역지점,서울특별시 강동구 양재대로 1568,37.5454,127.1433,무더위쉼터
홈플러스강동점,서울특별시 강동구 양재대로 1571,37.54571,127.14225,무더위쉼터
홈플러스 지하3층~지하6층 주차장,서울특별시 강동구 양재대로 1571,37.54572,127.14225,민방위대피시설
동산빌딩(지하1층 주차장),서울특별시 강동구 양재대로 1584,37.54701,127.14363,민방위대피시설
대신증권 지하1층주차장,서울특별시 강동구 양재대로 1596,37.54804,127.14376,민방위대피시설
우리은행명일동지점,서울특별시 강동구 양재대로 1618,37.5499,127.1442,무더위쉼터
명일1동주민센터,서울특별시 강동구 양재대로 1634,37.5514,127.1442,"무더위쉼터, 한파쉼터"
래미안솔베뉴아파트 지하주차장(지하1층~지하3층),서울특별시 강동구 양재대로 1650,37.55277,127.14535,민방위대피시설
강동농협명일역지점,서울특별시 강동구 양재대로 1655,37.55356,127.14388,무더위쉼터
국민은행명일동지점,서울특별시 강동구 양재대로 1661,37.55386,127.14394,무더위쉼터
국민은행 명일동지점(지하1층 주차장),서울특별시 강동구 양재대로 1661,37.55385,127.1439,민방위대피시설
고덕아남(아)경로당,서울특별시 강동구 양재대로 1706,37.55787,127.14602,무더위쉼터
고덕대우아파트관리사무소,서울특별시 강동구 양재대로 1716,37.5589,127.14476,무더위쉼터
굽은다리역 지하1층,서울특별시 강동구 양재대로 지하 1572,37.54605,127.14317,민방위대피시설
달님 경로당,서울특별시 강동구 양재대로112길 52,37.53619,127.14254,한파쉼터
길동초등학교 운동장,서울특별시 강동구 양재대로116길 69,37.53816,127.14464,지진대피소
무궁화경로당,서울특별시 강동구 양재대로124길 62,37.54237,127.1454,"무더위쉼터, 한파쉼터"
명성교회 월드글로리아센터(지하1층 주차장),서울특별시 강동구 양재대로134길 52,37.54748,127.14647,민방위대피시설
명덕초등학교 운동장,서울특별시 강동구 양재대로156길 11,37.55691,127.14544,지진대피소
고덕1동주민센터,서울특별시 강동구 양재대로156길 123,37.55728,127.15151,"무더위쉼터, 한파쉼터"
성가정노인종합복지관,서울특별시 강동구 양재대로156길 28,37.55606,127.14651,무더위쉼터
둔촌1동주민센터,서울특별시 강동구 양재대로84길 31,37.52342,127.1367,무더위쉼터
국민은행둔촌역지점,서울특별시 강동구 양재대로84길 31,37.52341,127.13673,무더위쉼터
성내3동제2경로당,서울특별시 강동구 양재대로85길 59,37.52472,127.13131,"무더위쉼터, 한파쉼터"
하나플러스2차아파트 지하주차장 1층,"서울특별시 강동구 양재대로85길 60, 지하1층",37.52534,127.13155,민방위대피시설
선린공원경로당,서울특별시 강동구 양재대로91나길 14,37.528,127.1323,"무더위쉼터, 한파쉼터"
둔촌신동아(아)경로당,서울특별시 강동구 양재대로96길 79,37.52915,127.14184,무더위쉼터
성내3동제1경로당,서울특별시 강동구 양재대로97길 41,37.53135,127.13479,"무더위쉼터, 한파쉼터"
농협중앙회 서울지역본부 지하1층,서울특별시 강동구 올림픽로 528,37.52881,127.12033,민방위대피시설
농협서울영업본부점,서울특별시 강동구 올림픽로 528,37.52898,127.12043,무더위쉼터
농협천호동지점,서울특별시 강동구 올림픽로 659,37.54031,127.12356,무더위쉼터
신한은행 강동금융센터,서울특별시 강동구 올림픽로 674,37.54146,127.1248,기후동행쉼터
해공도서관,서울특별시 강동구 올림픽로 702,37.54384,127.12555,무더위쉼터
천호공원광장,서울특별시 강동구 올림픽로 702,37.54451,127.12644,지진대피소
국민은행암사역지점,서울특별시 강동구 올림픽로 767,37.54959,127.127,무더위쉼터
우리은행암사역지점,서울특별시 강동구 올림픽로 769,37.54996,127.12718,무더위쉼터
강동신용협동조합암사본점,서울특별시 강동구 올림픽로 796,37.55208,127.12854,무더위쉼터
강동농협선사지점,서울특별시 강동구 올림픽로 802,37.55254,127.12867,무더위쉼터
선사초등학교운동장,서울특별시 강동구 올림픽로 837,37.55598,127.12923,지진대피소
서원마을경로당,서울특별시 강동구 올림픽로 936,37.56401,127.13338,"무더위쉼터, 한파쉼터"
한강현대경로당,서울특별시 강동구 올림픽로104길 36,37.55519,127.13193,무더위쉼터
성내2동경로당,서울특별시 강동구 올림픽로62길 35,37.53654,127.1248,"무더위쉼터, 한파쉼터"
천호2동주민센터,서울특별시 강동구 올림픽로80길 60,37.54245,127.12834,무더위쉼터
쉼터경로당,서울특별시 강동구 올림픽로89길 27-23,37.5468,127.12409,"무더위쉼터, 한파쉼터"
신암초등학교 운동장,서울특별시 강동구 올림픽로93길 33-16,37.54893,127.12416,지진대피소
암사1동주민센터,서울특별시 강동구 올림픽로98가길 57,37.55148,127.13264,"무더위쉼터, 한파쉼터"
천삼경로당,서울특별시 강동구 진황도로 13,37.5399,127.12922,"무더위쉼터, 한파쉼터"
약수경로당,서울특별시 강동구 진황도로 150-8,37.53279,127.14086,"무더위쉼터, 한파쉼터"
둔촌현대4차아파트경로당,서울특별시 강동구 진황도로 185,37.52953,127.14384,무더위쉼터
현대3차아파트 지하주차장 지하1층,서울특별시 강동구 진황도로 211,37.52736,127.14487,민방위대피시설
둔촌현대3차아파트경로당,서울특별시 강동구 진황도로 211,37.52739,127.1448,무더위쉼터
신성둔촌미소지움1차(아)경로당,서울특별시 강동구 진황도로 212,37.52739,127.14362,무더위쉼터
현대아파트(전동지하),서울특별시 강동구 진황도로 47-2,37.53843,127.13278,민방위대피시설
동신중학교 운동장,서울특별시 강동구 진황도로 72,37.53646,127.13399,지진대피소
천호3동주민센터,서울특별시 강동구 진황도로23길 7,37.53993,127.12978,무더위쉼터
강동종합사회복지관,서울특별시 강동구 진황도로23길 7,37.53996,127.12978,무더위쉼터
천호3동(여)경로당,서울특별시 강동구 진황도로23길 7,37.53983,127.12977,무더위쉼터
천호3동 공영주차장(지하1~3층),서울특별시 강동구 진황도로29길 34,37.53892,127.13324,민방위대피시설
천호성원아파트경로당,서울특별시 강동구 진황도로31길 26,37.53874,127.13422,무더위쉼터
둔촌중학교 운동장,서울특별시 강동구 진황도로61길 25-30,37.53023,127.14612,지진대피소
선린초등학교 운동장,서울특별시 강동구 진황도로61길 29,37.5292,127.14578,지진대피소
중앙보훈병원,서울특별시 강동구 진황도로61길 53,37.52878,127.14761,무더위쉼터
강동농협길일지점,서울특별시 강동구 천중로 200,37.5407,127.1425,무더위쉼터
구강사,서울특별시 강동구 천중로 64,37.54482,127.12882,무더위쉼터
해공경로당,서울특별시 강동구 천중로12길 23-23,37.54381,127.12841,"무더위쉼터, 한파쉼터"
구립해공노인복지관,서울특별시 강동구 천중로17길 42-16,37.54618,127.13173,무더위쉼터
해공체육문화센터,서울특별시 강동구 천중로18길 61,37.54209,127.1297,무더위쉼터
성심경로당,서울특별시 강동구 천중로40길 66,37.53832,127.13739,"무더위쉼터, 한파쉼터"
강동노인회관,서울특별시 강동구 천중로49길 104,37.54528,127.1447,"무더위쉼터, 한파쉼터"
길동라인아파트경로당,서울특별시 강동구 천중로50길 48-12,37.5393,127.1417,무더위쉼터
현대백화점천호점,서울특별시 강동구 천호대로 1005,37.53898,127.12443,무더위쉼터
이마트천호점,서울특별시 강동구 천호대로 1017,37.53873,127.12515,무더위쉼터
기업은행천호동지점,서울특별시 강동구 천호대로 1033,37.5379,127.12696,무더위쉼터
세우빌딩 지하1층,서울특별시 강동구 천호대로 1037,37.53784,127.12734,민방위대피시설
천호태영A제2경로당,서울특별시 강동구 천호대로 1055,37.53874,127.13012,무더위쉼터
천호태영A제1경로당,서울특별시 강동구 천호대로 1055,37.538,127.12975,무더위쉼터
힐탑오피스텔(지하1~4층),서울특별시 강동구 천호대로 1073,37.53664,127.13138,민방위대피시설
래미안강동팰리스경로당,서울특별시 강동구 천호대로 1077,37.53737,127.13207,무더위쉼터
씨제이나인파크(지하1~5층),서울특별시 강동구 천호대로 1078,37.53582,127.13127,민방위대피시설
KEB하나은행강동역점,서울특별시 강동구 천호대로 1089,37.5361,127.1332,무더위쉼터
현대코아아파트 지하3층,서울특별시 강동구 천호대로 1095,37.536,127.13374,민방위대피시설
천호현대타워(아)경로당,서울특별시 강동구 천호대로 1095,37.53595,127.13368,무더위쉼터
현대모터프라자(지하1~3층),서울특별시 강동구 천호대로 1096,37.53519,127.13321,민방위대피시설
SC제일은행강동역지점,서울특별시 강동구 천호대로 1102,37.53516,127.13363,무더위쉼터
강동웨딩문화센터(지하1~3층),서울특별시 강동구 천호대로 1102,37.53515,127.13363,민방위대피시설
SH수협길동사거리지점,서울특별시 강동구 천호대로 1133,37.53463,127.13747,무더위쉼터
기업은행길동지점,서울특별시 강동구 천호대로 1139,37.53453,127.1381,무더위쉼터
길동주민센터,서울특별시 강동구 천호대로 1183,37.53466,127.14261,"무더위쉼터, 한파쉼터"
우리은행둔촌동지점,서울특별시 강동구 천호대로 1190,37.5342,127.1435,무더위쉼터
둔촌프라자아파트경로당,서울특별시 강동구 천호대로 1238,37.53547,127.14825,무더위쉼터
GS강동자이경로당,서울특별시 강동구 천호대로 1239,37.53757,127.14911,무더위쉼터
서울강동새마을금고상일동본점,서울특별시 강동구 천호대로 1461,37.54602,127.17044,무더위쉼터
상일초등학교 운동장,서울특별시 강동구 천호대로 1477,37.54699,127.17236,지진대피소
지하철 강동역(지하1층),서울특별시 강동구 천호대로 지하 1097,37.53578,127.13413,민방위대피시설
풍납동 천호역5호선9~10번 출구 지하1층~지하3층,서울특별시 강동구 천호대로 지하 997,37.5385,127.12511,민방위대피시설
나비빌딩 지하1층,서울특별시 강동구 천호대로157길 14,37.53823,127.12724,민방위대피시설
강동농협로데오지점,서울특별시 강동구 천호대로157길 53,37.54018,127.12753,무더위쉼터
구사거리경로당,서울특별시 강동구 천호대로161길 21,37.5382,127.1289,"무더위쉼터, 한파쉼터"
이안강동(지하1~3층),서울특별시 강동구 천호대로162길 34,37.53554,127.12794,민방위대피시설
성내분토골경로당,서울특별시 강동구 천호대로168길 18-11,37.53498,127.13152,무더위쉼터
둔촌2동주민센터,서울특별시 강동구 천호대로186길 7,37.53334,127.14195,"무더위쉼터, 한파쉼터"
길동우성아파트경로당,서울특별시 강동구 천호대로187길 74,37.53715,127.14417,무더위쉼터
둔촌2동경로당,서울특별시 강동구 천호대로188길 39,37.53228,127.14322,"무더위쉼터, 한파쉼터"
한솔솔파크경로당,서울특별시 강동구 천호대로198길 36,37.5339,127.14806,무더위쉼터
일자산 그린웨이캠핑장,서울특별시 강동구 천호대로206길 87,37.53622,127.15294,지진대피소
상일여자고등학교 운동장,서울특별시 강동구 천호대로219길 61,37.54907,127.17018,지진대피소
게내경로당,서울특별시 강동구 천호대로219길 72,37.54898,127.17108,"무더위쉼터, 한파쉼터"
신한오피스텔 지하1층 지하주차장,서울특별시 강동구 천호옛길 34,37.53225,127.12267,민방위대피시설
성안마을청구아파트경로당,서울특별시 강동구 풍성로 114-1,37.53168,127.12466,무더위쉼터
성내동삼성아파트(전체동 지하1층),서울특별시 강동구 풍성로 128,37.53076,127.12599,민방위대피시설
서울강동새마을금고성내지점,서울특별시 강동구 풍성로 161,37.53078,127.12998,무더위쉼터
둔촌역청구(아)경로당,서울특별시 강동구 풍성로 194,37.5294,127.1332,무더위쉼터
천주교둔촌동교회 지하 1층,서울특별시 강동구 풍성로 241,37.52876,127.13858,민방위대피시설
한산중학교 운동장,서울특별시 강동구 풍성로 251,37.52824,127.14005,지진대피소
한산초등학교운동장,서울특별시 강동구 풍성로 261,37.52804,127.14141,지진대피소
더숲작은도서관,서울특별시 강동구 풍성로35길 19,37.53301,127.12487,무더위쉼터
성내2동주민센터,서울특별시 강동구 풍성로37가길 62,37.5324,127.12957,"무더위쉼터, 한파쉼터"
강동농협성내지점,서울특별시 강동구 풍성로37길 44,37.53376,127.12673,무더위쉼터
안말경로당,서울특별시 강동구 풍성로45길 11,37.53146,127.12993,"무더위쉼터, 한파쉼터"
안말어린이공원 공영주차장(지하1~3층),서울특별시 강동구 풍성로45길 11,37.53151,127.12995,민방위대피시설
신성통상 지하주차장 지하1층,서울특별시 강동구 풍성로63길 84,37.53172,127.14034,민방위대피시설
라이프아파트 지하주차장 지하1층,서울특별시 강동구 풍성로65길 29,37.52952,127.13956,민방위대피시설
현대2차아파트 지하주차장 지하1층,서울특별시 강동구 풍성로65길 34,37.52936,127.14056,민방위대피시설
통일교육원-인수동(지하1층),서울특별시 강북구 4.19로 123,37.64168,127.00344,민방위대피시설
수유3동주민센터,서울특별시 강북구 노해로 36,37.63869,127.02314,"무더위쉼터, 한파쉼터"
성실교회(지하2~3층 주차장)-수유3동,서울특별시 강북구 노해로 50,37.64014,127.0229,민방위대피시설
우림빌딩(지하1층)-수유3동,서울특별시 강북구 노해로 70,37.64183,127.02267,민방위대피시설
흰구름공원(수유2동근린공원),서울특별시 강북구 노해로23길 58,37.64572,127.02043,지진대피소
수유2동경로당,서울특별시 강북구 노해로23길 94,37.6468,127.01883,"무더위쉼터, 한파쉼터"
우암센스뷰(지하2층) (수유3동),서울특별시 강북구 노해로8길 16,37.63778,127.02404,민방위대피시설
경남아너스빌(지하2층 ~ 4층)-수유3동,서울특별시 강북구 노해로8길 22,37.63799,127.02425,민방위대피시설
상산경로당,서울특별시 강북구 노해로8길 23,37.63831,127.02392,"무더위쉼터, 한파쉼터"
상산어린이공원(플라터너스어린이공원),서울특별시 강북구 노해로8길 23,37.63831,127.02383,지진대피소
현대크리스탈(지하1~2층)-수유3동,서울특별시 강북구 노해로8길 29,37.63853,127.0242,민방위대피시설
파스칼진 빌딩(지하2층 주차장)(번1동),서울특별시 강북구 덕릉로 113,37.63519,127.02636,민방위대피시설
"제네스타워빌딩 지하2,3층 주차장-수유1동",서울특별시 강북구 덕릉로 82,37.6344,127.02285,민방위대피시설
세일어린이공원,서울특별시 강북구 덕릉로30길 30,37.63356,127.02525,지진대피소
장수촌경로당,서울특별시 강북구 덕릉로36길 22-4,37.63383,127.02818,"무더위쉼터, 한파쉼터"
수유역두산위브아파트1 지하1층 주차장(번1동),서울특별시 강북구 덕릉로41길 12,37.63584,127.03202,민방위대피시설
수유역두산위브아파트2 지하1층 주차장(번1동),서울특별시 강북구 덕릉로41길 15,37.63567,127.03091,민방위대피시설
두산위브(아)경로당,서울특별시 강북구 덕릉로41길 15,37.6356,127.0309,"무더위쉼터, 한파쉼터"
번1동주민센터,서울특별시 강북구 덕릉로41길 74,37.63786,127.02884,"무더위쉼터, 한파쉼터"
번1동경로당,서울특별시 강북구 덕릉로41길 92,37.63822,127.02804,"무더위쉼터, 한파쉼터"
논골어린이공원,서울특별시 강북구 덕릉로41길 92,37.63838,127.02805,지진대피소
샘골경로당,서울특별시 강북구 덕릉로44길 6-4,37.63504,127.03242,"무더위쉼터, 한파쉼터"
무등양말빌딩(송중동)(지하2층),서울특별시 강북구 도봉로 132,37.62077,127.02872,민방위대피시설
풍양빌딩(송중동)(지하1~3층),"서울특별시 강북구 도봉로 136, 풍양빌딩",37.6211,127.02871,민방위대피시설
신한은행 미아동,서울특별시 강북구 도봉로 151,37.62233,127.0274,기후동행쉼터
두원프라자아파트 지하 3~5층 주차장 - 송천동,서울특별시 강북구 도봉로 157,37.62274,127.027,민방위대피시설
미성빌딩-미아동(지하1층 ~ 지하 2층),"서울특별시 강북구 도봉로 188, 미성빌딩",37.62564,127.0271,민방위대피시설
"삼호아파트(수유프라자) 지하2,3층 주차장 (수유1동)",서울특별시 강북구 도봉로 261,37.6317,127.02345,민방위대피시설
대한병원-인수동(지하1층),서울특별시 강북구 도봉로 301,37.63526,127.0229,민방위대피시설
효성인텔리언빌딩(지하2층)-수유3동,서울특별시 강북구 도봉로 313,37.63643,127.02341,민방위대피시설
가든타워 빌딩(지하 2~6층 주차장) (번1동),서울특별시 강북구 도봉로 328,37.63707,127.02521,민방위대피시설
트레지오(송중동)(지하2~5층),서울특별시 강북구 도봉로 34,37.61206,127.03072,민방위대피시설
교보생명 빌딩(지하 2~3층 주차장) (번1동),서울특별시 강북구 도봉로 348,37.6384,127.02644,민방위대피시설
효성네오인텔리안(지하2~6층 주차장)(번1동),서울특별시 강북구 도봉로 352,37.63867,127.02704,민방위대피시설
신한은행 강북금융센터,서울특별시 강북구 도봉로 364,37.63962,127.02786,기후동행쉼터
미아사거리역(송중동)(지하1층),서울특별시 강북구 도봉로 48,37.61327,127.03036,민방위대피시설
와이스퀘어(지하3~4층),"서울특별시 강북구 도봉로 52, 연이빌딩",37.6137,127.03051,민방위대피시설
롯데백화점(송중동)(지하3~6층),서울특별시 강북구 도봉로 62,37.61422,127.03053,민방위대피시설
수유역(지하1층)-수유3동,서울특별시 강북구 도봉로 지하 338,37.64029,127.02421,민방위대피시설
미아역-미아동(지하1층~2층),"서울특별시 강북구 도봉로 지하198, 미아역",37.62945,127.02475,민방위대피시설
번창교하부,서울특별시 강북구 도봉로102길 21,37.64225,127.03174,무더위쉼터
영훈고등학교운동장,서울특별시 강북구 도봉로13가길 19,37.61399,127.0279,지진대피소
송중경로당,서울특별시 강북구 도봉로34길 25-3,37.62238,127.02949,"무더위쉼터, 한파쉼터"
요한경로당,서울특별시 강북구 도봉로49길 62,37.62471,127.02297,"무더위쉼터, 한파쉼터"
현대아파트- 미아동(지하1층),서울특별시 강북구 도봉로68길 26,37.63078,127.02579,민방위대피시설
대림쇼핑아파트(수유주상복합) 지하2층 주차장(수유1동),서울특별시 강북구 도봉로71가길 11,37.63192,127.02222,민방위대피시설
큰무네미경로당,서울특별시 강북구 도봉로71가길 30-9,37.63257,127.02264,"무더위쉼터, 한파쉼터"
운산경로당,서울특별시 강북구 도봉로72길 14-4,37.63191,127.02504,"무더위쉼터, 한파쉼터"
운산어린이공원,서울특별시 강북구 도봉로72길 28,37.63209,127.02556,지진대피소
미아요진아파트- 미아동(지하2층),서울특별시 강북구 도봉로76길 56,37.63345,127.02702,민방위대피시설
"수유동 이테크벨리오피스텔 지하2,3층 주차장-수유1동",서울특별시 강북구 도봉로77길 6,37.63377,127.0228,민방위대피시설
강북구청,서울특별시 강북구 도봉로89길 13,37.63968,127.02557,"무더위쉼터, 한파쉼터"
강북구청(지하1층)-수유3동,서울특별시 강북구 도봉로89길 13,37.63954,127.02547,민방위대피시설
은모루경로당,서울특별시 강북구 도봉로95길 38-1,37.64223,127.02703,"무더위쉼터, 한파쉼터"
은모루어린이공원,서울특별시 강북구 도봉로95길 48,37.6424,127.02682,지진대피소
샛강경로당,서울특별시 강북구 도봉로96나길 9-1,37.63904,127.03239,"무더위쉼터, 한파쉼터"
샛강어린이공원,서울특별시 강북구 도봉로96다길 6,37.63934,127.03298,지진대피소
번동삼성(아)경로당,서울특별시 강북구 도봉로98길 33,37.64145,127.032,"무더위쉼터, 한파쉼터"
삼성아파트(지하2층 주차장)(번1동),서울특별시 강북구 도봉로98길 33,37.64144,127.03188,민방위대피시설
오패어린이공원,서울특별시 강북구 미아동 258-236,37.62235,127.03231,지진대피소
벽오산어린이공원,서울특별시 강북구 미아동 258-56,37.62765,127.0302,지진대피소
청암어린이공원,서울특별시 강북구 미아동 776-17,37.62411,127.01714,지진대피소
구세군길 마을마당,서울특별시 강북구 미아동 791-1343,37.62675,127.01471,지진대피소
하늘어린이공원,서울특별시 강북구 미아동 791-3853,37.62458,127.01298,지진대피소
늘푸른공원,서울특별시 강북구 미아동 797-9,37.62544,127.01968,지진대피소
고갯마루공원,서울특별시 강북구 미아동 811-13,37.61648,127.01697,지진대피소
응달마을어린이공원,서울특별시 강북구 미아동 860-116,37.61822,127.02433,지진대피소
송월어린이공원,서울특별시 강북구 미아동 89-6,37.6161,127.03213,지진대피소
오얏골공원,서울특별시 강북구 번동 228,37.63405,127.03428,지진대피소
벌리어린이공원,서울특별시 강북구 번동 240,37.62758,127.04443,지진대피소
수유벽산아파트201(지하1층)-수유2동,서울특별시 강북구 삼각산로 143-1,37.64238,127.01899,민방위대피시설
국립재활원-인수동(지하2층),서울특별시 강북구 삼각산로 58,37.63889,127.01063,민방위대피시설
삼양동 삼성레미안아파트 주차장 지하2층,서울특별시 강북구 삼양로 256,37.62598,127.01941,민방위대피시설
수유1동주민센터,서울특별시 강북구 삼양로 299,37.63,127.01753,"무더위쉼터, 한파쉼터"
수유1동 주민센터 지하2층 주차장,서울특별시 강북구 삼양로 299,37.63008,127.01761,민방위대피시설
삼각산경로당,서울특별시 강북구 삼양로 515-21,37.64882,127.01332,"무더위쉼터, 한파쉼터"
솔밭(근린)공원,서울특별시 강북구 삼양로 561,37.65212,127.01218,지진대피소
가오경로당,서울특별시 강북구 삼양로111길 56,37.64194,127.01341,"무더위쉼터, 한파쉼터"
장미원경로당,서울특별시 강북구 삼양로124길 29-8,37.64609,127.01671,"무더위쉼터, 한파쉼터"
성원그린아파트(지하1층) - 우이동,서울특별시 강북구 삼양로139가길 63,37.65186,127.01089,민방위대피시설
우이동주민센터,서울특별시 강북구 삼양로139길 49,37.64787,127.01184,"무더위쉼터, 한파쉼터"
우이동 주민센터(지하1층),서울특별시 강북구 삼양로139길 49,37.64793,127.01191,민방위대피시설
대우(아)경로당,서울특별시 강북구 삼양로149길 33,37.65534,127.01116,"무더위쉼터, 한파쉼터"
우이동 푸르지오 아파트(지하2층) - 우이동,서울특별시 강북구 삼양로149길 45,37.65542,127.01114,민방위대피시설
백운경로당,서울특별시 강북구 삼양로159길 9,37.65742,127.01295,"무더위쉼터, 한파쉼터"
우이제일교회 사회복지관(지하1층) - 우이동,서울특별시 강북구 삼양로163길 63,37.65931,127.01076,민방위대피시설
우이제일교회 공터,서울특별시 강북구 삼양로163길 74,37.65984,127.01029,지진대피소
숭인경로당,서울특별시 강북구 삼양로16길 25,37.61305,127.02357,"무더위쉼터, 한파쉼터"
우이경로당,서울특별시 강북구 삼양로170길 23,37.66186,127.01386,"무더위쉼터, 한파쉼터"
소귓골경로당,서울특별시 강북구 삼양로173가길 55,37.66147,127.00966,"무더위쉼터, 한파쉼터"
"삼각산아이원아파트 주차장(104,105,106-지하3)",서울특별시 강북구 삼양로19길 113,37.61523,127.01813,민방위대피시설
삼각산아이원(아) 경로당,서울특별시 강북구 삼양로19길 113,37.61624,127.01776,한파쉼터
래미안트리베라1차(아)경로당,서울특별시 강북구 삼양로19길 25,37.6143,127.02071,"무더위쉼터, 한파쉼터"
래미안 트리베라1차 아파트 주차장(삼각산동)(지하3층),서울특별시 강북구 삼양로19길 25,37.61394,127.02073,민방위대피시설
삼각산동주민센터,서울특별시 강북구 삼양로19길 34,37.61515,127.02074,"무더위쉼터, 한파쉼터"
삼각산고등학교 운동장,서울특별시 강북구 삼양로19길 40,37.61566,127.02049,지진대피소
현대성우아파트 지하 2~4 층 주차장 - 송천동,서울특별시 강북구 삼양로24길 19,37.6172,127.0221,민방위대피시설
송암경로당,서울특별시 강북구 삼양로24길 4-6,37.61633,127.02248,"무더위쉼터, 한파쉼터"
래미안 트리베라2차 아파트(삼각산동)(지하3층),서울특별시 강북구 삼양로27길 19,37.61731,127.0204,민방위대피시설
래미안트리베라2차(아) 경로당,서울특별시 강북구 삼양로27길 19,37.61727,127.02031,한파쉼터
두산위브트레지움아파트(삼각산동)(지하2~3층),서울특별시 강북구 삼양로27길 95,37.61776,127.01693,민방위대피시설
미양할머니경로당,서울특별시 강북구 삼양로35가길 7-4,37.62069,127.01939,"무더위쉼터, 한파쉼터"
건양경로당,서울특별시 강북구 삼양로40길 6-6,37.62155,127.02073,"무더위쉼터, 한파쉼터"
삼일경로당,서울특별시 강북구 삼양로41길 61,37.62151,127.01678,"무더위쉼터, 한파쉼터"
실개울경로당,서울특별시 강북구 삼양로47길 37,37.62267,127.01693,"무더위쉼터, 한파쉼터"
삼양동종합복지센터,서울특별시 강북구 삼양로47길 9,37.62302,127.01843,무더위쉼터
삼양초등학교 운동장,서울특별시 강북구 삼양로49길 17,37.62343,127.01679,지진대피소
큰마을효심경로당,서울특별시 강북구 삼양로54길 60,37.62326,127.02135,"무더위쉼터, 한파쉼터"
은혜경로당,서울특별시 강북구 삼양로63가길 7-26,37.62727,127.01607,무더위쉼터
미동경로당,서울특별시 강북구 삼양로74길 74,37.63015,127.02202,무더위쉼터
삼양동 경남아너스빌아파트 주차장(지하2층),서울특별시 강북구 삼양로74길 8,37.6289,127.01868,민방위대피시설
삼흥경로당,서울특별시 강북구 삼양로77길 111,37.62781,127.01258,무더위쉼터
수유일공원 주차장-수유1동(지하 1층),서울특별시 강북구 삼양로79길 5,37.63059,127.01743,민방위대피시설
색동어린이공원,서울특별시 강북구 삼양로80나길 52,37.63318,127.02064,지진대피소
수유장수경로당,서울특별시 강북구 삼양로80나길 56,37.63332,127.02061,"무더위쉼터, 한파쉼터"
제일경로당,서울특별시 강북구 삼양로87길 33-8,37.63578,127.01563,무더위쉼터
강북노인종합복지관(휴게실),서울특별시 강북구 삼양로92길 40,37.63566,127.01874,"무더위쉼터, 한파쉼터"
수삼경로당,서울특별시 강북구 삼양로98길 22,37.63867,127.01842,"무더위쉼터, 한파쉼터"
우이초등학교 운동장,서울특별시 강북구 삼양로99길 36,37.63836,127.01436,지진대피소
미아경로당,서울특별시 강북구 솔매로 147-11,37.62745,127.02854,"무더위쉼터, 한파쉼터"
삼양동주민센터,서울특별시 강북구 솔매로 69,37.62498,127.01991,"무더위쉼터, 한파쉼터"
청암경로당,서울특별시 강북구 솔매로22길 11,37.62474,127.017,"무더위쉼터, 한파쉼터"
한빛어린이공원,서울특별시 강북구 솔매로41길 48,37.62774,127.02285,지진대피소
한빛경로당,서울특별시 강북구 솔매로43길 25,37.6269,127.02373,"무더위쉼터, 한파쉼터"
미아동복합청사-미아동(지하1층),서울특별시 강북구 솔매로49길 14,37.62706,127.02697,민방위대피시설
미아동주민센터,서울특별시 강북구 솔매로49길 14,37.62704,127.02694,"무더위쉼터, 한파쉼터"
화계초등학교운동장,서울특별시 강북구 솔매로50가길 25,37.62386,127.02916,지진대피소
성북강북교육지원청(송중동)(지하1층),서울특별시 강북구 솔매로50길 65,37.6237,127.02831,민방위대피시설
삼양동벽산아파트 107동 P4 주차장(지하2~3층),"서울특별시 강북구 솔샘로 159, 지하2~지하3층",37.62115,127.01083,민방위대피시설
SK북한산시티(아) 제2경로당,서울특별시 강북구 솔샘로 174,37.61897,127.01371,한파쉼터
"SK북한산시티아파트(P207, 135동)(지하3층)","서울특별시 강북구 솔샘로 174, 135동",37.61798,127.01263,민방위대피시설
미양초등학교 운동장,서울특별시 강북구 솔샘로 195,37.62087,127.01379,지진대피소
솔샘길경로당,서울특별시 강북구 솔샘로 277-1,37.61887,127.02345,무더위쉼터
송천동주민센터,서울특별시 강북구 솔샘로 284,37.61827,127.02383,"무더위쉼터, 한파쉼터"
송천경로당,서울특별시 강북구 솔샘로60길 18-12,37.61804,127.02433,"무더위쉼터, 한파쉼터"
솔샘어린이공원,서울특별시 강북구 솔샘로65길 19,37.61815,127.02704,지진대피소
새싹어린이공원,서울특별시 강북구 수유동 134-40,37.63612,127.01956,지진대피소
희망어린이공원(미루나무어린이공원),서울특별시 강북구 수유동 193-1,37.64055,127.02445,지진대피소
소귀어린이공원,서울특별시 강북구 수유동 25-1,37.63859,127.01866,지진대피소
푸른어린이공원,서울특별시 강북구 수유동 516-44,37.6385,127.00849,지진대피소
보등골어린이공원,서울특별시 강북구 수유동 605-209,37.63505,127.01832,지진대피소
수유일공원(삼각산공원),서울특별시 강북구 수유동 605-399,37.63044,127.01727,지진대피소
형인휴아름아파트(지하1층)-수유3동,서울특별시 강북구 수유로23길 48,37.63839,127.02219,민방위대피시설
"송천센트레빌 2차 아파트 지하 2, 3층 주차장-송천동",서울특별시 강북구 숭인로 39,37.61275,127.02581,민방위대피시설
원송경로당,서울특별시 강북구 오패산로 156-3,37.61575,127.03383,"무더위쉼터, 한파쉼터"
송중동주민센터,서울특별시 강북구 오패산로 162,37.6161,127.03375,"무더위쉼터, 한파쉼터"
송중동주민센터(지하1층),서울특별시 강북구 오패산로 162,37.61611,127.03375,민방위대피시설
경남아너스빌아파트(송중동)(지하3~4층),서울특별시 강북구 오패산로30길 30,37.61523,127.03571,민방위대피시설
경남아너스빌(아)경로당,서울특별시 강북구 오패산로30길 30,37.61518,127.03565,"무더위쉼터, 한파쉼터"
오패산경로당,서울특별시 강북구 오패산로52다길 55,37.62241,127.03326,"무더위쉼터, 한파쉼터"
율곡경로당,서울특별시 강북구 오패산로52아길 11,37.62704,127.03119,"무더위쉼터, 한파쉼터"
미아신구아파트 - 미아동(지하3층),서울특별시 강북구 오패산로60길 17,37.62678,127.03053,민방위대피시설
번남경로당,서울특별시 강북구 오패산로77길 29-7,37.63616,127.02574,"무더위쉼터, 한파쉼터"
번남어린이공원,서울특별시 강북구 오패산로77길 41,37.63579,127.02493,지진대피소
동문아파트-번3동(지하2층),서울특별시 강북구 오현로 128,37.62396,127.0381,민방위대피시설
강북문화정보도서관(지하1층)-번2동,서울특별시 강북구 오현로 145,37.62522,127.0363,민방위대피시설
해모로아파트-번3동(지하2층~지하3층),서울특별시 강북구 오현로 156-0,37.62638,127.03752,민방위대피시설
강북구민운동장,서울특별시 강북구 오현로 187-25,37.62932,127.03728,지진대피소
강북장애인종합사회복지관,서울특별시 강북구 오현로 189,37.62873,127.03905,"무더위쉼터, 한파쉼터"
번동초등학교운동장,서울특별시 강북구 오현로 204,37.62896,127.04075,지진대피소
100세건강플러스,서울특별시 강북구 오현로 208,37.62921,127.04291,무더위쉼터
꿈의숲종합사회복지관,서울특별시 강북구 오현로 208,37.62918,127.04198,"무더위쉼터, 한파쉼터"
꿈의숲해링턴플레이스(아)경로당,서울특별시 강북구 오현로 45,37.61718,127.03478,"무더위쉼터, 한파쉼터"
꿈의숲 효성해링턴플레이스 아파트(송중동)(지하2~3층),서울특별시 강북구 오현로 45,37.61852,127.03442,민방위대피시설
꿈의숲롯데캐슬(아)경로당,서울특별시 강북구 오현로 56,37.61718,127.03561,"무더위쉼터, 한파쉼터"
꿈의숲롯데캐슬아파트(송중동)(지하2~3층),서울특별시 강북구 오현로 56,37.61747,127.03659,민방위대피시설
송중초등학교운동장,서울특별시 강북구 오현로 9,37.61685,127.03166,지진대피소
오동경로당,서울특별시 강북구 오현로25나길 92,37.62563,127.03328,"무더위쉼터, 한파쉼터"
교육촌경로당,서울특별시 강북구 오현로25다길 36,37.62709,127.03546,"무더위쉼터, 한파쉼터"
샘마을경로당,서울특별시 강북구 오현로31길 125-14,37.63264,127.03419,"무더위쉼터, 한파쉼터"
금호어울림아파트 주차장(102동 지하2층)-번2동,서울특별시 강북구 오현로31길 85-7,37.63061,127.03542,민방위대피시설
오동공원 현대홈타운 아파트(지하2층)-번2동,서울특별시 강북구 오현로31길 89,37.63151,127.03553,민방위대피시설
번동중학교운동장,서울특별시 강북구 오현로35길 87,37.63212,127.03685,지진대피소
체류지 마을마당(미아마을마당),서울특별시 강북구 오현로6길 106,37.61198,127.03295,지진대피소
구봉경로당,서울특별시 강북구 오현로9길 97,37.62091,127.03293,"무더위쉼터, 한파쉼터"
강북구견인차량보관소(우이동 교통광장),서울특별시 강북구 우이동 산99-2,37.66354,127.01273,지진대피소
북서울꿈의숲,서울특별시 강북구 월계로 173,37.62156,127.0409,지진대피소
오현초등학교운동장,서울특별시 강북구 월계로 221,37.62318,127.04688,지진대피소
창문여자고등학교운동장,서울특별시 강북구 월계로 61,37.61295,127.03663,지진대피소
한일유엔아이아파트(송중동)(지하1~2층),서울특별시 강북구 월계로21가길 41,37.61483,127.03658,민방위대피시설
한일유앤아이(아)경로당,서울특별시 강북구 월계로21가길 41,37.61464,127.03644,"무더위쉼터, 한파쉼터"
벽오산경로당,서울특별시 강북구 월계로21나길 30,37.6156,127.03812,"무더위쉼터, 한파쉼터"
기산그린아파트-번3동(지하1층),서울특별시 강북구 월계로37길 137-0,37.62747,127.04366,민방위대피시설
신원아파트-번3동(지하2층),서울특별시 강북구 월계로37길 87-9,37.62583,127.04319,민방위대피시설
방천경로당,서울특별시 강북구 월계로7길 39-9,37.61242,127.03316,"무더위쉼터, 한파쉼터"
혜화여자고등학교 운동장,서울특별시 강북구 인수봉로 127,37.63062,127.01318,지진대피소
인수동주민센터,서울특별시 강북구 인수봉로 255,37.64146,127.01058,"무더위쉼터, 한파쉼터"
서울인수초등학교운동장,서울특별시 강북구 인수봉로 269,37.64268,127.01024,지진대피소
팔팔경로당,서울특별시 강북구 인수봉로 36,37.62323,127.01327,"무더위쉼터, 한파쉼터"
미송경로당,서울특별시 강북구 인수봉로 42,37.62379,127.01299,무더위쉼터
구세군강북종합사회복지관,서울특별시 강북구 인수봉로20가길 24,37.62572,127.01337,"무더위쉼터, 한파쉼터"
수유경로당,서울특별시 강북구 인수봉로20길 32-9,37.62668,127.01237,"무더위쉼터, 한파쉼터"
SH스카이아파트 주차장-수유1동(지하1층),서울특별시 강북구 인수봉로23가길 3,37.62761,127.01186,민방위대피시설
화계경로당,서울특별시 강북구 인수봉로38가길 28,37.63144,127.01566,"무더위쉼터, 한파쉼터"
한신경로당,서울특별시 강북구 인수봉로48길 5-6,37.63431,127.01396,"무더위쉼터, 한파쉼터"
무너미경로당,서울특별시 강북구 인수봉로55가길 21,37.63582,127.00995,"무더위쉼터, 한파쉼터"
인수경로당,서울특별시 강북구 인수봉로72길 15-12,37.64275,127.0121,"무더위쉼터, 한파쉼터"
극동(아)경로당,서울특별시 강북구 인수봉로72길 4,37.64214,127.01269,"무더위쉼터, 한파쉼터"
삼산경로당,서울특별시 강북구 인수봉로79길 62-4,37.64328,127.00829,"무더위쉼터, 한파쉼터"
포르텔오피스텔(지하2층 주차장)(번1동),서울특별시 강북구 한천로 1003,37.63785,127.02951,민방위대피시설
우리들병원(지하1층~2층 주차장)-수유3동,서울특별시 강북구 한천로 1083,37.64255,127.02266,민방위대피시설
수유2동주민센터,서울특별시 강북구 한천로 1117,37.64462,127.01988,"무더위쉼터, 한파쉼터"
"현대아파트(지하2, 3층 주차장) (수유2동)",서울특별시 강북구 한천로 1131,37.64542,127.01855,민방위대피시설
번2동주민센터,서울특별시 강북구 한천로 897,37.63207,127.03876,"무더위쉼터, 한파쉼터"
번3동주민센터,서울특별시 강북구 한천로105길 21,37.62582,127.0466,"무더위쉼터, 한파쉼터"
오현어린이공원,서울특별시 강북구 한천로105길 23,37.62373,127.04647,지진대피소
번동주공2단지아파트경로당,서울특별시 강북구 한천로105길 24,37.62678,127.04549,한파쉼터
북서울종합사회복지관,서울특별시 강북구 한천로105길 24,37.6264,127.04544,"무더위쉼터, 한파쉼터"
번동주공3단지경로당,서울특별시 강북구 한천로109길 16,37.62878,127.0427,한파쉼터
골말경로당,서울특별시 강북구 한천로109길 57-12,37.62688,127.04133,"무더위쉼터, 한파쉼터"
솔그린아파트(지하 2층) (번3동),서울특별시 강북구 한천로109길 83,37.62618,127.03937,민방위대피시설
번오마을종합사회복지관,서울특별시 강북구 한천로115길 20,37.63295,127.03643,"무더위쉼터, 한파쉼터"
수송중학교운동장,서울특별시 강북구 한천로122길 21,37.63627,127.03332,지진대피소
수송초등학교(지하2층 주차장) (번1동),서울특별시 강북구 한천로124길 14,37.63709,127.033,민방위대피시설
수송초등학교 운동장,서울특별시 강북구 한천로124길 14,37.63675,127.03263,지진대피소
쌍용(아)경로당,서울특별시 강북구 한천로124나길 10,37.63777,127.0322,"무더위쉼터, 한파쉼터"
포엠빌아파트(지하1층)-수유3동,서울특별시 강북구 한천로139가길 26,37.64052,127.02512,민방위대피시설
칸타빌 수유팰리스(지하1~3층)-수유3동,서울특별시 강북구 한천로148길 12-13,37.6422,127.02547,민방위대피시설
강북중학교운동장,서울특별시 강북구 한천로150길 67,37.64477,127.02597,지진대피소
래미안수유아파트107동(지하2층 주차장) (수유2동),서울특별시 강북구 한천로159길 8,37.64471,127.01806,민방위대피시설
물댐길경로당,서울특별시 강북구 한천로170가길 4,37.64815,127.01743,"무더위쉼터, 한파쉼터"
나누리병원 지하주차장 1층,서울특별시 강서구 가로공원로 187,37.53739,126.83673,민방위대피시설
공원어르신사랑방,서울특별시 강서구 가로공원로77길 30,37.53802,126.83852,"무더위쉼터, 한파쉼터"
솔뫼공원,서울특별시 강서구 가로공원로77길 30,37.53786,126.83843,지진대피소
가양초등학교운동장,서울특별시 강서구 가양동 1484,37.56158,126.85934,지진대피소
신한은행 화곡역,서울특별시 강서구 강서로 173,37.54192,126.83963,기후동행쉼터
서울큰나무병원 지하주차장 1~2층,서울특별시 강서구 강서로 206,37.54453,126.83804,민방위대피시설
우장산아이파크e-편한세상(아)경로당,서울특별시 강서구 강서로 266,37.54999,126.83697,무더위쉼터
우장산아이파크이편한세상아파트 지하주차장 1~2층,서울특별시 강서구 강서로 266,37.54935,126.83877,민방위대피시설
우장산힐스테이트 지하주차장 1~2층,서울특별시 강서구 강서로 348,37.55607,126.84023,민방위대피시설
우장산힐스테이트(아)어르신사랑방,서울특별시 강서구 강서로 348,37.55611,126.84068,무더위쉼터
일신건영휴먼빌아파트 지하주차장 1층,서울특별시 강서구 강서로 490,37.56892,126.8422,민방위대피시설
화곡판타지아 지하주차장 2~3층,서울특별시 강서구 강서로 52,37.53249,126.84669,민방위대피시설
동신대아아파트 지하주차장 1층,서울특별시 강서구 강서로 532,37.57217,126.84336,민방위대피시설
가양1단지(아)어르신사랑방,서울특별시 강서구 강서로 532,37.57218,126.84338,무더위쉼터
우장산역 지하1층,서울특별시 강서구 강서로 지하 262,37.54922,126.83641,민방위대피시설
까치산역 지하 1층,서울특별시 강서구 강서로 지하 54,37.53254,126.84626,민방위대피시설
화곡어르신사랑방,서울특별시 강서구 강서로12길 15-10,37.53211,126.84775,"무더위쉼터, 한파쉼터"
화원중학교운동장,서울특별시 강서구 강서로17나길 86,37.53659,126.84223,지진대피소
까치산경로당,서울특별시 강서구 강서로17나길 99,37.53677,126.84141,무더위쉼터
안골어르신사랑방,서울특별시 강서구 강서로18아길 15-9,37.53603,126.85075,"무더위쉼터, 한파쉼터"
안골어린이공원,서울특별시 강서구 강서로18아길 15-9,37.53578,126.85084,지진대피소
화곡3동주민센터,서울특별시 강서구 강서로33가길 17,37.54256,126.83844,"무더위쉼터, 한파쉼터"
봉바위어르신사랑방,서울특별시 강서구 강서로34길 34,37.5432,126.84137,"무더위쉼터, 한파쉼터"
대성유니드아파트 지하주차장 1층,서울특별시 강서구 강서로45길 104,37.55023,126.83215,민방위대피시설
태승훼미리아파트3차 지하주차장 1층,서울특별시 강서구 강서로45길 138,37.55136,126.83145,민방위대피시설
화곡보건경영고등학교 운동장,서울특별시 강서구 강서로45길 70,37.54865,126.83295,지진대피소
우장산신일해피트리(아)경로당,서울특별시 강서구 강서로45길 92-5,37.54969,126.83231,무더위쉼터
희훈리치파크(아)경로당,서울특별시 강서구 강서로45다길 30-17,37.54641,126.8343,무더위쉼터
희훈리치파크아파트 지하주차장 1층,서울특별시 강서구 강서로45다길 30-17,37.54638,126.83401,민방위대피시설
화곡초록(아)경로당,서울특별시 강서구 강서로45다길 30-27,37.54559,126.83409,무더위쉼터
푸른어르신사랑방,서울특별시 강서구 강서로45다길 74,37.54466,126.83475,"무더위쉼터, 한파쉼터"
바탕골공원,서울특별시 강서구 강서로45다길 74,37.54454,126.83476,지진대피소
강성레스트빌아파트 지하주차장 1층,서울특별시 강서구 강서로45라길 52,37.54988,126.83461,민방위대피시설
마곡수명산파크1단지(아)어르신사랑방,서울특별시 강서구 강서로47길 108,37.55425,126.83003,무더위쉼터
마곡수명산파크1단지 지하주차장 1~2층,서울특별시 강서구 강서로47길 108,37.55438,126.83021,민방위대피시설
마곡수명산파크2단지(아)경로당,서울특별시 강서구 강서로47길 158,37.55443,126.82738,무더위쉼터
마곡수명산파크2단지 지하주차장 1~2층,서울특별시 강서구 강서로47길 158,37.5545,126.82744,민방위대피시설
명덕여자고등학교 운동장,서울특별시 강서구 강서로47길 34-10,37.55453,126.83434,지진대피소
발산1동주민센터,서울특별시 강서구 강서로47길 54,37.55311,126.83313,"무더위쉼터, 한파쉼터"
발음어린이공원,서울특별시 강서구 강서로47길 61-21,37.55224,126.83318,지진대피소
발음어르신경로당,서울특별시 강서구 강서로47길 61-21,37.55205,126.83318,"무더위쉼터, 한파쉼터"
보람아파트 지하주차장 1~2층,서울특별시 강서구 강서로47길 80,37.55331,126.83178,민방위대피시설
그린씨티아파트 지하주차장 1층,서울특별시 강서구 강서로47라길 79,37.54965,126.83323,민방위대피시설
원당어르신사랑방,서울특별시 강서구 강서로52길 72,37.55741,126.8421,"무더위쉼터, 한파쉼터"
원당근린공원,서울특별시 강서구 강서로56길 49,37.55976,126.84206,지진대피소
부영(아)경로당,서울특별시 강서구 강서로56나길 110,37.56303,126.84362,무더위쉼터
부영아파트 지하주차장 1층,서울특별시 강서구 강서로56나길 110,37.56356,126.84364,민방위대피시설
서울등양초등학교 운동장,서울특별시 강서구 강서로56나길 140,37.56468,126.84467,지진대피소
서울등명초등학교 운동장,서울특별시 강서구 강서로56나길 34,37.56043,126.84206,지진대피소
등촌주공3단지아파트 지하주차장 1층,서울특별시 강서구 강서로56나길 37,37.56164,126.84111,민방위대피시설
등촌3주공(아)경로당,서울특별시 강서구 강서로56나길 41,37.56125,126.84165,무더위쉼터
곰달래문화복지센터 지하주차장 1~3층,서울특별시 강서구 강서로5길 50,37.52905,126.84891,민방위대피시설
KT 화곡지사 지하주차장 1층,서울특별시 강서구 강서로5길 64,37.52953,126.84871,민방위대피시설
등촌근린공원,서울특별시 강서구 강서로62길 35,37.56338,126.84179,지진대피소
동성(아)경로당,서울특별시 강서구 강서로68길 108,37.56394,126.84587,무더위쉼터
동성아파트 지하주차장 1층,서울특별시 강서구 강서로68길 108,37.56387,126.8458,민방위대피시설
등촌1종합사회복지관,서울특별시 강서구 강서로68길 36,37.564,126.8424,무더위쉼터
등촌주공1단지어르신사랑방,서울특별시 강서구 강서로68길 36,37.56415,126.8419,"무더위쉼터, 한파쉼터"
성재정어르신사랑방,서울특별시 강서구 강서로74길 11,37.56776,126.84187,"무더위쉼터, 한파쉼터"
해태(아)어르신사랑방,서울특별시 강서구 강서로7길 28,37.52994,126.84615,무더위쉼터
해태아파트 지하주차장 1층,서울특별시 강서구 강서로7길 28,37.52998,126.84616,민방위대피시설
공암나루근린공원,서울특별시 강서구 강서로80길 117,37.57028,126.84984,지진대피소
두레어린이공원,서울특별시 강서구 강서로8길 203,37.53121,126.85934,지진대피소
화친어르신사랑방,서울특별시 강서구 강서로8길 203,37.5311,126.85941,"무더위쉼터, 한파쉼터"
상사어르신사랑방,서울특별시 강서구 개화길 52,37.58679,126.80155,한파쉼터
신대부석공원,서울특별시 강서구 개화동 411,37.58288,126.79886,지진대피소
내촌어린이공원,서울특별시 강서구 개화동 551-26,37.5776,126.80137,지진대피소
내촌어르신사랑방,서울특별시 강서구 개화동로13길 12-8,37.57747,126.80158,"무더위쉼터, 한파쉼터"
방화11종합사회복지관,서울특별시 강서구 개화동로21길 4,37.5694,126.8059,무더위쉼터
방화11종합사회복지관경로당,서울특별시 강서구 개화동로21길 4,37.5694,126.806,"무더위쉼터, 한파쉼터"
방화2동주민센터,서울특별시 강서구 개화동로21길 52,37.5715,126.8054,"무더위쉼터, 한파쉼터"
방화 어르신사랑방,서울특별시 강서구 개화동로23길 26,37.56667,126.80708,한파쉼터
방화중학교 운동장,서울특별시 강서구 개화동로27길 9,37.56516,126.80663,지진대피소
개화어르신사랑방,서울특별시 강서구 개화동로5길 3-66,37.58311,126.79878,"무더위쉼터, 한파쉼터"
국민은행 지하주차장 1~2층,서울특별시 강서구 곰달래로 133,37.53095,126.84773,민방위대피시설
정일빌딩 지하주차장 1층,서울특별시 강서구 곰달래로 170,37.53074,126.85187,민방위대피시설
화곡1동주민센터,서울특별시 강서구 곰달래로 79,37.53043,126.84157,"무더위쉼터, 한파쉼터"
구립예촌어르신사랑방,서울특별시 강서구 곰달래로 83-1,37.5304,126.84216,"무더위쉼터, 한파쉼터"
유림노르웨이숲 지하주차장 1층,서울특별시 강서구 곰달래로 96,37.53016,126.84393,민방위대피시설
화곡8동주민센터,서울특별시 강서구 곰달래로25길 45,37.53272,126.84831,"무더위쉼터, 한파쉼터"
현대그린아파트 지하주차장 1층,서울특별시 강서구 곰달래로26길 15,37.53005,126.84944,민방위대피시설
화곡일심어르신사랑방,서울특별시 강서구 곰달래로30길 14,37.53023,126.85143,"무더위쉼터, 한파쉼터"
성석교회교육관 지하주차장 1층,서울특별시 강서구 곰달래로31가길 101,37.53275,126.85695,민방위대피시설
신정초등학교운동장,서울특별시 강서구 곰달래로31가길 27,37.53242,126.85264,지진대피소
화곡2동성당 지하 1층,서울특별시 강서구 곰달래로32길 19,37.53019,126.85341,민방위대피시설
하마터어린이공원,서울특별시 강서구 곰달래로36길 22,37.53002,126.85365,지진대피소
하마터어르신사랑방,서울특별시 강서구 곰달래로36길 22,37.53009,126.85376,"무더위쉼터, 한파쉼터"
화곡2동주민센터,서울특별시 강서구 곰달래로37길 13,37.53185,126.85455,"무더위쉼터, 한파쉼터"
골안말어르신사랑방,서울특별시 강서구 곰달래로45길 17,37.53331,126.85605,"무더위쉼터, 한파쉼터"
골말어린이공원,서울특별시 강서구 곰달래로45길 17,37.53324,126.85611,지진대피소
신곡어르신사랑방,서울특별시 강서구 곰달래로49길 130,37.53669,126.85448,"무더위쉼터, 한파쉼터"
무지개어르신사랑방,서울특별시 강서구 곰달래로57가길 19,37.53405,126.86088,"무더위쉼터, 한파쉼터"
화곡4동주민센터 지하주차장 1~2층,서울특별시 강서구 곰달래로57가길 26,37.53456,126.86079,민방위대피시설
화곡4동주민센터,서울특별시 강서구 곰달래로57가길 26,37.53461,126.86073,"무더위쉼터, 한파쉼터"
금화아파트 지하주차장 1층,서울특별시 강서구 곰달래로57길 7,37.5325,126.86165,민방위대피시설
성삼하이츠아파트 지하주차장 1층,서울특별시 강서구 곰달래로59길 36,37.53409,126.86308,민방위대피시설
마곡엠밸리11단지 지하주차장 1~2층,서울특별시 강서구 공항대로 124-0,37.55935,126.8211,민방위대피시설
마곡엠밸리12단지 지하주차장 1~2층,서울특별시 강서구 공항대로 140-0,37.55919,126.82293,민방위대피시설
신한은행 공항동,서울특별시 강서구 공항대로 17,37.56184,126.80937,기후동행쉼터
이대서울병원 지하주차장 1~6층,서울특별시 강서구 공항대로 260,37.5576,126.83618,민방위대피시설
미주진로아파트 지하주차장 1층,서울특별시 강서구 공항대로 351-21,37.55984,126.84703,민방위대피시설
미주진로(아)어르신사랑방,서울특별시 강서구 공항대로 351-21,37.56026,126.84782,무더위쉼터
한국해운조합 지하 1~2층,서울특별시 강서구 공항대로 379,37.55711,126.84989,민방위대피시설
우장산롯데캐슬아파트 지하주차장 1~2층,서울특별시 강서구 공항대로 382,37.55562,126.84824,민방위대피시설
백석초등학교운동장,서울특별시 강서구 공항대로 491,37.55325,126.86204,지진대피소
강서보건소 지하 1층,서울특별시 강서구 공항대로 561,37.54964,126.86833,민방위대피시설
e편한세상염창어르신사랑방,서울특별시 강서구 공항대로 583,37.54863,126.87074,무더위쉼터
송정역 지하1~3층,서울특별시 강서구 공항대로 지하 33,37.56148,126.81051,민방위대피시설
등촌역 지하1~2층,서울특별시 강서구 공항대로 지하 529,37.55117,126.86482,민방위대피시설
염창역 지하 1층,서울특별시 강서구 공항대로 지하 631,37.54707,126.87518,민방위대피시설
마곡역(지하1~2층),"서울특별시 강서구 공항대로 지하163, 마곡역",37.56026,126.82506,민방위대피시설
공항어르신사랑방,서울특별시 강서구 공항대로2가길 5-3,37.56038,126.80904,"무더위쉼터, 한파쉼터"
대림(아)어르신사랑방,서울특별시 강서구 공항대로39길 100,37.56262,126.84675,무더위쉼터
등촌대림아파트 지하주차장 1층,서울특별시 강서구 공항대로39길 100,37.56265,126.84666,민방위대피시설
등촌고등학교 운동장,서울특별시 강서구 공항대로39길 115,37.56255,126.84442,지진대피소
등명중학교 운동장,서울특별시 강서구 공항대로39길 39,37.55965,126.84317,지진대피소
등촌4단지(아)경로당,서울특별시 강서구 공항대로39길 59,37.56154,126.84314,"무더위쉼터, 한파쉼터"
등촌4종합사회복지관,서울특별시 강서구 공항대로39길 59,37.5608,126.8438,무더위쉼터
등촌5단지(아)어르신사랑방,서울특별시 강서구 공항대로39길 74,37.55978,126.84422,무더위쉼터
등촌주공5단지아파트 지하주차장 1층,서울특별시 강서구 공항대로39길 74,37.56045,126.84487,민방위대피시설
송정초등학교 운동장,서울특별시 강서구 공항대로3길 18,37.56206,126.81086,지진대피소
강서월드메르디앙(아)어르신사랑방,서울특별시 강서구 공항대로42길 54-26,37.55671,126.84314,무더위쉼터
등촌7종합사회복지관,서울특별시 강서구 공항대로43길 104,37.5602,126.8507,무더위쉼터
등촌7단지어르신사랑방,서울특별시 강서구 공항대로43길 104,37.56037,126.85223,한파쉼터
등촌11단지(아)어르신사랑방,서울특별시 강서구 공항대로43길 39,37.55921,126.84908,"무더위쉼터, 한파쉼터"
등촌주공11단지아파트 지하주차장 1층,서울특별시 강서구 공항대로43길 39,37.55915,126.84912,민방위대피시설
서낭당근린공원,서울특별시 강서구 공항대로43길 46,37.55854,126.84996,지진대피소
화곡6동주민센터,서울특별시 강서구 공항대로46길 105,37.55078,126.8509,"무더위쉼터, 한파쉼터"
등촌1동주민센터,서울특별시 강서구 공항대로53가길 55,37.55583,126.85891,"무더위쉼터, 한파쉼터"
코오롱하늘채아파트 지하주차장 1층,서울특별시 강서구 공항대로55길 19,37.55433,126.86069,민방위대피시설
코오롱3차(아)어르신사랑방,서울특별시 강서구 공항대로55길 19,37.55433,126.86074,무더위쉼터
대동황토방2차(아)어르신사랑방,서울특별시 강서구 공항대로55길 50,37.55511,126.86248,무더위쉼터
백석어린이공원,서울특별시 강서구 공항대로57길 31,37.55261,126.86353,지진대피소
대동황토방(아)어르신사랑방,서울특별시 강서구 공항대로59길 103,37.55617,126.86299,무더위쉼터
대동황토방1차아파트 지하주차장 1~2층,서울특별시 강서구 공항대로59길 103,37.55592,126.86225,민방위대피시설
태영송화(아)경로당,서울특별시 강서구 공항대로61길 60,37.55352,126.86744,무더위쉼터
태진한솔아파트 지하주차장 1층,서울특별시 강서구 공항대로71길 54,37.54913,126.87403,민방위대피시설
태진한솔(아)경로당,서울특별시 강서구 공항대로71길 54,37.54905,126.87421,무더위쉼터
한화꿈에그린(아)경로당,서울특별시 강서구 공항대로75길 17,37.54807,126.87329,무더위쉼터
삼정그린코아(아)경로당,서울특별시 강서구 공항대로75길 30,37.5476,126.8744,무더위쉼터
공항동부어르신사랑방,서울특별시 강서구 공항대로8길 33-9,37.55957,126.81283,"무더위쉼터, 한파쉼터"
활주로상상어린이공원,서울특별시 강서구 공항동 1341,37.55442,126.81593,지진대피소
다솔어린이공원,서울특별시 강서구 공항동 1361,37.55463,126.81835,지진대피소
율창아파트 지하주차장 1층,서울특별시 강서구 국회대로7길 123,37.52915,126.85401,민방위대피시설
은창아파트 지하주차장 1층,서울특별시 강서구 국회대로7길 157,37.52892,126.85215,민방위대피시설
태승훼미리아파트 지하주차장 1층,서울특별시 강서구 국회대로7길 175,37.52878,126.85107,민방위대피시설
곰달래아파트 지하주차장 1층,서울특별시 강서구 국회대로7길 53,37.52962,126.85798,민방위대피시설
신도금잔디아파트 지하주차장 1~2층,서울특별시 강서구 국회대로7길 91,37.52936,126.8558,민방위대피시설
신한은행 방화역,서울특별시 강서구 금낭화로 135,37.57752,126.81247,기후동행쉼터
금강프라자빌딩 지하주차장 2~4층,서울특별시 강서구 금낭화로 135,37.5775,126.81248,민방위대피시설
방화8단지개화아파트 105동 지하주차장 1층,서울특별시 강서구 금낭화로 167,37.58075,126.81254,민방위대피시설
개화(아)어르신사랑방,서울특별시 강서구 금낭화로 167,37.58064,126.8125,무더위쉼터
방화근린공원,서울특별시 강서구 금낭화로 178,37.5815,126.81282,지진대피소
방화10단지진로아파트 지하주차장 1층,서울특별시 강서구 금낭화로 258,37.57704,126.80843,민방위대피시설
방화진로(아)어르신사랑방,서울특별시 강서구 금낭화로 258,37.57698,126.80847,무더위쉼터
방화5단지(아)어르신사랑방,서울특별시 강서구 금낭화로 287-19,37.57717,126.81015,무더위쉼터
방화5단지아파트 506동 지하주차장 1층,서울특별시 강서구 금낭화로 287-19,37.57719,126.81025,민방위대피시설
방화역 지하 1층,서울특별시 강서구 금낭화로 지하 132,37.57726,126.81267,민방위대피시설
능말어르신사랑방,서울특별시 강서구 금낭화로19길 7-3,37.57547,126.81141,"무더위쉼터, 한파쉼터"
방화6종합사회복지관,서울특별시 강서구 금낭화로23길 25,37.5779,126.8109,무더위쉼터
방화6단지아파트 604동 지하주차장 1층,서울특별시 강서구 금낭화로23길 25,37.57845,126.81101,민방위대피시설
방화6단지(아)어르신사랑방,서울특별시 강서구 금낭화로23길 25,37.57791,126.81091,"무더위쉼터, 한파쉼터"
방화7단지동성아파트 지하주차장 1층,서울특별시 강서구 금낭화로23길 8,37.5796,126.81218,민방위대피시설
치현어르신사랑방,서울특별시 강서구 금낭화로24가길 40,37.57983,126.81526,"무더위쉼터, 한파쉼터"
방화3동주민센터,서울특별시 강서구 금낭화로24길 5,37.57875,126.81352,"무더위쉼터, 한파쉼터"
화성교회 지하주차장 2층,서울특별시 강서구 까치산로 66,37.54463,126.8469,민방위대피시설
화일초등학교 지하주차장 2층,서울특별시 강서구 까치산로10길 70,37.54062,126.84753,민방위대피시설
화곡본동천주교회 지하강당 1층,서울특별시 강서구 까치산로2길 43,37.53931,126.84363,민방위대피시설
볏골어린이공원,서울특별시 강서구 까치산로4길 22,37.54147,126.84437,지진대피소
볏골공원 지하공영주차장 1~2층,서울특별시 강서구 까치산로4길 22,37.54148,126.84439,민방위대피시설
화촌어르신사랑방,서울특별시 강서구 까치산로4길 30-21,37.5407,126.8445,"무더위쉼터, 한파쉼터"
강서센트레빌4차아파트 지하주차장 1층,서울특별시 강서구 남부순환로 11,37.56059,126.80812,민방위대피시설
송정중학교 운동장,서울특별시 강서구 남부순환로 121,37.55371,126.81551,지진대피소
신광명어르신사랑방,서울특별시 강서구 남부순환로19길 105,37.54687,126.8229,"무더위쉼터, 한파쉼터"
발산초등학교운동장,서울특별시 강서구 내발산동 408,37.5497,126.83107,지진대피소
내발산초등학교운동장,서울특별시 강서구 내발산동 707,37.55127,126.83787,지진대피소
신광명공원,서울특별시 강서구 내발산동 761,37.5473,126.82293,지진대피소
덕원중학교 운동장,서울특별시 강서구 내발산동 산59-2,37.54969,126.8291,지진대피소
등촌중학교운동장,서울특별시 강서구 등촌동 615-3,37.55233,126.85977,지진대피소
등마루공원,서울특별시 강서구 등촌동 641-5,37.55603,126.85735,지진대피소
새나라공원,서울특별시 강서구 등촌동 707-2,37.56156,126.85206,지진대피소
그린임광아파트 지하주차장 1~2층,서울특별시 강서구 등촌로 113,37.54048,126.86337,민방위대피시설
등촌임광(아)어르신사랑방,서울특별시 강서구 등촌로 113,37.54033,126.86347,무더위쉼터
등촌동대림(아)어르신사랑방,서울특별시 강서구 등촌로 137,37.54205,126.86286,무더위쉼터
대림아파트 지하주차장 1~2층,서울특별시 강서구 등촌로 137,37.54214,126.86263,민방위대피시설
등촌2동주민센터,서울특별시 강서구 등촌로 143,37.54266,126.86251,"무더위쉼터, 한파쉼터"
등촌동아이파크아파트 지하주차장 1~2층,서울특별시 강서구 등촌로 163,37.54392,126.86023,민방위대피시설
등촌동아이파크2단지어르신사랑방,서울특별시 강서구 등촌로 163,37.54391,126.86021,무더위쉼터
등촌아이파크1단지(아)어르신사랑방,서울특별시 강서구 등촌로 163,37.54384,126.8602,무더위쉼터
강서구의회 지하주차장 2층,서울특별시 강서구 등촌로 185,37.54651,126.86228,민방위대피시설
신한은행 등촌역,서울특별시 강서구 등촌로 229,37.55022,126.86346,기후동행쉼터
삼형그레이스빌(아),서울특별시 강서구 등촌로 91,37.53833,126.86322,무더위쉼터
화곡3차보람아파트 지하주차장 1층,서울특별시 강서구 등촌로13바길 18-11,37.53682,126.85782,민방위대피시설
신정고등학교 운동장,서울특별시 강서구 등촌로13아길 20,37.53795,126.85736,지진대피소
명지해드는터아파트 지하주차장 1층,서울특별시 강서구 등촌로13아길 44,37.53683,126.85623,민방위대피시설
신곡초등학교운동장,서울특별시 강서구 등촌로13자길 42-14,37.53862,126.85589,지진대피소
태영방송인(아)경로당,서울특별시 강서구 등촌로13자길 74,37.53746,126.85379,무더위쉼터
태영방송인아파트 지하주차장 1~2층,서울특별시 강서구 등촌로13자길 74,37.53747,126.85374,민방위대피시설
예다움아파트 지하주차장 1층,서울특별시 강서구 등촌로13자길 79,37.53671,126.85394,민방위대피시설
등마초등학교 운동장,서울특별시 강서구 등촌로35길 12,37.54196,126.86206,지진대피소
두보(하이츠)빌라,서울특별시 강서구 등촌로39가길 42,37.54574,126.85797,"무더위쉼터, 한파쉼터"
등촌초등학교운동장,서울특별시 강서구 등촌로39길 71,37.54764,126.85837,지진대피소
능안공원,서울특별시 강서구 등촌로39마길 3,37.54646,126.86006,지진대피소
능안어르신사랑방,서울특별시 강서구 등촌로39마길 3,37.5465,126.86009,"무더위쉼터, 한파쉼터"
영일고등학교 운동장,서울특별시 강서구 등촌로51가길 26,37.54792,126.86171,지진대피소
백석중학교 운동장,서울특별시 강서구 등촌로51나길 35,37.54807,126.85934,지진대피소
태진아름(아)어르신사랑방,서울특별시 강서구 등촌로53길 39,37.54949,126.86174,무더위쉼터
송화초등학교 운동장,서울특별시 강서구 마곡동 734-5,37.56826,126.81743,지진대피소
마곡나루근린공원,서울특별시 강서구 마곡동 743-3,37.56637,126.82197,지진대피소
가곡초등학교운동장,서울특별시 강서구 마곡동 809,37.55543,126.83564,지진대피소
도레미공원,서울특별시 강서구 마곡동 산17,37.57156,126.81937,지진대피소
코오롱인더스트리(주) 지하주차장 지하1~3층,서울특별시 강서구 마곡동로 110,37.56462,126.83488,민방위대피시설
서울공항초등학교 운동장,서울특별시 강서구 마곡서1로 68,37.56291,126.82161,지진대피소
서울공항초등학교 지하주차장 1층,서울특별시 강서구 마곡서1로 68,37.56302,126.82163,민방위대피시설
마곡하늬공원,서울특별시 강서구 마곡서로 13,37.55684,126.82111,지진대피소
마곡엠밸리4단지 지하주차장 1~3층,서울특별시 강서구 마곡서로 175,37.56951,126.82447,민방위대피시설
마곡엠밸리4단지(아)어르신사랑방,서울특별시 강서구 마곡서로 175,37.5694,126.82452,무더위쉼터
서울공진초등학교 운동장,서울특별시 강서구 마곡서로 33,37.55783,126.8229,지진대피소
LG사이언스파크 서측 지하주차장 1~3층,서울특별시 강서구 마곡중앙10로 10,37.56297,126.82904,민방위대피시설
LG사이언스파크 동측 1 지하주차장 1~4층,서울특별시 강서구 마곡중앙10로 30,37.56265,126.83218,민방위대피시설
LG사이언스파크 동측 2 지하주차장 1~3층,서울특별시 강서구 마곡중앙10로 70,37.56301,126.835,민방위대피시설
마곡13단지힐스테이트마스터 지하주차장 1~2층,서울특별시 강서구 마곡중앙1로 71,37.55777,126.81838,민방위대피시설
마곡엠밸리10단지 지하주차장 1~2층,서울특별시 강서구 마곡중앙1로 72,37.55954,126.81935,민방위대피시설
마곡중학교 운동장,서울특별시 강서구 마곡중앙5로 58,37.56779,126.8214,지진대피소
마곡나루역 지하1~2층,서울특별시 강서구 마곡중앙5로 지하 2,37.56684,126.82632,민방위대피시설
발산근린공원,서울특별시 강서구 마곡중앙로 11,37.55455,126.82548,지진대피소
마곡엠밸리14단지(아)어르신사랑방,서울특별시 강서구 마곡중앙로 33,37.55668,126.82486,무더위쉼터
마곡엠밸리14단지 지하주차장 1~2층,서울특별시 강서구 마곡중앙로 33,37.55704,126.82477,민방위대피시설
마곡엠밸리15단지 지하주차장 1~2층,서울특별시 강서구 마곡중앙로 36,37.55675,126.82812,민방위대피시설
마곡엠밸리15단지(아)어르신사랑방,서울특별시 강서구 마곡중앙로 36,37.55653,126.82799,무더위쉼터
공항중학교 운동장,서울특별시 강서구 방화대로 241,37.5625,126.81506,지진대피소
일심경로당,서울특별시 강서구 방화대로 297-9,37.56687,126.816,"무더위쉼터, 한파쉼터"
방화1동주민센터,서울특별시 강서구 방화대로 330,37.57035,126.81702,"무더위쉼터, 한파쉼터"
신방화역 지하 1층,서울특별시 강서구 방화대로 지하 301,37.56735,126.81638,민방위대피시설
산우물어르신사랑방,서울특별시 강서구 방화대로21가길 18,37.56373,126.81467,"무더위쉼터, 한파쉼터"
서울백영고등학교 운동장,서울특별시 강서구 방화대로34길 13,37.56947,126.81744,지진대피소
마곡푸르지오아파트 지하 1층 주차장,서울특별시 강서구 방화대로34길 88,37.56998,126.82159,민방위대피시설
방화구립어르신사랑방,서울특별시 강서구 방화대로37길 47-5,37.5698,126.8139,"무더위쉼터, 한파쉼터"
동부센트레빌아파트 지하주차장 1~2층,서울특별시 강서구 방화대로45길 32,37.5747,126.81498,민방위대피시설
방화4단지아파트 412동 지하주차장 1층,서울특별시 강서구 방화대로47가길 22,37.577,126.81466,민방위대피시설
청솔(아)어르신사랑방,서울특별시 강서구 방화대로47길 55,37.57568,126.81289,무더위쉼터
방화3단지아파트 303동 지하주차장 1층,서울특별시 강서구 방화대로47길 55,37.57563,126.81297,민방위대피시설
강서공업고등학교 운동장,서울특별시 강서구 방화대로47길 9,37.57545,126.81566,지진대피소
방화2단지아파트 211동 지하주차장 1층,서울특별시 강서구 방화대로48길 40,37.57478,126.81896,민방위대피시설
방화2종합사회복지관,서울특별시 강서구 방화대로48길 40,37.57509,126.81958,무더위쉼터
방화2종합사회복지관우정경로당,서울특별시 강서구 방화대로48길 40,37.57424,126.82014,"무더위쉼터, 한파쉼터"
서울정곡초등학교 운동장,서울특별시 강서구 방화대로50길 22,37.57643,126.81896,지진대피소
다솔어르신사랑방,서울특별시 강서구 방화대로6길 24-3,37.55482,126.81817,"무더위쉼터, 한파쉼터"
장미공원,서울특별시 강서구 방화대로7다길 35-18,37.55667,126.81383,지진대피소
장미어르신사랑방,서울특별시 강서구 방화대로7다길 35-20,37.55686,126.8138,"무더위쉼터, 한파쉼터"
쌈지어린이공원,서울특별시 강서구 방화동 266-24,37.57121,126.81505,지진대피소
새싹어린이공원,서울특별시 강서구 방화동 583,37.56974,126.8094,지진대피소
민들레공원,서울특별시 강서구 방화동 648-13,37.56728,126.80674,지진대피소
삼정초등학교운동장,서울특별시 강서구 방화동 798,37.57996,126.81025,지진대피소
방원중학교운동장,서울특별시 강서구 방화동 808,37.57576,126.80881,지진대피소
치현초등학교운동장,서울특별시 강서구 방화동 833,37.57562,126.81457,지진대피소
삼정중학교운동장,서울특별시 강서구 방화동 856,37.58123,126.81075,지진대피소
삼정아파트 지하주차장 2~3층,서울특별시 강서구 방화동로 126,37.57198,126.81192,민방위대피시설
공항시장역 지하1~4층,"서울특별시 강서구 방화동로 지하30, 공항시장역",37.56361,126.81059,민방위대피시설
공항동주민센터,서울특별시 강서구 송정로 45,37.55884,126.81004,"무더위쉼터, 한파쉼터"
마곡수명산파크3단지(아)어르신사랑방,서울특별시 강서구 수명로1길 110,37.55277,126.82498,무더위쉼터
마곡수명산파크3단지 지하주차장 1~2층,서울특별시 강서구 수명로1길 110,37.55282,126.82491,민방위대피시설
마곡수명산파크4단지 지하주차장 1~2층,서울특별시 강서구 수명로1길 16,37.55123,126.82335,민방위대피시설
마곡수명산파크4단지(아)어르신사랑방,서울특별시 강서구 수명로1길 16,37.55116,126.82338,무더위쉼터
마곡수명산파크7단지(아)경로당,서울특별시 강서구 수명로2가길 22,37.54808,126.82259,무더위쉼터
마곡수명산파크7단지 지하주차장 1~2층,서울특별시 강서구 수명로2가길 22,37.54815,126.82271,민방위대피시설
마곡수명산파크5단지(아)어르신사랑방,서울특별시 강서구 수명로2길 105,37.55125,126.82679,무더위쉼터
마곡수명산파크5단지 지하주차장 1~2층,서울특별시 강서구 수명로2길 105,37.55199,126.82707,민방위대피시설
마곡수명산파크8단지 지하주차장 1층,서울특별시 강서구 수명로2길 108,37.55166,126.82865,민방위대피시설
수명중학교 운동장,서울특별시 강서구 수명로2길 16,37.54914,126.82386,지진대피소
마곡수명산파크6단지(아)경로당,서울특별시 강서구 수명로2길 63,37.55042,126.82575,무더위쉼터
마곡수명산파크6단지 지하주차장 1~2층,서울특별시 강서구 수명로2길 63,37.55037,126.82573,민방위대피시설
개화초등학교운동장,서울특별시 강서구 양천로 11,37.57344,126.80459,지진대피소
방화1단지장미아파트 103동 지하주차장 1층,서울특별시 강서구 양천로 125,37.5743,126.81749,민방위대피시설
장미(아)어르신사랑방,서울특별시 강서구 양천로 125,37.57424,126.81743,무더위쉼터
개화산역 지하 1~2층,서울특별시 강서구 양천로 22,37.57232,126.80576,민방위대피시설
양천초등학교운동장,서울특별시 강서구 양천로 329,37.5699,126.83978,지진대피소
등촌월드메르디앙(아)어르신사랑방,서울특별시 강서구 양천로 420,37.56465,126.84724,무더위쉼터
홈플러스 가양점 지하주차장 3층,서울특별시 강서구 양천로 431,37.56427,126.85011,민방위대피시설
가양우성(아)어르신사랑방,서울특별시 강서구 양천로 489,37.5622,126.85438,무더위쉼터
태영(아)어르신사랑방,서울특별시 강서구 양천로 590,37.55579,126.86394,무더위쉼터
금호타운(아)경로당,서울특별시 강서구 양천로 595,37.55636,126.865,무더위쉼터
증미어르신사랑방,서울특별시 강서구 양천로 603-7,37.5557,126.8657,"무더위쉼터, 한파쉼터"
쌍용예가(아)어르신사랑방,서울특별시 강서구 양천로 613,37.5552,126.86624,무더위쉼터
한마음삼성아파트 지하주차장 1~2 층,서울특별시 강서구 양천로 637,37.55447,126.86829,민방위대피시설
서울염창초등학교 운동장,서울특별시 강서구 양천로 646-28,37.55282,126.86798,지진대피소
관음삼성아파트 지하주차장 1~2층,서울특별시 강서구 양천로 656,37.55259,126.86913,민방위대피시설
관음삼성(아)경로당,서울특별시 강서구 양천로 656,37.55253,126.86912,무더위쉼터
보람더하임(아)경로당,서울특별시 강서구 양천로 666,37.55147,126.87014,무더위쉼터
동아3차아파트 지하주차장 1~3층,서울특별시 강서구 양천로 731,37.5502,126.87743,민방위대피시설
양천향교역 지하1~2층,서울특별시 강서구 양천로 지하 341,37.5687,126.84079,민방위대피시설
가양역 지하 1층,서울특별시 강서구 양천로 지하 485,37.56176,126.854,민방위대피시설
증미역 지하1~3층,서울특별시 강서구 양천로 지하 560,37.55755,126.86158,민방위대피시설
한서고등학교 운동장,서울특별시 강서구 양천로11길 47,37.57443,126.80842,지진대피소
방화9단지(아)어르신사랑방,서울특별시 강서구 양천로11길 57,37.57499,126.80756,"무더위쉼터, 한파쉼터"
방화9단지아파트 902동 지하주차장 1층,서울특별시 강서구 양천로11길 57,37.57487,126.80755,민방위대피시설
방화3차우림필유(아)경로당,서울특별시 강서구 양천로14길 118,37.56822,126.80808,무더위쉼터
마곡서광2차(아)어르신사랑방,서울특별시 강서구 양천로14길 17,37.57202,126.81071,무더위쉼터
방신서광아파트 101동 지하주차장 1층,"서울특별시 강서구 양천로14길 17, 101동",37.57202,126.81068,민방위대피시설
신안네트빌1단지 지하주차장 1층,서울특별시 강서구 양천로14길 37,37.57106,126.81017,민방위대피시설
신안네트빌2단지 201동 지하주차장 1층,서울특별시 강서구 양천로14길 61,37.57024,126.80961,민방위대피시설
대한항공정우회,서울특별시 강서구 양천로24길 108,37.56852,126.81519,"무더위쉼터, 한파쉼터"
치현마을서광아파트 105동 지하주차장 1층,서울특별시 강서구 양천로27길 129,37.57931,126.8193,민방위대피시설
방화동부어르신사랑방,서울특별시 강서구 양천로28길 12-9,37.57252,126.8199,"무더위쉼터, 한파쉼터"
마곡어르신사랑방,서울특별시 강서구 양천로30길 20,37.5723,126.8226,"무더위쉼터, 한파쉼터"
한솔솔파크(아)어르신사랑방,서울특별시 강서구 양천로30길 77,37.5696,126.82324,무더위쉼터
후포어르신사랑방,서울특별시 강서구 양천로47길 104,37.5749,126.83705,"무더위쉼터, 한파쉼터"
마곡벽산(아)어르신사랑방,서울특별시 강서구 양천로47길 118,37.57566,126.83783,무더위쉼터
가양어르신사랑방,서울특별시 강서구 양천로47나길 48-6,37.57233,126.84002,"무더위쉼터, 한파쉼터"
한강자이아파트경로당,서울특별시 강서구 양천로55길 55,37.56605,126.84876,무더위쉼터
서울시교육청학생교육원(구.공진중학교),서울특별시 강서구 양천로55길 56,37.56624,126.85074,지진대피소
탐라영재관 지하주차장 2~3층,서울특별시 강서구 양천로57길 10-10,37.56276,126.85276,민방위대피시설
가양5종합사회복지관 지하 1층,서울특별시 강서구 양천로57길 36,37.56355,126.8546,민방위대피시설
가양5종합사회복지관장수경로당,서울특별시 강서구 양천로57길 36,37.56425,126.85347,"무더위쉼터, 한파쉼터"
가양5종합사회복지관,서울특별시 강서구 양천로57길 36,37.5642,126.8535,무더위쉼터
가양4종합사회복지관,서울특별시 강서구 양천로57길 37,37.56464,126.85273,무더위쉼터
가양4종합사회복지관 지하 1층,서울특별시 강서구 양천로57길 37,37.56503,126.8519,민방위대피시설
가양4단지(아)어르신사랑방,서울특별시 강서구 양천로57길 37,37.56469,126.85265,"무더위쉼터, 한파쉼터"
경서중학교 운동장,서울특별시 강서구 양천로59길 31,37.56088,126.85885,지진대피소
황금내근린공원,서울특별시 강서구 양천로61길 101,37.56198,126.86381,지진대피소
강변한솔솔파크(아)어르신사랑방,서울특별시 강서구 양천로63길 38,37.55655,126.86653,무더위쉼터
강변한솔솔파크 지하주차장 1~2 층,서울특별시 강서구 양천로63길 38,37.55668,126.86655,민방위대피시설
벽산늘푸른경로당,서울특별시 강서구 양천로63길 52,37.55778,126.86589,무더위쉼터
벽산늘푸른아파트 지하주차장 1~2층,서울특별시 강서구 양천로63길 52,37.55805,126.86613,민방위대피시설
길훈(아)경로당,서울특별시 강서구 양천로65길 45,37.55583,126.86796,무더위쉼터
염창동주민센터,서울특별시 강서구 양천로67가길 63,37.55375,126.87091,"무더위쉼터, 한파쉼터"
염창중학교 운동장,서울특별시 강서구 양천로67가길 83,37.55354,126.87195,지진대피소
신동아(아)어르신사랑방,서울특별시 강서구 양천로67길 32,37.55499,126.86945,무더위쉼터
신동아아파트 지하주차장 1~2층,서울특별시 강서구 양천로67길 32,37.55513,126.86905,민방위대피시설
염창우성1차(아)경로당,서울특별시 강서구 양천로67길 77,37.55555,126.87032,무더위쉼터
염경중학교 운동장,서울특별시 강서구 양천로69길 35,37.55421,126.8709,지진대피소
염경초등학교운동장,서울특별시 강서구 양천로69길 49,37.55463,126.8714,지진대피소
서울방화초등학교 운동장,서울특별시 강서구 양천로6길 92,37.5685,126.80696,지진대피소
강변코아루(아)경로당,서울특별시 강서구 양천로71길 54,37.55324,126.87351,무더위쉼터
염창어르신사랑방,서울특별시 강서구 양천로73길 36,37.55176,126.87368,"무더위쉼터, 한파쉼터"
삼성하나로아파트 지하주차장 1층,서울특별시 강서구 양천로73길 5,37.55163,126.87191,민방위대피시설
염창한강동아(아)경로당,서울특별시 강서구 양천로73길 80,37.55392,126.87388,무더위쉼터
강변힐스테이트 지하주차장 1~2층,서울특별시 강서구 양천로75길 19,37.55125,126.87454,민방위대피시설
강변힐스테이트(아)경로당,서울특별시 강서구 양천로75길 19,37.55119,126.87422,무더위쉼터
염창현대1차(아)어르신사랑방,서울특별시 강서구 양천로75길 57,37.55285,126.87531,무더위쉼터
무학(아)경로당,서울특별시 강서구 양천로77길 45,37.55121,126.87658,무더위쉼터
염창강변어르신사랑방,서울특별시 강서구 양천로77길 58-25,37.55152,126.8759,"무더위쉼터, 한파쉼터"
복종어르신사랑방,서울특별시 강서구 양천로7길 11,37.57341,126.80773,"무더위쉼터, 한파쉼터"
백합공원,서울특별시 강서구 염창동 267-24,37.55118,126.86938,지진대피소
우장산한화꿈에그린아파트 지하주차장 2~3층,서울특별시 강서구 우장산로 103,37.55401,126.84739,민방위대피시설
우장산롯데아파트 지하주차장 1층,서울특별시 강서구 우장산로 92,37.55246,126.84649,민방위대피시설
우장산휴먼빌아파트 지하주차장 1층,서울특별시 강서구 우현로 18,37.54761,126.84379,민방위대피시설
우장산SK뷰(아)어르신사랑방,서울특별시 강서구 우현로 26,37.54813,126.84311,무더위쉼터
우장산동주민센터,서울특별시 강서구 우현로 34,37.54823,126.84179,"무더위쉼터, 한파쉼터"
화곡대림아파트 지하주차장 1층,서울특별시 강서구 월정로 160,37.53365,126.83736,민방위대피시설
화곡대림(아)경로당,서울특별시 강서구 월정로 160,37.53377,126.83766,무더위쉼터
월정초등학교운동장,서울특별시 강서구 월정로 176,37.53443,126.8363,지진대피소
곰달래어르신사랑방,서울특별시 강서구 월정로20길 38,37.52963,126.84072,"무더위쉼터, 한파쉼터"
태창네스트힐아파트 지하주차장 1층,서울특별시 강서구 초록마을로 121,37.53769,126.85099,민방위대피시설
탑건진선미아파트 지하주차장 1층,서울특별시 강서구 초록마을로 166,37.53624,126.84614,민방위대피시설
화곡초등학교운동장,서울특별시 강서구 초록마을로 28,37.54329,126.84616,지진대피소
거성경로당,서울특별시 강서구 초록마을로 65,37.54277,126.84997,"무더위쉼터, 한파쉼터"
초록동 어르신사랑방,서울특별시 강서구 초록마을로14길 36,37.54112,126.84846,한파쉼터
약수어르신사랑방,서울특별시 강서구 초록마을로32길 32,37.538,126.8475,"무더위쉼터, 한파쉼터"
구름공원,서울특별시 강서구 초록마을로4길 32-1,37.54334,126.844,지진대피소
화곡본동주민센터,서울특별시 강서구 초록마을로5길 29,37.54403,126.84763,"무더위쉼터, 한파쉼터"
신한은행 김포공항,서울특별시 강서구 하늘길 177,37.55687,126.80887,기후동행쉼터
김포공항역 9호선 지하 1~4층,서울특별시 강서구 하늘길 지하 77,37.56506,126.80299,민방위대피시설
서울탑산초등학교 운동장,서울특별시 강서구 허준로 109,37.56669,126.85241,지진대피소
대림경동(아)어르신사랑방,서울특별시 강서구 허준로 121,37.56622,126.85414,무더위쉼터
대림경동아파트 지하주차장 1층,서울특별시 강서구 허준로 121,37.56635,126.85403,민방위대피시설
강변(아)어르신사랑방,서울특별시 강서구 허준로 139,37.56511,126.85579,무더위쉼터
가양6단지아파트 지하주차장 1층,서울특별시 강서구 허준로 175,37.56323,126.85929,민방위대피시설
가양8단지아파트 지하주차장 1층,서울특별시 강서구 허준로 176,37.5621,126.85717,민방위대피시설
가양8단지(아)어르신사랑방,서울특별시 강서구 허준로 176,37.56213,126.85696,"무더위쉼터, 한파쉼터"
가양프라자 지하주차장 1층,서울특별시 강서구 허준로 198,37.56125,126.86025,민방위대피시설
가양3동주민센터,서울특별시 강서구 허준로 202,37.56106,126.86054,"무더위쉼터, 한파쉼터"
가양7종합사회복지관정우경로당,서울특별시 강서구 허준로 209,37.56188,126.86133,"무더위쉼터, 한파쉼터"
가양7종합사회복지관,서울특별시 강서구 허준로 209,37.5613,126.86238,무더위쉼터
가양9-1단지(아)어르신사랑방,서울특별시 강서구 허준로 224,37.56008,126.86164,"무더위쉼터, 한파쉼터"
가양9-1단지아파트 지하주차장 1층,서울특별시 강서구 허준로 224,37.56008,126.86164,민방위대피시설
세현고등학교 운동장,서울특별시 강서구 허준로 227,37.56002,126.86409,지진대피소
한강타운(아)어르신사랑방,서울특별시 강서구 허준로 23,37.57136,126.84498,무더위쉼터
가양9-2단지아파트 지하주차장 1층,서울특별시 강서구 허준로 234,37.55872,126.86353,민방위대피시설
가양1동주민센터,서울특별시 강서구 허준로 30,37.56952,126.84465,"무더위쉼터, 한파쉼터"
성재중학교 운동장,서울특별시 강서구 허준로 36,37.56928,126.84605,지진대피소
가양2단지(아)어르신사랑방,서울특별시 강서구 허준로 47,37.57048,126.84717,무더위쉼터
동양고등학교 운동장,서울특별시 강서구 허준로 50,37.56881,126.8478,지진대피소
가양중앙하이츠(아)어르신사랑방,서울특별시 강서구 허준로 55-20,37.56977,126.84926,무더위쉼터
기쁜우리복지관 지하 1층,서울특별시 강서구 허준로 65,37.56923,126.8489,민방위대피시설
한보구암아파트 지하주차장 1~3층,서울특별시 강서구 허준로 76,37.5681,126.84896,민방위대피시설
한보구암(아)어르신사랑방,서울특별시 강서구 허준로 76,37.56816,126.84894,무더위쉼터
나들이공원,서울특별시 강서구 허준로 9,37.57182,126.84425,지진대피소
가양2동주민센터,서울특별시 강서구 허준로 93,37.56738,126.85126,"무더위쉼터, 한파쉼터"
영등포공업고등학교 운동장,서울특별시 강서구 허준로5길 15,37.56937,126.85029,지진대피소
허준근린공원,서울특별시 강서구 허준로5길 42,37.56784,126.85241,지진대피소
미리내공원,서울특별시 강서구 화곡동 1008-32,37.54768,126.83476,지진대피소
노을공원,서울특별시 강서구 화곡동 105-194,37.53984,126.84394,지진대피소
신월초등학교운동장,서울특별시 강서구 화곡동 1080,37.53995,126.8391,지진대피소
천사어린이공원,서울특별시 강서구 화곡동 1139-1,37.5469,126.83299,지진대피소
소나무 어린이 공원,서울특별시 강서구 화곡동 29-31,37.54709,126.84784,지진대피소
더부리어린이공원,서울특별시 강서구 화곡동 339-19,37.53488,126.84673,지진대피소
배다리공원,서울특별시 강서구 화곡동 341-24,37.53212,126.84829,지진대피소
까치어린이공원,서울특별시 강서구 화곡동 354-14,37.53342,126.84189,지진대피소
필마공원,서울특별시 강서구 화곡동 355-12,37.53153,126.83886,지진대피소
큰별공원,서울특별시 강서구 화곡동 46-41,37.54448,126.84894,지진대피소
능골공원,서울특별시 강서구 화곡동 468-1,37.53675,126.85529,지진대피소
한광고등학교 운동장,서울특별시 강서구 화곡동 488-3,37.53866,126.85818,지진대피소
달빛공원,서울특별시 강서구 화곡동 783-1,37.53117,126.86293,지진대피소
무지개어린이공원,서울특별시 강서구 화곡동 806-10,37.53396,126.86129,지진대피소
뜸부기공원,서울특별시 강서구 화곡동 845-19,37.53013,126.85695,지진대피소
모태어린이공원,서울특별시 강서구 화곡동 892-17,37.52951,126.84952,지진대피소
호돌이공원,서울특별시 강서구 화곡동 906-26,37.52822,126.84599,지진대피소
봉제어르신사랑방,서울특별시 강서구 화곡동 산 47-16,37.54574,126.8517,"무더위쉼터, 한파쉼터"
꿈돌이 어린이공원,서울특별시 강서구 화곡로 234,37.54591,126.84536,지진대피소
우장초등학교운동장,서울특별시 강서구 화곡로 263,37.5488,126.84633,지진대피소
강서구청 지하 2층 (지하상황실),서울특별시 강서구 화곡로 302,37.55088,126.84966,민방위대피시설
강서구청,서울특별시 강서구 화곡로 302,37.55089,126.8496,"무더위쉼터, 한파쉼터"
보람2차(아)어르신사랑방,서울특별시 강서구 화곡로 390,37.5577,126.85399,무더위쉼터
마포고등학교 운동장,서울특별시 강서구 화곡로 403,37.55895,126.85286,지진대피소
유석초등학교 운동장,서울특별시 강서구 화곡로 403,37.56023,126.85353,지진대피소
신한은행 가양역,서울특별시 강서구 화곡로 416,37.56002,126.85538,기후동행쉼터
화곡역 지하1~2층,서울특별시 강서구 화곡로 지하 168,37.54123,126.8408,민방위대피시설
화곡푸르지오 144동~150동 지하주차장 1~2층,서울특별시 강서구 화곡로13길 107,37.54462,126.83144,민방위대피시설
화곡푸르지오(아)어르신사랑방,서울특별시 강서구 화곡로13길 107,37.54212,126.83127,무더위쉼터
수명어르신사랑방,서울특별시 강서구 화곡로15길 18,37.54087,126.83434,"무더위쉼터, 한파쉼터"
수명어린이공원,서울특별시 강서구 화곡로15길 18,37.54084,126.83444,지진대피소
우장산숲아이파크(아)경로당,서울특별시 강서구 화곡로31다길 20,37.54449,126.84186,무더위쉼터
역말어린이공원,서울특별시 강서구 화곡로44가길 52-4,37.54964,126.84877,지진대피소
중앙어르신사랑방,서울특별시 강서구 화곡로44가길 52-4,37.54978,126.84896,"무더위쉼터, 한파쉼터"
우장산어르신사랑방,서울특별시 강서구 화곡로53길 56-10,37.55202,126.84644,"무더위쉼터, 한파쉼터"
연지어르신사랑방,서울특별시 강서구 화곡로58길 30-7,37.55243,126.8526,"무더위쉼터, 한파쉼터"
등서초등학교 운동장,서울특별시 강서구 화곡로58길 86,37.55188,126.85494,지진대피소
시립강서어르신종합복지관,서울특별시 강서구 화곡로61길 85,37.5581,126.8475,무더위쉼터
등촌주공6단지아파트 지하주차장 1층,서울특별시 강서구 화곡로63가길 18,37.55967,126.84835,민방위대피시설
등촌6단지(아)어르신사랑방,서울특별시 강서구 화곡로63가길 18,37.55998,126.84818,"무더위쉼터, 한파쉼터"
등촌10단지(아)어르신사랑방,서울특별시 강서구 화곡로63가길 67,37.56167,126.84855,무더위쉼터
등촌주공10단지아파트 지하주차장 1층,서울특별시 강서구 화곡로63가길 71,37.56236,126.84837,민방위대피시설
등촌9종합사회복지관푸른경로당,서울특별시 강서구 화곡로63가길 92,37.56205,126.85009,"무더위쉼터, 한파쉼터"
등촌9종합사회복지관,서울특별시 강서구 화곡로63가길 92,37.56183,126.8498,무더위쉼터
등촌3동주민센터,서울특별시 강서구 화곡로63길 96,37.55887,126.84792,"무더위쉼터, 한파쉼터"
등현초등학교운동장,서울특별시 강서구 화곡로65길 124,37.56105,126.8479,지진대피소
등원중학교 운동장,서울특별시 강서구 화곡로65길 50,37.55933,126.85131,지진대피소
올림픽체육센터 지하1층,서울특별시 강서구 화곡로65길 62,37.55969,126.85057,민방위대피시설
서울등원초등학교 운동장,서울특별시 강서구 화곡로65길 90,37.56032,126.84969,지진대피소
등촌어르신사랑방,서울특별시 강서구 화곡로66길 186-12,37.55377,126.86241,"무더위쉼터, 한파쉼터"
신원(아)경로당,서울특별시 강서구 화곡로66길 50,37.55704,126.85636,무더위쉼터
코오롱1차아파트 지하주차장 1~2층,서울특별시 강서구 화곡로66길 90,37.55598,126.85828,민방위대피시설
라인(아)어르신사랑방,서울특별시 강서구 화곡로68길 33,37.55965,126.85676,무더위쉼터
등서어르신사랑방,서울특별시 강서구 화곡로68길 8,37.55919,126.85457,"무더위쉼터, 한파쉼터"
신한은행 서울대학교,서울특별시 관악구 관악로 1,37.45914,126.95069,기후동행쉼터
삼성(아)경로당,서울특별시 관악구 관악로 125,37.47613,126.95214,무더위쉼터
건영6차(아)경로당,서울특별시 관악구 관악로 133,37.47709,126.95196,무더위쉼터
관악구청,서울특별시 관악구 관악로 145,37.47827,126.9514,한파쉼터
관악 위버폴리스 (지하2~6층),서울특별시 관악구 관악로 195,37.48272,126.95323,민방위대피시설
동진빌딩 지하2~3층,서울특별시 관악구 관악로 217,37.48438,126.9546,민방위대피시설
봉천종합사회복지관,서울특별시 관악구 관악로 254,37.48669,126.95758,무더위쉼터
성현동자치회관 지하주차장 (지하1층),서울특별시 관악구 관악로 255-7,37.48722,126.95661,민방위대피시설
성현동아(아)1단지경로당,서울특별시 관악구 관악로 285,37.48947,126.95437,무더위쉼터
성현동아아파트109동 지하주차장 (지하1층),서울특별시 관악구 관악로 285,37.48959,126.95555,민방위대피시설
관악현대(아)경로당,서울특별시 관악구 관악로 304,37.49223,126.95832,무더위쉼터
관악현대아파트 120동 지하1층주차장,서울특별시 관악구 관악로 304,37.49227,126.95847,민방위대피시설
문영여자중학교 운동장,서울특별시 관악구 관악로 85,37.47272,126.95144,지진대피소
